[
  {
    "rank": 1,
    "team_name": "琉球大学",
    "team_short_name": "琉球",
    "runner_name": "西表島",
    "total_distance_km": 777.2,
    "latitude": 34.44858853311043,
    "longitude": 133.24635090350517,
    "is_shadow_confederation": false
  },
  {
    "rank": 2,
    "team_name": "熊本学園大学",
    "team_short_name": "熊学",
    "runner_name": "犬飼",
    "total_distance_km": 730.4,
    "latitude": 34.5712116229073,
    "longitude": 133.69507153199362,
    "is_shadow_confederation": false
  },
  {
    "rank": 3,
    "team_name": "福岡大学",
    "team_short_name": "福岡",
    "runner_name": "口之津",
    "total_distance_km": 714.8,
    "latitude": 34.641749237882124,
    "longitude": 133.83288100882436,
    "is_shadow_confederation": false
  },
  {
    "rank": 4,
    "team_name": "名古屋大学",
    "team_short_name": "名大",
    "runner_name": "名古屋",
    "total_distance_km": 712.7,
    "latitude": 34.64608018818522,
    "longitude": 133.8548260265509,
    "is_shadow_confederation": false
  },
  {
    "rank": 5,
    "team_name": "鹿児島大学",
    "team_short_name": "鹿大",
    "runner_name": "鹿児島",
    "total_distance_km": 712.6,
    "latitude": 34.64606327101317,
    "longitude": 133.85591659056334,
    "is_shadow_confederation": false
  },
  {
    "rank": 6,
    "team_name": "関西大学",
    "team_short_name": "関大",
    "runner_name": "八尾（大阪）",
    "total_distance_km": 710.1,
    "latitude": 34.648463556284085,
    "longitude": 133.8812380630523,
    "is_shadow_confederation": false
  },
  {
    "rank": 7,
    "team_name": "鳥取大学",
    "team_short_name": "鳥取",
    "runner_name": "米子",
    "total_distance_km": 705.2,
    "latitude": 34.65609106905875,
    "longitude": 133.93285494378773,
    "is_shadow_confederation": false
  },
  {
    "rank": 8,
    "team_name": "広島経済大学",
    "team_short_name": "広経",
    "runner_name": "福山",
    "total_distance_km": 703.7,
    "latitude": 34.66314348676574,
    "longitude": 133.94420294660986,
    "is_shadow_confederation": false
  },
  {
    "rank": 9,
    "team_name": "立命館大学",
    "team_short_name": "立命",
    "runner_name": "長浜（滋賀）",
    "total_distance_km": 702.8,
    "latitude": 34.668722116848286,
    "longitude": 133.95071768246765,
    "is_shadow_confederation": false
  },
  {
    "rank": 9,
    "team_name": "四国大学",
    "team_short_name": "四国",
    "runner_name": "新居浜",
    "total_distance_km": 702.8,
    "latitude": 34.668722116848286,
    "longitude": 133.95071768246765,
    "is_shadow_confederation": false
  },
  {
    "rank": 11,
    "team_name": "上武大学",
    "team_short_name": "上武",
    "runner_name": "小山",
    "total_distance_km": 689.7,
    "latitude": 34.708956497395924,
    "longitude": 134.08029391520483,
    "is_shadow_confederation": false
  },
  {
    "rank": 12,
    "team_name": "山梨学院大学",
    "team_short_name": "山学",
    "runner_name": "三島",
    "total_distance_km": 689.0,
    "latitude": 34.71202706202654,
    "longitude": 134.08696937106717,
    "is_shadow_confederation": false
  },
  {
    "rank": 13,
    "team_name": "三重大学",
    "team_short_name": "三重",
    "runner_name": "津",
    "total_distance_km": 685.1,
    "latitude": 34.7286686921099,
    "longitude": 134.11945259063876,
    "is_shadow_confederation": false
  },
  {
    "rank": 14,
    "team_name": "金沢大学",
    "team_short_name": "金沢",
    "runner_name": "敦賀",
    "total_distance_km": 682.7,
    "latitude": 34.73597347284844,
    "longitude": 134.14407154148043,
    "is_shadow_confederation": false
  },
  {
    "rank": 15,
    "team_name": "日本大学",
    "team_short_name": "日大",
    "runner_name": "八王子",
    "total_distance_km": 659.6,
    "latitude": 34.840376634374145,
    "longitude": 134.33890087137254,
    "is_shadow_confederation": false
  },
  {
    "rank": 16,
    "team_name": "学連選抜",
    "team_short_name": "学連",
    "runner_name": "多度津",
    "total_distance_km": 632.7,
    "latitude": 34.82947865123627,
    "longitude": 134.6148507078111,
    "is_shadow_confederation": false
  },
  {
    "rank": 17,
    "team_name": "福島大学",
    "team_short_name": "福島",
    "runner_name": "浪江",
    "total_distance_km": 623.5,
    "latitude": 34.83198075228537,
    "longitude": 134.69963646504786,
    "is_shadow_confederation": false
  },
  {
    "rank": 18,
    "team_name": "東北大学",
    "team_short_name": "東北",
    "runner_name": "丸森",
    "total_distance_km": 617.7,
    "latitude": 34.80700488568081,
    "longitude": 134.75376717932954,
    "is_shadow_confederation": false
  }
]