[
  {
    "rank": 1,
    "team_name": "名古屋大学",
    "team_short_name": "名大",
    "runner_name": "美濃",
    "total_distance_km": 207.1,
    "latitude": 34.83759320589407,
    "longitude": 138.12413506682975,
    "is_shadow_confederation": false
  },
  {
    "rank": 2,
    "team_name": "四国大学",
    "team_short_name": "四国",
    "runner_name": "大三島",
    "total_distance_km": 204.6,
    "latitude": 34.84387722037022,
    "longitude": 138.14974253667526,
    "is_shadow_confederation": false
  },
  {
    "rank": 3,
    "team_name": "熊本学園大学",
    "team_short_name": "熊学",
    "runner_name": "岱明",
    "total_distance_km": 201.0,
    "latitude": 34.84917068408297,
    "longitude": 138.18766339596948,
    "is_shadow_confederation": false
  },
  {
    "rank": 4,
    "team_name": "福岡大学",
    "team_short_name": "福岡",
    "runner_name": "福岡",
    "total_distance_km": 199.7,
    "latitude": 34.85375770418336,
    "longitude": 138.20072923441376,
    "is_shadow_confederation": false
  },
  {
    "rank": 5,
    "team_name": "立命館大学",
    "team_short_name": "立命",
    "runner_name": "福知山",
    "total_distance_km": 199.6,
    "latitude": 34.85409167578029,
    "longitude": 138.20174489392952,
    "is_shadow_confederation": false
  },
  {
    "rank": 6,
    "team_name": "関西大学",
    "team_short_name": "関大",
    "runner_name": "和田山",
    "total_distance_km": 198.9,
    "latitude": 34.857513244406626,
    "longitude": 138.2076692640909,
    "is_shadow_confederation": false
  },
  {
    "rank": 6,
    "team_name": "金沢大学",
    "team_short_name": "金沢",
    "runner_name": "小浜",
    "total_distance_km": 198.9,
    "latitude": 34.857513244406626,
    "longitude": 138.2076692640909,
    "is_shadow_confederation": false
  },
  {
    "rank": 8,
    "team_name": "琉球大学",
    "team_short_name": "琉球",
    "runner_name": "仲筋",
    "total_distance_km": 198.6,
    "latitude": 34.859908199265554,
    "longitude": 138.20919276470283,
    "is_shadow_confederation": false
  },
  {
    "rank": 9,
    "team_name": "広島経済大学",
    "team_short_name": "広経",
    "runner_name": "加計",
    "total_distance_km": 197.5,
    "latitude": 34.867870366177335,
    "longitude": 138.21583850540213,
    "is_shadow_confederation": false
  },
  {
    "rank": 10,
    "team_name": "鳥取大学",
    "team_short_name": "鳥取",
    "runner_name": "鳥取",
    "total_distance_km": 196.4,
    "latitude": 34.870796449610125,
    "longitude": 138.22717017362174,
    "is_shadow_confederation": false
  },
  {
    "rank": 11,
    "team_name": "上武大学",
    "team_short_name": "上武",
    "runner_name": "越谷",
    "total_distance_km": 196.0,
    "latitude": 34.873296549015805,
    "longitude": 138.2301649777746,
    "is_shadow_confederation": false
  },
  {
    "rank": 12,
    "team_name": "日本大学",
    "team_short_name": "日大",
    "runner_name": "古河",
    "total_distance_km": 195.6,
    "latitude": 34.876265943652136,
    "longitude": 138.23264673437285,
    "is_shadow_confederation": false
  },
  {
    "rank": 13,
    "team_name": "鹿児島大学",
    "team_short_name": "鹿大",
    "runner_name": "川内（鹿児島）",
    "total_distance_km": 195.5,
    "latitude": 34.87700829231122,
    "longitude": 138.23326717352242,
    "is_shadow_confederation": false
  },
  {
    "rank": 14,
    "team_name": "三重大学",
    "team_short_name": "三重",
    "runner_name": "五條",
    "total_distance_km": 192.8,
    "latitude": 34.890001736338405,
    "longitude": 138.2576819921712,
    "is_shadow_confederation": false
  },
  {
    "rank": 15,
    "team_name": "福島大学",
    "team_short_name": "福島",
    "runner_name": "石川",
    "total_distance_km": 189.0,
    "latitude": 34.909981411646186,
    "longitude": 138.28851942729364,
    "is_shadow_confederation": false
  },
  {
    "rank": 16,
    "team_name": "山梨学院大学",
    "team_short_name": "山学",
    "runner_name": "南信濃",
    "total_distance_km": 188.4,
    "latitude": 34.91517968116876,
    "longitude": 138.2903316200827,
    "is_shadow_confederation": false
  },
  {
    "rank": 17,
    "team_name": "東北大学",
    "team_short_name": "東北",
    "runner_name": "山形（山形）",
    "total_distance_km": 160.1,
    "latitude": 35.050857551367365,
    "longitude": 138.5219089966959,
    "is_shadow_confederation": false
  },
  {
    "rank": 18,
    "team_name": "学連選抜",
    "team_short_name": "学連",
    "runner_name": "新潟",
    "total_distance_km": 154.8,
    "latitude": 35.09045303730688,
    "longitude": 138.5497887978457,
    "is_shadow_confederation": false
  },
  {
    "rank": null,
    "team_name": "区間記録連合",
    "team_short_name": "区間記録",
    "runner_name": "佐野",
    "total_distance_km": 228.7,
    "latitude": 34.760721880038666,
    "longitude": 137.94845527579187,
    "is_shadow_confederation": true
  }
]