[
  {
    "rank": 1,
    "team_name": "琉球大学",
    "team_short_name": "琉球",
    "runner_name": "那覇",
    "total_distance_km": 720.3,
    "latitude": 34.61463973479552,
    "longitude": 133.78484062217055,
    "is_shadow_confederation": false
  },
  {
    "rank": 2,
    "team_name": "鹿児島大学",
    "team_short_name": "鹿大",
    "runner_name": "笠利",
    "total_distance_km": 623.9,
    "latitude": 34.832572874953016,
    "longitude": 134.69532699398246,
    "is_shadow_confederation": false
  },
  {
    "rank": 3,
    "team_name": "熊本学園大学",
    "team_short_name": "熊学",
    "runner_name": "大分",
    "total_distance_km": 613.7,
    "latitude": 34.79271545666803,
    "longitude": 134.79172698849567,
    "is_shadow_confederation": false
  },
  {
    "rank": 4,
    "team_name": "福岡大学",
    "team_short_name": "福岡",
    "runner_name": "博多",
    "total_distance_km": 588.0,
    "latitude": 34.646901173219426,
    "longitude": 134.99952348708626,
    "is_shadow_confederation": false
  },
  {
    "rank": 5,
    "team_name": "四国大学",
    "team_short_name": "四国",
    "runner_name": "徳島",
    "total_distance_km": 561.7,
    "latitude": 34.714172454373916,
    "longitude": 135.2458222030629,
    "is_shadow_confederation": false
  },
  {
    "rank": 6,
    "team_name": "広島経済大学",
    "team_short_name": "広経",
    "runner_name": "高松（香川）",
    "total_distance_km": 543.7,
    "latitude": 34.71947294620258,
    "longitude": 135.43371250849185,
    "is_shadow_confederation": false
  },
  {
    "rank": 7,
    "team_name": "鳥取大学",
    "team_short_name": "鳥取",
    "runner_name": "境",
    "total_distance_km": 531.4,
    "latitude": 34.706182045388154,
    "longitude": 135.54620195197265,
    "is_shadow_confederation": false
  },
  {
    "rank": 8,
    "team_name": "名古屋大学",
    "team_short_name": "名大",
    "runner_name": "多治見",
    "total_distance_km": 530.6,
    "latitude": 34.713391480651254,
    "longitude": 135.54640655311962,
    "is_shadow_confederation": false
  },
  {
    "rank": 9,
    "team_name": "関西大学",
    "team_short_name": "関大",
    "runner_name": "枚方",
    "total_distance_km": 525.0,
    "latitude": 34.75233266912868,
    "longitude": 135.58175442197165,
    "is_shadow_confederation": false
  },
  {
    "rank": 10,
    "team_name": "立命館大学",
    "team_short_name": "立命",
    "runner_name": "舞鶴",
    "total_distance_km": 514.4,
    "latitude": 34.81173062023452,
    "longitude": 135.6646575947402,
    "is_shadow_confederation": false
  },
  {
    "rank": 11,
    "team_name": "三重大学",
    "team_short_name": "三重",
    "runner_name": "奈良",
    "total_distance_km": 508.8,
    "latitude": 34.85006316941373,
    "longitude": 135.70308564702827,
    "is_shadow_confederation": false
  },
  {
    "rank": 12,
    "team_name": "日本大学",
    "team_short_name": "日大",
    "runner_name": "牛久",
    "total_distance_km": 498.0,
    "latitude": 34.93426822843864,
    "longitude": 135.7450216698914,
    "is_shadow_confederation": false
  },
  {
    "rank": 13,
    "team_name": "上武大学",
    "team_short_name": "上武",
    "runner_name": "桐生",
    "total_distance_km": 497.1,
    "latitude": 34.942378239173124,
    "longitude": 135.74526671911244,
    "is_shadow_confederation": false
  },
  {
    "rank": 14,
    "team_name": "金沢大学",
    "team_short_name": "金沢",
    "runner_name": "福井",
    "total_distance_km": 494.8,
    "latitude": 34.96310382216126,
    "longitude": 135.74589295601066,
    "is_shadow_confederation": false
  },
  {
    "rank": 15,
    "team_name": "山梨学院大学",
    "team_short_name": "山学",
    "runner_name": "甲府",
    "total_distance_km": 469.0,
    "latitude": 34.98838992808075,
    "longitude": 135.93256848116187,
    "is_shadow_confederation": false
  },
  {
    "rank": 16,
    "team_name": "学連選抜",
    "team_short_name": "学連",
    "runner_name": "久世",
    "total_distance_km": 434.3,
    "latitude": 34.93879270988204,
    "longitude": 136.26113418547786,
    "is_shadow_confederation": false
  },
  {
    "rank": 17,
    "team_name": "福島大学",
    "team_short_name": "福島",
    "runner_name": "福島",
    "total_distance_km": 433.5,
    "latitude": 34.938008551518024,
    "longitude": 136.2697709182388,
    "is_shadow_confederation": false
  },
  {
    "rank": 18,
    "team_name": "東北大学",
    "team_short_name": "東北",
    "runner_name": "大館",
    "total_distance_km": 365.7,
    "latitude": 35.117591794922525,
    "longitude": 136.75080698713697,
    "is_shadow_confederation": false
  }
]