[
  {
    "rank": 1,
    "team_name": "琉球大学",
    "team_short_name": "琉球",
    "runner_name": "盛山",
    "total_distance_km": 329.4,
    "latitude": 34.994248465084354,
    "longitude": 137.0748552430193,
    "is_shadow_confederation": false
  },
  {
    "rank": 2,
    "team_name": "熊本学園大学",
    "team_short_name": "熊学",
    "runner_name": "八代",
    "total_distance_km": 317.1,
    "latitude": 34.94276371211945,
    "longitude": 137.191291161472,
    "is_shadow_confederation": false
  },
  {
    "rank": 3,
    "team_name": "立命館大学",
    "team_short_name": "立命",
    "runner_name": "京田辺",
    "total_distance_km": 309.0,
    "latitude": 34.895374949890055,
    "longitude": 137.2528263052253,
    "is_shadow_confederation": false
  },
  {
    "rank": 4,
    "team_name": "福岡大学",
    "team_short_name": "福岡",
    "runner_name": "黒木",
    "total_distance_km": 304.5,
    "latitude": 34.869944902886694,
    "longitude": 137.28861852881346,
    "is_shadow_confederation": false
  },
  {
    "rank": 5,
    "team_name": "四国大学",
    "team_short_name": "四国",
    "runner_name": "御荘",
    "total_distance_km": 300.6,
    "latitude": 34.84723694666598,
    "longitude": 137.3198503533145,
    "is_shadow_confederation": false
  },
  {
    "rank": 6,
    "team_name": "関西大学",
    "team_short_name": "関大",
    "runner_name": "上郡",
    "total_distance_km": 299.4,
    "latitude": 34.83788010824812,
    "longitude": 137.32643062180838,
    "is_shadow_confederation": false
  },
  {
    "rank": 7,
    "team_name": "名古屋大学",
    "team_short_name": "名大",
    "runner_name": "大垣",
    "total_distance_km": 297.6,
    "latitude": 34.82661730653438,
    "longitude": 137.33958976707066,
    "is_shadow_confederation": false
  },
  {
    "rank": 8,
    "team_name": "鹿児島大学",
    "team_short_name": "鹿大",
    "runner_name": "加久藤",
    "total_distance_km": 297.2,
    "latitude": 34.823879958003715,
    "longitude": 137.34242092599797,
    "is_shadow_confederation": false
  },
  {
    "rank": 9,
    "team_name": "三重大学",
    "team_short_name": "三重",
    "runner_name": "小俣",
    "total_distance_km": 297.0,
    "latitude": 34.82249267345358,
    "longitude": 137.34381701601612,
    "is_shadow_confederation": false
  },
  {
    "rank": 10,
    "team_name": "広島経済大学",
    "team_short_name": "広経",
    "runner_name": "府中（広島）",
    "total_distance_km": 293.0,
    "latitude": 34.793874818977734,
    "longitude": 137.37035422885455,
    "is_shadow_confederation": false
  },
  {
    "rank": 11,
    "team_name": "鳥取大学",
    "team_short_name": "鳥取",
    "runner_name": "広瀬",
    "total_distance_km": 292.4,
    "latitude": 34.789643473798066,
    "longitude": 137.37443722540525,
    "is_shadow_confederation": false
  },
  {
    "rank": 12,
    "team_name": "金沢大学",
    "team_short_name": "金沢",
    "runner_name": "七尾",
    "total_distance_km": 292.3,
    "latitude": 34.78893824960145,
    "longitude": 137.37511772483037,
    "is_shadow_confederation": false
  },
  {
    "rank": 13,
    "team_name": "山梨学院大学",
    "team_short_name": "山学",
    "runner_name": "大月",
    "total_distance_km": 284.5,
    "latitude": 34.73631950052728,
    "longitude": 137.42425864881275,
    "is_shadow_confederation": false
  },
  {
    "rank": 14,
    "team_name": "上武大学",
    "team_short_name": "上武",
    "runner_name": "熊谷",
    "total_distance_km": 282.6,
    "latitude": 34.72396352113986,
    "longitude": 137.43465006063033,
    "is_shadow_confederation": false
  },
  {
    "rank": 15,
    "team_name": "日本大学",
    "team_short_name": "日大",
    "runner_name": "下館",
    "total_distance_km": 278.9,
    "latitude": 34.71319170936833,
    "longitude": 137.47109760157258,
    "is_shadow_confederation": false
  },
  {
    "rank": 16,
    "team_name": "福島大学",
    "team_short_name": "福島",
    "runner_name": "津川",
    "total_distance_km": 265.8,
    "latitude": 34.693923634931046,
    "longitude": 137.58439981404086,
    "is_shadow_confederation": false
  },
  {
    "rank": 17,
    "team_name": "東北大学",
    "team_short_name": "東北",
    "runner_name": "高畠",
    "total_distance_km": 252.4,
    "latitude": 34.696555534921146,
    "longitude": 137.72278368386478,
    "is_shadow_confederation": false
  },
  {
    "rank": 18,
    "team_name": "学連選抜",
    "team_short_name": "学連",
    "runner_name": "大村",
    "total_distance_km": 234.3,
    "latitude": 34.74078803117667,
    "longitude": 137.89298244839068,
    "is_shadow_confederation": false
  }
]