[
  {
    "rank": 1,
    "team_name": "琉球大学",
    "team_short_name": "琉球",
    "runner_name": "盛山",
    "total_distance_km": 297.6,
    "latitude": 34.82661730653438,
    "longitude": 137.33958976707066,
    "is_shadow_confederation": false
  },
  {
    "rank": 2,
    "team_name": "熊本学園大学",
    "team_short_name": "熊学",
    "runner_name": "八代",
    "total_distance_km": 293.3,
    "latitude": 34.79599049156757,
    "longitude": 137.3683127305792,
    "is_shadow_confederation": false
  },
  {
    "rank": 3,
    "team_name": "立命館大学",
    "team_short_name": "立命",
    "runner_name": "京田辺",
    "total_distance_km": 282.3,
    "latitude": 34.72302229405883,
    "longitude": 137.43772063072146,
    "is_shadow_confederation": false
  },
  {
    "rank": 4,
    "team_name": "福岡大学",
    "team_short_name": "福岡",
    "runner_name": "黒木",
    "total_distance_km": 280.6,
    "latitude": 34.72051094461502,
    "longitude": 137.4556916963584,
    "is_shadow_confederation": false
  },
  {
    "rank": 5,
    "team_name": "鹿児島大学",
    "team_short_name": "鹿大",
    "runner_name": "加久藤",
    "total_distance_km": 273.4,
    "latitude": 34.67979782048235,
    "longitude": 137.50696355775983,
    "is_shadow_confederation": false
  },
  {
    "rank": 6,
    "team_name": "関西大学",
    "team_short_name": "関大",
    "runner_name": "上郡",
    "total_distance_km": 272.9,
    "latitude": 34.679560866363886,
    "longitude": 137.5122546643952,
    "is_shadow_confederation": false
  },
  {
    "rank": 7,
    "team_name": "金沢大学",
    "team_short_name": "金沢",
    "runner_name": "七尾",
    "total_distance_km": 270.9,
    "latitude": 34.68079805624204,
    "longitude": 137.53374115588605,
    "is_shadow_confederation": false
  },
  {
    "rank": 8,
    "team_name": "名古屋大学",
    "team_short_name": "名大",
    "runner_name": "大垣",
    "total_distance_km": 269.0,
    "latitude": 34.68580284939514,
    "longitude": 137.55347102662836,
    "is_shadow_confederation": false
  },
  {
    "rank": 9,
    "team_name": "三重大学",
    "team_short_name": "三重",
    "runner_name": "小俣",
    "total_distance_km": 268.2,
    "latitude": 34.68834369376436,
    "longitude": 137.5616414885743,
    "is_shadow_confederation": false
  },
  {
    "rank": 9,
    "team_name": "四国大学",
    "team_short_name": "四国",
    "runner_name": "御荘",
    "total_distance_km": 268.2,
    "latitude": 34.68834369376436,
    "longitude": 137.5616414885743,
    "is_shadow_confederation": false
  },
  {
    "rank": 11,
    "team_name": "広島経済大学",
    "team_short_name": "広経",
    "runner_name": "府中（広島）",
    "total_distance_km": 268.0,
    "latitude": 34.689761803439346,
    "longitude": 137.56291635476575,
    "is_shadow_confederation": false
  },
  {
    "rank": 12,
    "team_name": "鳥取大学",
    "team_short_name": "鳥取",
    "runner_name": "広瀬",
    "total_distance_km": 267.0,
    "latitude": 34.6940166642355,
    "longitude": 137.5713104241736,
    "is_shadow_confederation": false
  },
  {
    "rank": 13,
    "team_name": "山梨学院大学",
    "team_short_name": "山学",
    "runner_name": "大月",
    "total_distance_km": 261.3,
    "latitude": 34.68367825872377,
    "longitude": 137.63080222237096,
    "is_shadow_confederation": false
  },
  {
    "rank": 14,
    "team_name": "上武大学",
    "team_short_name": "上武",
    "runner_name": "熊谷",
    "total_distance_km": 253.2,
    "latitude": 34.69165375188027,
    "longitude": 137.71653496157037,
    "is_shadow_confederation": false
  },
  {
    "rank": 15,
    "team_name": "日本大学",
    "team_short_name": "日大",
    "runner_name": "下館",
    "total_distance_km": 252.7,
    "latitude": 34.69498506295344,
    "longitude": 137.72021053173856,
    "is_shadow_confederation": false
  },
  {
    "rank": 16,
    "team_name": "福島大学",
    "team_short_name": "福島",
    "runner_name": "津川",
    "total_distance_km": 241.6,
    "latitude": 34.7254941359869,
    "longitude": 137.81957720262173,
    "is_shadow_confederation": false
  },
  {
    "rank": 17,
    "team_name": "東北大学",
    "team_short_name": "東北",
    "runner_name": "山形（山形）",
    "total_distance_km": 224.7,
    "latitude": 34.773549111565345,
    "longitude": 137.98658737803572,
    "is_shadow_confederation": false
  },
  {
    "rank": 18,
    "team_name": "学連選抜",
    "team_short_name": "学連",
    "runner_name": "新潟",
    "total_distance_km": 208.6,
    "latitude": 34.83004321947858,
    "longitude": 138.11926179694672,
    "is_shadow_confederation": false
  }
]