[
  {
    "rank": 1,
    "team_name": "熊本学園大学",
    "team_short_name": "熊学",
    "runner_name": "岱明",
    "total_distance_km": 174.5,
    "latitude": 34.97900793769969,
    "longitude": 138.40231396847892,
    "is_shadow_confederation": false
  },
  {
    "rank": 2,
    "team_name": "琉球大学",
    "team_short_name": "琉球",
    "runner_name": "仲筋",
    "total_distance_km": 173.2,
    "latitude": 34.98704971062515,
    "longitude": 138.41235886538783,
    "is_shadow_confederation": false
  },
  {
    "rank": 3,
    "team_name": "鹿児島大学",
    "team_short_name": "鹿大",
    "runner_name": "川内（鹿児島）",
    "total_distance_km": 167.9,
    "latitude": 35.01554983957203,
    "longitude": 138.4588048647222,
    "is_shadow_confederation": false
  },
  {
    "rank": 4,
    "team_name": "福岡大学",
    "team_short_name": "福岡",
    "runner_name": "福岡",
    "total_distance_km": 167.5,
    "latitude": 35.01639343761208,
    "longitude": 138.4630491975979,
    "is_shadow_confederation": false
  },
  {
    "rank": 5,
    "team_name": "立命館大学",
    "team_short_name": "立命",
    "runner_name": "福知山",
    "total_distance_km": 165.8,
    "latitude": 35.02270001010609,
    "longitude": 138.47852472472482,
    "is_shadow_confederation": false
  },
  {
    "rank": 6,
    "team_name": "三重大学",
    "team_short_name": "三重",
    "runner_name": "五條",
    "total_distance_km": 162.4,
    "latitude": 35.04334304908177,
    "longitude": 138.49926309001816,
    "is_shadow_confederation": false
  },
  {
    "rank": 7,
    "team_name": "関西大学",
    "team_short_name": "関大",
    "runner_name": "和田山",
    "total_distance_km": 162.2,
    "latitude": 35.04414758616651,
    "longitude": 138.50122472903863,
    "is_shadow_confederation": false
  },
  {
    "rank": 8,
    "team_name": "四国大学",
    "team_short_name": "四国",
    "runner_name": "大三島",
    "total_distance_km": 160.3,
    "latitude": 35.04992264722458,
    "longitude": 138.52003464881057,
    "is_shadow_confederation": false
  },
  {
    "rank": 9,
    "team_name": "広島経済大学",
    "team_short_name": "広経",
    "runner_name": "加計",
    "total_distance_km": 159.3,
    "latitude": 35.05468241680909,
    "longitude": 138.5293175396048,
    "is_shadow_confederation": false
  },
  {
    "rank": 10,
    "team_name": "名古屋大学",
    "team_short_name": "名大",
    "runner_name": "美濃",
    "total_distance_km": 157.2,
    "latitude": 35.06985579857193,
    "longitude": 138.5423443149853,
    "is_shadow_confederation": false
  },
  {
    "rank": 11,
    "team_name": "金沢大学",
    "team_short_name": "金沢",
    "runner_name": "小浜",
    "total_distance_km": 156.3,
    "latitude": 35.07736081297554,
    "longitude": 138.54579518788313,
    "is_shadow_confederation": false
  },
  {
    "rank": 12,
    "team_name": "鳥取大学",
    "team_short_name": "鳥取",
    "runner_name": "鳥取",
    "total_distance_km": 156.1,
    "latitude": 35.07906307481121,
    "longitude": 138.54646196129156,
    "is_shadow_confederation": false
  },
  {
    "rank": 13,
    "team_name": "山梨学院大学",
    "team_short_name": "山学",
    "runner_name": "南信濃",
    "total_distance_km": 149.2,
    "latitude": 35.115150735851934,
    "longitude": 138.59633858961286,
    "is_shadow_confederation": false
  },
  {
    "rank": 14,
    "team_name": "上武大学",
    "team_short_name": "上武",
    "runner_name": "越谷",
    "total_distance_km": 143.6,
    "latitude": 35.13252631600566,
    "longitude": 138.64575119854166,
    "is_shadow_confederation": false
  },
  {
    "rank": 15,
    "team_name": "日本大学",
    "team_short_name": "日大",
    "runner_name": "古河",
    "total_distance_km": 141.0,
    "latitude": 35.14087107503975,
    "longitude": 138.67240942681948,
    "is_shadow_confederation": false
  },
  {
    "rank": 16,
    "team_name": "福島大学",
    "team_short_name": "福島",
    "runner_name": "石川",
    "total_distance_km": 132.5,
    "latitude": 35.13183999566279,
    "longitude": 138.7605579665147,
    "is_shadow_confederation": false
  },
  {
    "rank": 17,
    "team_name": "東北大学",
    "team_short_name": "東北",
    "runner_name": "帯広",
    "total_distance_km": 112.6,
    "latitude": 35.13626136329264,
    "longitude": 138.95446535238824,
    "is_shadow_confederation": false
  },
  {
    "rank": 18,
    "team_name": "学連選抜",
    "team_short_name": "学連",
    "runner_name": "美幌",
    "total_distance_km": 101.9,
    "latitude": 35.18426528228329,
    "longitude": 139.0181197001656,
    "is_shadow_confederation": false
  }
]