[
  {
    "rank": 1,
    "team_name": "琉球大学",
    "team_short_name": "琉球",
    "runner_name": "西表島",
    "total_distance_km": 778.4,
    "latitude": 34.44288857958387,
    "longitude": 133.23525294998032,
    "is_shadow_confederation": false
  },
  {
    "rank": 2,
    "team_name": "熊本学園大学",
    "team_short_name": "熊学",
    "runner_name": "犬飼",
    "total_distance_km": 732.2,
    "latitude": 34.55999678860172,
    "longitude": 133.68093330198394,
    "is_shadow_confederation": false
  },
  {
    "rank": 3,
    "team_name": "福岡大学",
    "team_short_name": "福岡",
    "runner_name": "口之津",
    "total_distance_km": 714.8,
    "latitude": 34.641749237882124,
    "longitude": 133.83288100882436,
    "is_shadow_confederation": false
  },
  {
    "rank": 4,
    "team_name": "名古屋大学",
    "team_short_name": "名大",
    "runner_name": "名古屋",
    "total_distance_km": 714.3,
    "latitude": 34.643370740622395,
    "longitude": 133.83796933532176,
    "is_shadow_confederation": false
  },
  {
    "rank": 5,
    "team_name": "鹿児島大学",
    "team_short_name": "鹿大",
    "runner_name": "鹿児島",
    "total_distance_km": 713.3,
    "latitude": 34.64603507831483,
    "longitude": 133.84828245403338,
    "is_shadow_confederation": false
  },
  {
    "rank": 6,
    "team_name": "関西大学",
    "team_short_name": "関大",
    "runner_name": "八尾（大阪）",
    "total_distance_km": 711.3,
    "latitude": 34.6460553237727,
    "longitude": 133.8686303563644,
    "is_shadow_confederation": false
  },
  {
    "rank": 7,
    "team_name": "鳥取大学",
    "team_short_name": "鳥取",
    "runner_name": "米子",
    "total_distance_km": 706.6,
    "latitude": 34.65618603649107,
    "longitude": 133.91758412889314,
    "is_shadow_confederation": false
  },
  {
    "rank": 8,
    "team_name": "立命館大学",
    "team_short_name": "立命",
    "runner_name": "長浜（滋賀）",
    "total_distance_km": 704.8,
    "latitude": 34.65603293595164,
    "longitude": 133.93721792900044,
    "is_shadow_confederation": false
  },
  {
    "rank": 9,
    "team_name": "四国大学",
    "team_short_name": "四国",
    "runner_name": "新居浜",
    "total_distance_km": 704.2,
    "latitude": 34.66003432059215,
    "longitude": 133.9404680654564,
    "is_shadow_confederation": false
  },
  {
    "rank": 10,
    "team_name": "広島経済大学",
    "team_short_name": "広経",
    "runner_name": "福山",
    "total_distance_km": 704.0,
    "latitude": 34.66151491682881,
    "longitude": 133.94163956381965,
    "is_shadow_confederation": false
  },
  {
    "rank": 11,
    "team_name": "上武大学",
    "team_short_name": "上武",
    "runner_name": "小山",
    "total_distance_km": 691.0,
    "latitude": 34.705231537832724,
    "longitude": 134.06687846891364,
    "is_shadow_confederation": false
  },
  {
    "rank": 12,
    "team_name": "山梨学院大学",
    "team_short_name": "山学",
    "runner_name": "三島",
    "total_distance_km": 690.4,
    "latitude": 34.7067475786556,
    "longitude": 134.07315418275235,
    "is_shadow_confederation": false
  },
  {
    "rank": 13,
    "team_name": "三重大学",
    "team_short_name": "三重",
    "runner_name": "津",
    "total_distance_km": 686.3,
    "latitude": 34.725841508243164,
    "longitude": 134.10680599663996,
    "is_shadow_confederation": false
  },
  {
    "rank": 14,
    "team_name": "金沢大学",
    "team_short_name": "金沢",
    "runner_name": "敦賀",
    "total_distance_km": 685.5,
    "latitude": 34.72772629748765,
    "longitude": 134.11523705930583,
    "is_shadow_confederation": false
  },
  {
    "rank": 15,
    "team_name": "日本大学",
    "team_short_name": "日大",
    "runner_name": "八王子",
    "total_distance_km": 661.0,
    "latitude": 34.84258748285552,
    "longitude": 134.32511725774359,
    "is_shadow_confederation": false
  },
  {
    "rank": 16,
    "team_name": "学連選抜",
    "team_short_name": "学連",
    "runner_name": "多度津",
    "total_distance_km": 633.3,
    "latitude": 34.829059343477624,
    "longitude": 134.60831145201828,
    "is_shadow_confederation": false
  },
  {
    "rank": 17,
    "team_name": "福島大学",
    "team_short_name": "福島",
    "runner_name": "浪江",
    "total_distance_km": 625.2,
    "latitude": 34.83506819240656,
    "longitude": 134.68144095768076,
    "is_shadow_confederation": false
  },
  {
    "rank": 18,
    "team_name": "東北大学",
    "team_short_name": "東北",
    "runner_name": "丸森",
    "total_distance_km": 619.7,
    "latitude": 34.81949872051818,
    "longitude": 134.7381636992241,
    "is_shadow_confederation": false
  }
]