[
  {
    "rank": 1,
    "team_name": "琉球大学",
    "team_short_name": "琉球",
    "runner_name": "仲筋",
    "total_distance_km": 121.8,
    "latitude": 35.10003603761432,
    "longitude": 138.86868674914228,
    "is_shadow_confederation": false
  },
  {
    "rank": 2,
    "team_name": "鹿児島大学",
    "team_short_name": "鹿大",
    "runner_name": "東市来",
    "total_distance_km": 89.1,
    "latitude": 35.232252389782225,
    "longitude": 139.11209931535268,
    "is_shadow_confederation": false
  },
  {
    "rank": 3,
    "team_name": "熊本学園大学",
    "team_short_name": "熊学",
    "runner_name": "甲佐",
    "total_distance_km": 85.5,
    "latitude": 35.24590760624969,
    "longitude": 139.14395892031368,
    "is_shadow_confederation": false
  },
  {
    "rank": 4,
    "team_name": "福岡大学",
    "team_short_name": "福岡",
    "runner_name": "久留米",
    "total_distance_km": 81.9,
    "latitude": 35.25945326044952,
    "longitude": 139.17715931042144,
    "is_shadow_confederation": false
  },
  {
    "rank": 5,
    "team_name": "四国大学",
    "team_short_name": "四国",
    "runner_name": "穴吹",
    "total_distance_km": 69.4,
    "latitude": 35.305608981165534,
    "longitude": 139.2972816883079,
    "is_shadow_confederation": false
  },
  {
    "rank": 6,
    "team_name": "三重大学",
    "team_short_name": "三重",
    "runner_name": "粥見",
    "total_distance_km": 68.7,
    "latitude": 35.30734061741646,
    "longitude": 139.30468294321892,
    "is_shadow_confederation": false
  },
  {
    "rank": 7,
    "team_name": "名古屋大学",
    "team_short_name": "名大",
    "runner_name": "美濃加茂",
    "total_distance_km": 66.6,
    "latitude": 35.3120728327218,
    "longitude": 139.3242486036176,
    "is_shadow_confederation": false
  },
  {
    "rank": 8,
    "team_name": "上武大学",
    "team_short_name": "上武",
    "runner_name": "佐野",
    "total_distance_km": 63.2,
    "latitude": 35.316384649813116,
    "longitude": 139.36088133131952,
    "is_shadow_confederation": false
  },
  {
    "rank": 9,
    "team_name": "関西大学",
    "team_short_name": "関大",
    "runner_name": "福崎",
    "total_distance_km": 63.1,
    "latitude": 35.31665539264615,
    "longitude": 139.3619302551853,
    "is_shadow_confederation": false
  },
  {
    "rank": 10,
    "team_name": "日本大学",
    "team_short_name": "日大",
    "runner_name": "大子",
    "total_distance_km": 61.7,
    "latitude": 35.32042349545831,
    "longitude": 139.37661124148354,
    "is_shadow_confederation": false
  },
  {
    "rank": 11,
    "team_name": "鳥取大学",
    "team_short_name": "鳥取",
    "runner_name": "川本",
    "total_distance_km": 59.3,
    "latitude": 35.31863781524162,
    "longitude": 139.40165677274027,
    "is_shadow_confederation": false
  },
  {
    "rank": 12,
    "team_name": "広島経済大学",
    "team_short_name": "広経",
    "runner_name": "三次",
    "total_distance_km": 57.1,
    "latitude": 35.31959998951573,
    "longitude": 139.42546000584701,
    "is_shadow_confederation": false
  },
  {
    "rank": 13,
    "team_name": "立命館大学",
    "team_short_name": "立命",
    "runner_name": "東近江",
    "total_distance_km": 56.0,
    "latitude": 35.322811682254404,
    "longitude": 139.4360055939863,
    "is_shadow_confederation": false
  },
  {
    "rank": 14,
    "team_name": "福島大学",
    "team_short_name": "福島",
    "runner_name": "梁川",
    "total_distance_km": 51.1,
    "latitude": 35.341924354636994,
    "longitude": 139.48176542182867,
    "is_shadow_confederation": false
  },
  {
    "rank": 15,
    "team_name": "金沢大学",
    "team_short_name": "金沢",
    "runner_name": "秋ヶ島",
    "total_distance_km": 42.4,
    "latitude": 35.406396713201474,
    "longitude": 139.5285766150989,
    "is_shadow_confederation": false
  },
  {
    "rank": 16,
    "team_name": "山梨学院大学",
    "team_short_name": "山学",
    "runner_name": "長野",
    "total_distance_km": 37.4,
    "latitude": 35.428003192094565,
    "longitude": 139.57180126690858,
    "is_shadow_confederation": false
  },
  {
    "rank": 17,
    "team_name": "東北大学",
    "team_short_name": "東北",
    "runner_name": "帯広",
    "total_distance_km": 28.2,
    "latitude": 35.475426320446196,
    "longitude": 139.6350223703829,
    "is_shadow_confederation": false
  },
  {
    "rank": 18,
    "team_name": "学連選抜",
    "team_short_name": "学連",
    "runner_name": "美幌",
    "total_distance_km": 2.2,
    "latitude": 35.671399115557406,
    "longitude": 139.7525480807248,
    "is_shadow_confederation": false
  }
]