[
  {
    "rank": 1,
    "team_name": "琉球大学",
    "team_short_name": "琉球",
    "runner_name": "北原",
    "total_distance_km": 40.1,
    "latitude": 35.41770230606101,
    "longitude": 139.54751009532743,
    "is_shadow_confederation": false
  },
  {
    "rank": 2,
    "team_name": "鹿児島大学",
    "team_short_name": "鹿大",
    "runner_name": "東市来",
    "total_distance_km": 26.0,
    "latitude": 35.48596349955412,
    "longitude": 139.65443845583073,
    "is_shadow_confederation": false
  },
  {
    "rank": 3,
    "team_name": "熊本学園大学",
    "team_short_name": "熊学",
    "runner_name": "甲佐",
    "total_distance_km": 25.8,
    "latitude": 35.48653288983988,
    "longitude": 139.65648954116233,
    "is_shadow_confederation": false
  },
  {
    "rank": 4,
    "team_name": "福岡大学",
    "team_short_name": "福岡",
    "runner_name": "久留米",
    "total_distance_km": 23.4,
    "latitude": 35.50133113925252,
    "longitude": 139.6755139907982,
    "is_shadow_confederation": false
  },
  {
    "rank": 5,
    "team_name": "四国大学",
    "team_short_name": "四国",
    "runner_name": "穴吹",
    "total_distance_km": 19.6,
    "latitude": 35.52684273941702,
    "longitude": 139.7023045785667,
    "is_shadow_confederation": false
  },
  {
    "rank": 6,
    "team_name": "三重大学",
    "team_short_name": "三重",
    "runner_name": "粥見",
    "total_distance_km": 19.1,
    "latitude": 35.53068966421782,
    "longitude": 139.7051761324152,
    "is_shadow_confederation": false
  },
  {
    "rank": 7,
    "team_name": "上武大学",
    "team_short_name": "上武",
    "runner_name": "佐野",
    "total_distance_km": 18.6,
    "latitude": 35.53458127139499,
    "longitude": 139.70789842401783,
    "is_shadow_confederation": false
  },
  {
    "rank": 8,
    "team_name": "関西大学",
    "team_short_name": "関大",
    "runner_name": "福崎",
    "total_distance_km": 16.9,
    "latitude": 35.548470328091796,
    "longitude": 139.71495056640504,
    "is_shadow_confederation": false
  },
  {
    "rank": 8,
    "team_name": "名古屋大学",
    "team_short_name": "名大",
    "runner_name": "美濃加茂",
    "total_distance_km": 16.9,
    "latitude": 35.548470328091796,
    "longitude": 139.71495056640504,
    "is_shadow_confederation": false
  },
  {
    "rank": 10,
    "team_name": "日本大学",
    "team_short_name": "日大",
    "runner_name": "大子",
    "total_distance_km": 16.5,
    "latitude": 35.55154546015837,
    "longitude": 139.7172531458238,
    "is_shadow_confederation": false
  },
  {
    "rank": 11,
    "team_name": "立命館大学",
    "team_short_name": "立命",
    "runner_name": "東近江",
    "total_distance_km": 15.9,
    "latitude": 35.556158158258235,
    "longitude": 139.72070701495193,
    "is_shadow_confederation": false
  },
  {
    "rank": 12,
    "team_name": "福島大学",
    "team_short_name": "福島",
    "runner_name": "梁川",
    "total_distance_km": 15.4,
    "latitude": 35.5600036692039,
    "longitude": 139.72358234673928,
    "is_shadow_confederation": false
  },
  {
    "rank": 13,
    "team_name": "鳥取大学",
    "team_short_name": "鳥取",
    "runner_name": "川本",
    "total_distance_km": 13.9,
    "latitude": 35.571544206825465,
    "longitude": 139.7322010834659,
    "is_shadow_confederation": false
  },
  {
    "rank": 14,
    "team_name": "金沢大学",
    "team_short_name": "金沢",
    "runner_name": "秋ヶ島",
    "total_distance_km": 13.7,
    "latitude": 35.57310128092242,
    "longitude": 139.73329903757886,
    "is_shadow_confederation": false
  },
  {
    "rank": 15,
    "team_name": "広島経済大学",
    "team_short_name": "広経",
    "runner_name": "三次",
    "total_distance_km": 13.1,
    "latitude": 35.57830145299579,
    "longitude": 139.73511557082944,
    "is_shadow_confederation": false
  },
  {
    "rank": 16,
    "team_name": "山梨学院大学",
    "team_short_name": "山学",
    "runner_name": "長野",
    "total_distance_km": 9.3,
    "latitude": 35.61097065964945,
    "longitude": 139.742088632402,
    "is_shadow_confederation": false
  },
  {
    "rank": 17,
    "team_name": "東北大学",
    "team_short_name": "東北",
    "runner_name": "帯広",
    "total_distance_km": 7.2,
    "latitude": 35.62936606539534,
    "longitude": 139.73762348488796,
    "is_shadow_confederation": false
  },
  {
    "rank": 18,
    "team_name": "学連選抜",
    "team_short_name": "学連",
    "runner_name": "美幌",
    "total_distance_km": 2.9,
    "latitude": 35.6655482891547,
    "longitude": 139.74970893770075,
    "is_shadow_confederation": false
  }
]