[
  {
    "rank": 1,
    "team_name": "琉球大学",
    "team_short_name": "琉球",
    "runner_name": "北原",
    "total_distance_km": 31.1,
    "latitude": 35.45674995190914,
    "longitude": 139.61818731709226,
    "is_shadow_confederation": false
  },
  {
    "rank": 2,
    "team_name": "熊本学園大学",
    "team_short_name": "熊学",
    "runner_name": "甲佐",
    "total_distance_km": 29.8,
    "latitude": 35.46575677503363,
    "longitude": 139.6237911034828,
    "is_shadow_confederation": false
  },
  {
    "rank": 3,
    "team_name": "名古屋大学",
    "team_short_name": "名大",
    "runner_name": "美濃加茂",
    "total_distance_km": 29.7,
    "latitude": 35.46656870814538,
    "longitude": 139.6240990142698,
    "is_shadow_confederation": false
  },
  {
    "rank": 4,
    "team_name": "福岡大学",
    "team_short_name": "福岡",
    "runner_name": "久留米",
    "total_distance_km": 29.6,
    "latitude": 35.46729762602045,
    "longitude": 139.62474704113532,
    "is_shadow_confederation": false
  },
  {
    "rank": 5,
    "team_name": "鹿児島大学",
    "team_short_name": "鹿大",
    "runner_name": "東市来",
    "total_distance_km": 29.4,
    "latitude": 35.4687554617706,
    "longitude": 139.62604309486636,
    "is_shadow_confederation": false
  },
  {
    "rank": 6,
    "team_name": "四国大学",
    "team_short_name": "四国",
    "runner_name": "穴吹",
    "total_distance_km": 28.8,
    "latitude": 35.471054726246614,
    "longitude": 139.6311307759756,
    "is_shadow_confederation": false
  },
  {
    "rank": 7,
    "team_name": "三重大学",
    "team_short_name": "三重",
    "runner_name": "粥見",
    "total_distance_km": 28.7,
    "latitude": 35.47178332527987,
    "longitude": 139.6317793750435,
    "is_shadow_confederation": false
  },
  {
    "rank": 8,
    "team_name": "立命館大学",
    "team_short_name": "立命",
    "runner_name": "東近江",
    "total_distance_km": 28.1,
    "latitude": 35.476139247942406,
    "longitude": 139.6356960757116,
    "is_shadow_confederation": false
  },
  {
    "rank": 9,
    "team_name": "広島経済大学",
    "team_short_name": "広経",
    "runner_name": "三次",
    "total_distance_km": 26.9,
    "latitude": 35.4837246884236,
    "longitude": 139.64497678885385,
    "is_shadow_confederation": false
  },
  {
    "rank": 10,
    "team_name": "鳥取大学",
    "team_short_name": "鳥取",
    "runner_name": "川本",
    "total_distance_km": 26.4,
    "latitude": 35.48509258566686,
    "longitude": 139.65016109217527,
    "is_shadow_confederation": false
  },
  {
    "rank": 11,
    "team_name": "上武大学",
    "team_short_name": "上武",
    "runner_name": "佐野",
    "total_distance_km": 26.2,
    "latitude": 35.48552804261049,
    "longitude": 139.65229977400298,
    "is_shadow_confederation": false
  },
  {
    "rank": 12,
    "team_name": "関西大学",
    "team_short_name": "関大",
    "runner_name": "福崎",
    "total_distance_km": 26.1,
    "latitude": 35.4857457710823,
    "longitude": 139.65336911491687,
    "is_shadow_confederation": false
  },
  {
    "rank": 13,
    "team_name": "日本大学",
    "team_short_name": "日大",
    "runner_name": "大子",
    "total_distance_km": 23.7,
    "latitude": 35.49910187089502,
    "longitude": 139.6736485602611,
    "is_shadow_confederation": false
  },
  {
    "rank": 14,
    "team_name": "金沢大学",
    "team_short_name": "金沢",
    "runner_name": "秋ヶ島",
    "total_distance_km": 22.6,
    "latitude": 35.50726365110624,
    "longitude": 139.68052496323168,
    "is_shadow_confederation": false
  },
  {
    "rank": 15,
    "team_name": "山梨学院大学",
    "team_short_name": "山学",
    "runner_name": "長野",
    "total_distance_km": 20.8,
    "latitude": 35.520749039835174,
    "longitude": 139.69138413816668,
    "is_shadow_confederation": false
  },
  {
    "rank": 16,
    "team_name": "福島大学",
    "team_short_name": "福島",
    "runner_name": "梁川",
    "total_distance_km": 19.8,
    "latitude": 35.525808938762964,
    "longitude": 139.70050784386765,
    "is_shadow_confederation": false
  },
  {
    "rank": 17,
    "team_name": "東北大学",
    "team_short_name": "東北",
    "runner_name": "帯広",
    "total_distance_km": 15.0,
    "latitude": 35.563081145902984,
    "longitude": 139.72588067653302,
    "is_shadow_confederation": false
  },
  {
    "rank": 18,
    "team_name": "学連選抜",
    "team_short_name": "学連",
    "runner_name": "美幌",
    "total_distance_km": 12.4,
    "latitude": 35.58444328249665,
    "longitude": 139.73615636803964,
    "is_shadow_confederation": false
  }
]