[
  {
    "rank": 1,
    "team_name": "琉球大学",
    "team_short_name": "琉球",
    "runner_name": "那覇",
    "total_distance_km": 736.6,
    "latitude": 34.53932368938728,
    "longitude": 133.64227637284134,
    "is_shadow_confederation": false
  },
  {
    "rank": 2,
    "team_name": "鹿児島大学",
    "team_short_name": "鹿大",
    "runner_name": "笠利",
    "total_distance_km": 599.6,
    "latitude": 34.70919787700152,
    "longitude": 134.90336819775084,
    "is_shadow_confederation": false
  },
  {
    "rank": 3,
    "team_name": "熊本学園大学",
    "team_short_name": "熊学",
    "runner_name": "大分",
    "total_distance_km": 576.2,
    "latitude": 34.64494375247727,
    "longitude": 135.11593070673072,
    "is_shadow_confederation": false
  },
  {
    "rank": 4,
    "team_name": "福岡大学",
    "team_short_name": "福岡",
    "runner_name": "博多",
    "total_distance_km": 552.0,
    "latitude": 34.73764723199387,
    "longitude": 135.3465098080266,
    "is_shadow_confederation": false
  },
  {
    "rank": 5,
    "team_name": "名古屋大学",
    "team_short_name": "名大",
    "runner_name": "多治見",
    "total_distance_km": 516.4,
    "latitude": 34.80349226170255,
    "longitude": 135.6452155648914,
    "is_shadow_confederation": false
  },
  {
    "rank": 6,
    "team_name": "四国大学",
    "team_short_name": "四国",
    "runner_name": "大洲",
    "total_distance_km": 513.2,
    "latitude": 34.81860596794653,
    "longitude": 135.67459684635037,
    "is_shadow_confederation": false
  },
  {
    "rank": 7,
    "team_name": "日本大学",
    "team_short_name": "日大",
    "runner_name": "牛久",
    "total_distance_km": 507.4,
    "latitude": 34.858833417531635,
    "longitude": 135.71363457576112,
    "is_shadow_confederation": false
  },
  {
    "rank": 8,
    "team_name": "上武大学",
    "team_short_name": "上武",
    "runner_name": "桐生",
    "total_distance_km": 505.8,
    "latitude": 34.86787091360851,
    "longitude": 135.7271312355686,
    "is_shadow_confederation": false
  },
  {
    "rank": 9,
    "team_name": "広島経済大学",
    "team_short_name": "広経",
    "runner_name": "高梁",
    "total_distance_km": 499.8,
    "latitude": 34.918047612293,
    "longitude": 135.74455721542253,
    "is_shadow_confederation": false
  },
  {
    "rank": 10,
    "team_name": "三重大学",
    "team_short_name": "三重",
    "runner_name": "奈良",
    "total_distance_km": 498.3,
    "latitude": 34.93156485335644,
    "longitude": 135.7449416328358,
    "is_shadow_confederation": false
  },
  {
    "rank": 11,
    "team_name": "鳥取大学",
    "team_short_name": "鳥取",
    "runner_name": "境",
    "total_distance_km": 494.5,
    "latitude": 34.96580291323488,
    "longitude": 135.7458109095227,
    "is_shadow_confederation": false
  },
  {
    "rank": 12,
    "team_name": "関西大学",
    "team_short_name": "関大",
    "runner_name": "枚方",
    "total_distance_km": 493.1,
    "latitude": 34.978417335742996,
    "longitude": 135.74624257829845,
    "is_shadow_confederation": false
  },
  {
    "rank": 13,
    "team_name": "立命館大学",
    "team_short_name": "立命",
    "runner_name": "舞鶴",
    "total_distance_km": 465.4,
    "latitude": 35.01107625514377,
    "longitude": 135.96060480990212,
    "is_shadow_confederation": false
  },
  {
    "rank": 14,
    "team_name": "山梨学院大学",
    "team_short_name": "山学",
    "runner_name": "甲府",
    "total_distance_km": 453.1,
    "latitude": 35.00531596411239,
    "longitude": 136.07950423377326,
    "is_shadow_confederation": false
  },
  {
    "rank": 15,
    "team_name": "福島大学",
    "team_short_name": "福島",
    "runner_name": "福島",
    "total_distance_km": 433.8,
    "latitude": 34.93787637847887,
    "longitude": 136.2664910223477,
    "is_shadow_confederation": false
  },
  {
    "rank": 16,
    "team_name": "金沢大学",
    "team_short_name": "金沢",
    "runner_name": "志賀",
    "total_distance_km": 396.9,
    "latitude": 34.91472425151414,
    "longitude": 136.55967648553562,
    "is_shadow_confederation": false
  },
  {
    "rank": 17,
    "team_name": "東北大学",
    "team_short_name": "東北",
    "runner_name": "大館",
    "total_distance_km": 344.3,
    "latitude": 35.07576088322466,
    "longitude": 136.94992852525192,
    "is_shadow_confederation": false
  },
  {
    "rank": 18,
    "team_name": "学連選抜",
    "team_short_name": "学連",
    "runner_name": "大村",
    "total_distance_km": 249.0,
    "latitude": 34.708846265085356,
    "longitude": 137.74773713593572,
    "is_shadow_confederation": false
  },
  {
    "rank": null,
    "team_name": "区間記録連合",
    "team_short_name": "区間記録",
    "runner_name": "新居浜",
    "total_distance_km": 736.6,
    "latitude": 34.53932368938728,
    "longitude": 133.64227637284134,
    "is_shadow_confederation": true
  }
]