[
  {
    "rank": 1,
    "team_name": "琉球大学",
    "team_short_name": "琉球",
    "runner_name": "西表島",
    "total_distance_km": 790.8,
    "latitude": 34.39252258647428,
    "longitude": 133.14466822593738,
    "is_shadow_confederation": false
  },
  {
    "rank": 2,
    "team_name": "名古屋大学",
    "team_short_name": "名大",
    "runner_name": "大府",
    "total_distance_km": 777.8,
    "latitude": 34.44573855634715,
    "longitude": 133.24080192674276,
    "is_shadow_confederation": false
  },
  {
    "rank": 3,
    "team_name": "福岡大学",
    "team_short_name": "福岡",
    "runner_name": "大牟田",
    "total_distance_km": 777.0,
    "latitude": 34.44909281421732,
    "longitude": 133.24838915115282,
    "is_shadow_confederation": false
  },
  {
    "rank": 4,
    "team_name": "関西大学",
    "team_short_name": "関大",
    "runner_name": "郡家",
    "total_distance_km": 771.7,
    "latitude": 34.46908922850594,
    "longitude": 133.3000582722766,
    "is_shadow_confederation": false
  },
  {
    "rank": 5,
    "team_name": "四国大学",
    "team_short_name": "四国",
    "runner_name": "江川崎",
    "total_distance_km": 771.4,
    "latitude": 34.470668470585586,
    "longitude": 133.30270327284606,
    "is_shadow_confederation": false
  },
  {
    "rank": 6,
    "team_name": "鹿児島大学",
    "team_short_name": "鹿大",
    "runner_name": "さつま柏原",
    "total_distance_km": 769.8,
    "latitude": 34.477189610245404,
    "longitude": 133.3166786450287,
    "is_shadow_confederation": false
  },
  {
    "rank": 7,
    "team_name": "広島経済大学",
    "team_short_name": "広経",
    "runner_name": "引田",
    "total_distance_km": 767.3,
    "latitude": 34.483974824454556,
    "longitude": 133.34031909298,
    "is_shadow_confederation": false
  },
  {
    "rank": 7,
    "team_name": "熊本学園大学",
    "team_short_name": "熊学",
    "runner_name": "三角",
    "total_distance_km": 767.3,
    "latitude": 34.483974824454556,
    "longitude": 133.34031909298,
    "is_shadow_confederation": false
  },
  {
    "rank": 9,
    "team_name": "立命館大学",
    "team_short_name": "立命",
    "runner_name": "京都",
    "total_distance_km": 763.6,
    "latitude": 34.48778856652246,
    "longitude": 133.37919012196878,
    "is_shadow_confederation": false
  },
  {
    "rank": 10,
    "team_name": "三重大学",
    "team_short_name": "三重",
    "runner_name": "津",
    "total_distance_km": 755.4,
    "latitude": 34.505673959717626,
    "longitude": 133.45939719209676,
    "is_shadow_confederation": false
  },
  {
    "rank": 11,
    "team_name": "山梨学院大学",
    "team_short_name": "山学",
    "runner_name": "三島",
    "total_distance_km": 750.0,
    "latitude": 34.500089738309335,
    "longitude": 133.51054393138185,
    "is_shadow_confederation": false
  },
  {
    "rank": 12,
    "team_name": "鳥取大学",
    "team_short_name": "鳥取",
    "runner_name": "米子",
    "total_distance_km": 746.4,
    "latitude": 34.50352451676105,
    "longitude": 133.54828598563856,
    "is_shadow_confederation": false
  },
  {
    "rank": 13,
    "team_name": "日本大学",
    "team_short_name": "日大",
    "runner_name": "練馬",
    "total_distance_km": 744.7,
    "latitude": 34.513377392743564,
    "longitude": 133.5622656261545,
    "is_shadow_confederation": false
  },
  {
    "rank": 14,
    "team_name": "金沢大学",
    "team_short_name": "金沢",
    "runner_name": "敦賀",
    "total_distance_km": 735.7,
    "latitude": 34.54442985006169,
    "longitude": 133.6498955430853,
    "is_shadow_confederation": false
  },
  {
    "rank": 15,
    "team_name": "上武大学",
    "team_short_name": "上武",
    "runner_name": "小山",
    "total_distance_km": 732.9,
    "latitude": 34.55590868141764,
    "longitude": 133.67512306059348,
    "is_shadow_confederation": false
  },
  {
    "rank": 16,
    "team_name": "福島大学",
    "team_short_name": "福島",
    "runner_name": "寺泊",
    "total_distance_km": 715.8,
    "latitude": 34.638506232401575,
    "longitude": 133.82270435582953,
    "is_shadow_confederation": false
  },
  {
    "rank": 17,
    "team_name": "学連選抜",
    "team_short_name": "学連",
    "runner_name": "加世田",
    "total_distance_km": 712.8,
    "latitude": 34.64609710535728,
    "longitude": 133.8537354625385,
    "is_shadow_confederation": false
  },
  {
    "rank": 18,
    "team_name": "東北大学",
    "team_short_name": "東北",
    "runner_name": "丸森",
    "total_distance_km": 651.5,
    "latitude": 34.83338543808588,
    "longitude": 134.42032205934632,
    "is_shadow_confederation": false
  },
  {
    "rank": null,
    "team_name": "区間記録連合",
    "team_short_name": "区間記録",
    "runner_name": "西脇",
    "total_distance_km": 803.8,
    "latitude": 34.39859035271189,
    "longitude": 133.0239581239643,
    "is_shadow_confederation": true
  }
]