[
  {
    "rank": 1,
    "team_name": "琉球大学",
    "team_short_name": "琉球",
    "runner_name": "仲筋",
    "total_distance_km": 161.4,
    "latitude": 35.046377749400605,
    "longitude": 138.50930849977837,
    "is_shadow_confederation": false
  },
  {
    "rank": 2,
    "team_name": "熊本学園大学",
    "team_short_name": "熊学",
    "runner_name": "岱明",
    "total_distance_km": 159.9,
    "latitude": 35.05178182190953,
    "longitude": 138.5237912024317,
    "is_shadow_confederation": false
  },
  {
    "rank": 3,
    "team_name": "鹿児島大学",
    "team_short_name": "鹿大",
    "runner_name": "川内（鹿児島）",
    "total_distance_km": 154.5,
    "latitude": 35.09306544312009,
    "longitude": 138.55063829836618,
    "is_shadow_confederation": false
  },
  {
    "rank": 4,
    "team_name": "福岡大学",
    "team_short_name": "福岡",
    "runner_name": "福岡",
    "total_distance_km": 153.3,
    "latitude": 35.10311836942303,
    "longitude": 138.55537755343462,
    "is_shadow_confederation": false
  },
  {
    "rank": 5,
    "team_name": "四国大学",
    "team_short_name": "四国",
    "runner_name": "大三島",
    "total_distance_km": 140.4,
    "latitude": 35.142772780167185,
    "longitude": 138.6785727615778,
    "is_shadow_confederation": false
  },
  {
    "rank": 6,
    "team_name": "広島経済大学",
    "team_short_name": "広経",
    "runner_name": "加計",
    "total_distance_km": 136.4,
    "latitude": 35.140490850571325,
    "longitude": 138.7191580941142,
    "is_shadow_confederation": false
  },
  {
    "rank": 7,
    "team_name": "関西大学",
    "team_short_name": "関大",
    "runner_name": "和田山",
    "total_distance_km": 134.9,
    "latitude": 35.137168495302745,
    "longitude": 138.73506082057207,
    "is_shadow_confederation": false
  },
  {
    "rank": 8,
    "team_name": "鳥取大学",
    "team_short_name": "鳥取",
    "runner_name": "鳥取",
    "total_distance_km": 132.1,
    "latitude": 35.13108546502045,
    "longitude": 138.76484953839824,
    "is_shadow_confederation": false
  },
  {
    "rank": 9,
    "team_name": "立命館大学",
    "team_short_name": "立命",
    "runner_name": "福知山",
    "total_distance_km": 131.2,
    "latitude": 35.12900623514738,
    "longitude": 138.77438848526722,
    "is_shadow_confederation": false
  },
  {
    "rank": 10,
    "team_name": "三重大学",
    "team_short_name": "三重",
    "runner_name": "五條",
    "total_distance_km": 130.9,
    "latitude": 35.12825295217045,
    "longitude": 138.7775496574474,
    "is_shadow_confederation": false
  },
  {
    "rank": 11,
    "team_name": "名古屋大学",
    "team_short_name": "名大",
    "runner_name": "美濃加茂",
    "total_distance_km": 127.0,
    "latitude": 35.11504835810979,
    "longitude": 138.81703842729425,
    "is_shadow_confederation": false
  },
  {
    "rank": 12,
    "team_name": "金沢大学",
    "team_short_name": "金沢",
    "runner_name": "秋ヶ島",
    "total_distance_km": 119.6,
    "latitude": 35.10612508544001,
    "longitude": 138.89091362225656,
    "is_shadow_confederation": false
  },
  {
    "rank": 13,
    "team_name": "上武大学",
    "team_short_name": "上武",
    "runner_name": "佐野",
    "total_distance_km": 114.8,
    "latitude": 35.12481774529836,
    "longitude": 138.9364953489169,
    "is_shadow_confederation": false
  },
  {
    "rank": 14,
    "team_name": "日本大学",
    "team_short_name": "日大",
    "runner_name": "大子",
    "total_distance_km": 110.1,
    "latitude": 35.14573133783333,
    "longitude": 138.97435692122468,
    "is_shadow_confederation": false
  },
  {
    "rank": 15,
    "team_name": "山梨学院大学",
    "team_short_name": "山学",
    "runner_name": "長野",
    "total_distance_km": 108.6,
    "latitude": 35.149339302313614,
    "longitude": 138.98829649941058,
    "is_shadow_confederation": false
  },
  {
    "rank": 16,
    "team_name": "福島大学",
    "team_short_name": "福島",
    "runner_name": "梁川",
    "total_distance_km": 102.2,
    "latitude": 35.18391295751563,
    "longitude": 139.0148896668244,
    "is_shadow_confederation": false
  },
  {
    "rank": 17,
    "team_name": "東北大学",
    "team_short_name": "東北",
    "runner_name": "帯広",
    "total_distance_km": 75.9,
    "latitude": 35.28685921613357,
    "longitude": 139.2315090296322,
    "is_shadow_confederation": false
  },
  {
    "rank": 18,
    "team_name": "学連選抜",
    "team_short_name": "学連",
    "runner_name": "美幌",
    "total_distance_km": 67.7,
    "latitude": 35.308535715631336,
    "longitude": 139.3148399472696,
    "is_shadow_confederation": false
  }
]