[
  {
    "rank": 1,
    "team_name": "琉球大学",
    "team_short_name": "琉球",
    "runner_name": "西表島",
    "total_distance_km": 820.1,
    "latitude": 34.396529161881716,
    "longitude": 132.8753003219783,
    "is_shadow_confederation": false
  },
  {
    "rank": 2,
    "team_name": "鹿児島大学",
    "team_short_name": "鹿大",
    "runner_name": "鹿児島",
    "total_distance_km": 666.3,
    "latitude": 34.813162642039174,
    "longitude": 134.2866227597518,
    "is_shadow_confederation": false
  },
  {
    "rank": 3,
    "team_name": "熊本学園大学",
    "team_short_name": "熊学",
    "runner_name": "大分",
    "total_distance_km": 633.5,
    "latitude": 34.82891957422474,
    "longitude": 134.60613170008736,
    "is_shadow_confederation": false
  },
  {
    "rank": 4,
    "team_name": "福岡大学",
    "team_short_name": "福岡",
    "runner_name": "博多",
    "total_distance_km": 613.9,
    "latitude": 34.793378412397466,
    "longitude": 134.78969475159263,
    "is_shadow_confederation": false
  },
  {
    "rank": 5,
    "team_name": "四国大学",
    "team_short_name": "四国",
    "runner_name": "徳島",
    "total_distance_km": 578.8,
    "latitude": 34.63492945213084,
    "longitude": 135.09140351837195,
    "is_shadow_confederation": false
  },
  {
    "rank": 6,
    "team_name": "名古屋大学",
    "team_short_name": "名大",
    "runner_name": "豊田（愛知）",
    "total_distance_km": 577.6,
    "latitude": 34.638803065531654,
    "longitude": 135.10338441593035,
    "is_shadow_confederation": false
  },
  {
    "rank": 7,
    "team_name": "日本大学",
    "team_short_name": "日大",
    "runner_name": "八王子",
    "total_distance_km": 569.2,
    "latitude": 34.681276002620095,
    "longitude": 135.177419841485,
    "is_shadow_confederation": false
  },
  {
    "rank": 8,
    "team_name": "上武大学",
    "team_short_name": "上武",
    "runner_name": "伊勢崎",
    "total_distance_km": 564.2,
    "latitude": 34.7035856557294,
    "longitude": 135.22314148630292,
    "is_shadow_confederation": false
  },
  {
    "rank": 9,
    "team_name": "広島経済大学",
    "team_short_name": "広経",
    "runner_name": "高松（香川）",
    "total_distance_km": 559.8,
    "latitude": 34.7196203236777,
    "longitude": 135.26531155223813,
    "is_shadow_confederation": false
  },
  {
    "rank": 10,
    "team_name": "三重大学",
    "team_short_name": "三重",
    "runner_name": "新宮",
    "total_distance_km": 557.6,
    "latitude": 34.72689409652853,
    "longitude": 135.28764197181874,
    "is_shadow_confederation": false
  },
  {
    "rank": 11,
    "team_name": "鳥取大学",
    "team_short_name": "鳥取",
    "runner_name": "松江",
    "total_distance_km": 553.6,
    "latitude": 34.73766539472964,
    "longitude": 135.32925955098477,
    "is_shadow_confederation": false
  },
  {
    "rank": 11,
    "team_name": "関西大学",
    "team_short_name": "関大",
    "runner_name": "豊中",
    "total_distance_km": 553.6,
    "latitude": 34.73766539472964,
    "longitude": 135.32925955098477,
    "is_shadow_confederation": false
  },
  {
    "rank": 13,
    "team_name": "立命館大学",
    "team_short_name": "立命",
    "runner_name": "舞鶴",
    "total_distance_km": 528.4,
    "latitude": 34.7313476783,
    "longitude": 135.55469424454088,
    "is_shadow_confederation": false
  },
  {
    "rank": 14,
    "team_name": "山梨学院大学",
    "team_short_name": "山学",
    "runner_name": "甲府",
    "total_distance_km": 517.2,
    "latitude": 34.802757108237536,
    "longitude": 135.63679071518732,
    "is_shadow_confederation": false
  },
  {
    "rank": 15,
    "team_name": "福島大学",
    "team_short_name": "福島",
    "runner_name": "福島",
    "total_distance_km": 492.2,
    "latitude": 34.98050613870123,
    "longitude": 135.75371331278413,
    "is_shadow_confederation": false
  },
  {
    "rank": 16,
    "team_name": "金沢大学",
    "team_short_name": "金沢",
    "runner_name": "福井",
    "total_distance_km": 453.6,
    "latitude": 35.007843859743986,
    "longitude": 136.07496914591562,
    "is_shadow_confederation": false
  },
  {
    "rank": 17,
    "team_name": "東北大学",
    "team_short_name": "東北",
    "runner_name": "大館",
    "total_distance_km": 392.5,
    "latitude": 34.93451530813792,
    "longitude": 136.59629082478193,
    "is_shadow_confederation": false
  },
  {
    "rank": 18,
    "team_name": "学連選抜",
    "team_short_name": "学連",
    "runner_name": "大村",
    "total_distance_km": 309.4,
    "latitude": 34.897239173836,
    "longitude": 137.24908303113625,
    "is_shadow_confederation": false
  },
  {
    "rank": null,
    "team_name": "区間記録連合",
    "team_short_name": "区間記録",
    "runner_name": "西脇",
    "total_distance_km": 856.5,
    "latitude": 34.38199907184007,
    "longitude": 132.55774121873412,
    "is_shadow_confederation": true
  }
]