[
  {
    "rank": 1,
    "team_name": "琉球大学",
    "team_short_name": "琉球",
    "runner_name": "大原",
    "total_distance_km": 952.7,
    "latitude": 34.0537080223312,
    "longitude": 131.8076146802199,
    "is_shadow_confederation": false
  },
  {
    "rank": 2,
    "team_name": "名古屋大学",
    "team_short_name": "名大",
    "runner_name": "揖斐川",
    "total_distance_km": 927.4,
    "latitude": 34.090890922556106,
    "longitude": 132.02915840332437,
    "is_shadow_confederation": false
  },
  {
    "rank": 3,
    "team_name": "福岡大学",
    "team_short_name": "福岡",
    "runner_name": "佐賀（佐賀）",
    "total_distance_km": 924.1,
    "latitude": 34.09220281568384,
    "longitude": 132.06448566941796,
    "is_shadow_confederation": false
  },
  {
    "rank": 4,
    "team_name": "鹿児島大学",
    "team_short_name": "鹿大",
    "runner_name": "喜入",
    "total_distance_km": 923.1,
    "latitude": 34.095437405934135,
    "longitude": 132.0745172175577,
    "is_shadow_confederation": false
  },
  {
    "rank": 5,
    "team_name": "熊本学園大学",
    "team_short_name": "熊学",
    "runner_name": "菊池",
    "total_distance_km": 914.1,
    "latitude": 34.137866006793814,
    "longitude": 132.15373472528563,
    "is_shadow_confederation": false
  },
  {
    "rank": 6,
    "team_name": "四国大学",
    "team_short_name": "四国",
    "runner_name": "西条",
    "total_distance_km": 911.9,
    "latitude": 34.151396715730094,
    "longitude": 132.17017087852267,
    "is_shadow_confederation": false
  },
  {
    "rank": 7,
    "team_name": "関西大学",
    "team_short_name": "関大",
    "runner_name": "西脇",
    "total_distance_km": 910.0,
    "latitude": 34.16413609459609,
    "longitude": 132.18025401106678,
    "is_shadow_confederation": false
  },
  {
    "rank": 8,
    "team_name": "広島経済大学",
    "team_short_name": "広経",
    "runner_name": "滝宮",
    "total_distance_km": 905.0,
    "latitude": 34.17650897119364,
    "longitude": 132.22701440544236,
    "is_shadow_confederation": false
  },
  {
    "rank": 9,
    "team_name": "日本大学",
    "team_short_name": "日大",
    "runner_name": "海老名",
    "total_distance_km": 904.8,
    "latitude": 34.17709110406694,
    "longitude": 132.22906758535345,
    "is_shadow_confederation": false
  },
  {
    "rank": 10,
    "team_name": "立命館大学",
    "team_short_name": "立命",
    "runner_name": "園部",
    "total_distance_km": 901.1,
    "latitude": 34.208869925035906,
    "longitude": 132.22770335839587,
    "is_shadow_confederation": false
  },
  {
    "rank": 11,
    "team_name": "山梨学院大学",
    "team_short_name": "山学",
    "runner_name": "佐久間",
    "total_distance_km": 894.7,
    "latitude": 34.26040514793197,
    "longitude": 132.23686261814365,
    "is_shadow_confederation": false
  },
  {
    "rank": 12,
    "team_name": "三重大学",
    "team_short_name": "三重",
    "runner_name": "上野",
    "total_distance_km": 893.3,
    "latitude": 34.266492824031026,
    "longitude": 132.24986541586188,
    "is_shadow_confederation": false
  },
  {
    "rank": 13,
    "team_name": "上武大学",
    "team_short_name": "上武",
    "runner_name": "館林",
    "total_distance_km": 887.0,
    "latitude": 34.30493037058397,
    "longitude": 132.29652286749112,
    "is_shadow_confederation": false
  },
  {
    "rank": 14,
    "team_name": "鳥取大学",
    "team_short_name": "鳥取",
    "runner_name": "津和野",
    "total_distance_km": 879.7,
    "latitude": 34.35522304942591,
    "longitude": 132.3400176734041,
    "is_shadow_confederation": false
  },
  {
    "rank": 15,
    "team_name": "金沢大学",
    "team_short_name": "金沢",
    "runner_name": "大野（福井）",
    "total_distance_km": 870.0,
    "latitude": 34.38850795744808,
    "longitude": 132.42894783318692,
    "is_shadow_confederation": false
  },
  {
    "rank": 16,
    "team_name": "学連選抜",
    "team_short_name": "学連",
    "runner_name": "飯塚",
    "total_distance_km": 856.8,
    "latitude": 34.380357968373524,
    "longitude": 132.55515208876474,
    "is_shadow_confederation": false
  },
  {
    "rank": 17,
    "team_name": "福島大学",
    "team_short_name": "福島",
    "runner_name": "喜多方",
    "total_distance_km": 849.1,
    "latitude": 34.422510849951806,
    "longitude": 132.61012873032757,
    "is_shadow_confederation": false
  },
  {
    "rank": 18,
    "team_name": "東北大学",
    "team_short_name": "東北",
    "runner_name": "東根",
    "total_distance_km": 779.2,
    "latitude": 34.43711563634538,
    "longitude": 133.2308687335394,
    "is_shadow_confederation": false
  },
  {
    "rank": null,
    "team_name": "区間記録連合",
    "team_short_name": "区間記録",
    "runner_name": "豊中",
    "total_distance_km": 952.7,
    "latitude": 34.0537080223312,
    "longitude": 131.8076146802199,
    "is_shadow_confederation": true
  }
]