[
  {
    "rank": 1,
    "team_name": "琉球大学",
    "team_short_name": "琉球",
    "runner_name": "西表島",
    "total_distance_km": 780.6,
    "latitude": 34.424829216027874,
    "longitude": 133.22752763723693,
    "is_shadow_confederation": false
  },
  {
    "rank": 2,
    "team_name": "鹿児島大学",
    "team_short_name": "鹿大",
    "runner_name": "鹿児島",
    "total_distance_km": 676.1,
    "latitude": 34.75604393483916,
    "longitude": 134.21119078607146,
    "is_shadow_confederation": false
  },
  {
    "rank": 3,
    "team_name": "熊本学園大学",
    "team_short_name": "熊学",
    "runner_name": "大分",
    "total_distance_km": 657.8,
    "latitude": 34.831337977846296,
    "longitude": 134.35516585893686,
    "is_shadow_confederation": false
  },
  {
    "rank": 4,
    "team_name": "福岡大学",
    "team_short_name": "福岡",
    "runner_name": "博多",
    "total_distance_km": 636.5,
    "latitude": 34.83369591659042,
    "longitude": 134.57483227018545,
    "is_shadow_confederation": false
  },
  {
    "rank": 5,
    "team_name": "四国大学",
    "team_short_name": "四国",
    "runner_name": "徳島",
    "total_distance_km": 605.6,
    "latitude": 34.748519683244275,
    "longitude": 134.85970445535588,
    "is_shadow_confederation": false
  },
  {
    "rank": 6,
    "team_name": "広島経済大学",
    "team_short_name": "広経",
    "runner_name": "高松（香川）",
    "total_distance_km": 587.1,
    "latitude": 34.64585670658312,
    "longitude": 135.00922970365573,
    "is_shadow_confederation": false
  },
  {
    "rank": 7,
    "team_name": "名古屋大学",
    "team_short_name": "名大",
    "runner_name": "豊田（愛知）",
    "total_distance_km": 575.2,
    "latitude": 34.65013091210602,
    "longitude": 135.12469444304654,
    "is_shadow_confederation": false
  },
  {
    "rank": 8,
    "team_name": "鳥取大学",
    "team_short_name": "鳥取",
    "runner_name": "松江",
    "total_distance_km": 571.7,
    "latitude": 34.66781337394492,
    "longitude": 135.15570224020678,
    "is_shadow_confederation": false
  },
  {
    "rank": 9,
    "team_name": "関西大学",
    "team_short_name": "関大",
    "runner_name": "豊中",
    "total_distance_km": 570.4,
    "latitude": 34.67462772719223,
    "longitude": 135.1670911115563,
    "is_shadow_confederation": false
  },
  {
    "rank": 10,
    "team_name": "立命館大学",
    "team_short_name": "立命",
    "runner_name": "彦根",
    "total_distance_km": 557.8,
    "latitude": 34.72625481705742,
    "longitude": 135.28560024804304,
    "is_shadow_confederation": false
  },
  {
    "rank": 11,
    "team_name": "三重大学",
    "team_short_name": "三重",
    "runner_name": "新宮",
    "total_distance_km": 556.9,
    "latitude": 34.72913157467741,
    "longitude": 135.29478800503378,
    "is_shadow_confederation": false
  },
  {
    "rank": 12,
    "team_name": "日本大学",
    "team_short_name": "日大",
    "runner_name": "八王子",
    "total_distance_km": 540.3,
    "latitude": 34.704454360661906,
    "longitude": 135.46377601970428,
    "is_shadow_confederation": false
  },
  {
    "rank": 13,
    "team_name": "上武大学",
    "team_short_name": "上武",
    "runner_name": "桐生",
    "total_distance_km": 537.3,
    "latitude": 34.69667374311429,
    "longitude": 135.4898946446002,
    "is_shadow_confederation": false
  },
  {
    "rank": 14,
    "team_name": "金沢大学",
    "team_short_name": "金沢",
    "runner_name": "福井",
    "total_distance_km": 537.0,
    "latitude": 34.69775832456483,
    "longitude": 135.49289404513343,
    "is_shadow_confederation": false
  },
  {
    "rank": 15,
    "team_name": "山梨学院大学",
    "team_short_name": "山学",
    "runner_name": "甲府",
    "total_distance_km": 512.0,
    "latitude": 34.82630199204794,
    "longitude": 135.68381359025094,
    "is_shadow_confederation": false
  },
  {
    "rank": 16,
    "team_name": "学連選抜",
    "team_short_name": "学連",
    "runner_name": "久世",
    "total_distance_km": 475.9,
    "latitude": 35.001092491753546,
    "longitude": 135.87546057263856,
    "is_shadow_confederation": false
  },
  {
    "rank": 17,
    "team_name": "福島大学",
    "team_short_name": "福島",
    "runner_name": "福島",
    "total_distance_km": 471.1,
    "latitude": 34.97835072449947,
    "longitude": 135.91344403990553,
    "is_shadow_confederation": false
  },
  {
    "rank": 18,
    "team_name": "東北大学",
    "team_short_name": "東北",
    "runner_name": "大館",
    "total_distance_km": 396.4,
    "latitude": 34.91447173948444,
    "longitude": 136.5651393677391,
    "is_shadow_confederation": false
  }
]