[
  {
    "rank": 1,
    "team_name": "琉球大学",
    "team_short_name": "琉球",
    "runner_name": "西表島",
    "total_distance_km": 817.2,
    "latitude": 34.389624982610194,
    "longitude": 132.90094776905866,
    "is_shadow_confederation": false
  },
  {
    "rank": 2,
    "team_name": "鹿児島大学",
    "team_short_name": "鹿大",
    "runner_name": "鹿児島",
    "total_distance_km": 663.7,
    "latitude": 34.82946759108865,
    "longitude": 134.3058371875496,
    "is_shadow_confederation": false
  },
  {
    "rank": 3,
    "team_name": "熊本学園大学",
    "team_short_name": "熊学",
    "runner_name": "大分",
    "total_distance_km": 631.4,
    "latitude": 34.8378527015788,
    "longitude": 134.62003197512217,
    "is_shadow_confederation": false
  },
  {
    "rank": 4,
    "team_name": "福岡大学",
    "team_short_name": "福岡",
    "runner_name": "博多",
    "total_distance_km": 613.9,
    "latitude": 34.793378412397466,
    "longitude": 134.78969475159263,
    "is_shadow_confederation": false
  },
  {
    "rank": 5,
    "team_name": "四国大学",
    "team_short_name": "四国",
    "runner_name": "徳島",
    "total_distance_km": 577.6,
    "latitude": 34.638803065531654,
    "longitude": 135.10338441593035,
    "is_shadow_confederation": false
  },
  {
    "rank": 6,
    "team_name": "名古屋大学",
    "team_short_name": "名大",
    "runner_name": "豊田（愛知）",
    "total_distance_km": 571.9,
    "latitude": 34.66755895316019,
    "longitude": 135.1535419996206,
    "is_shadow_confederation": false
  },
  {
    "rank": 7,
    "team_name": "日本大学",
    "team_short_name": "日大",
    "runner_name": "八王子",
    "total_distance_km": 561.9,
    "latitude": 34.713471818828125,
    "longitude": 135.24381056695236,
    "is_shadow_confederation": false
  },
  {
    "rank": 8,
    "team_name": "上武大学",
    "team_short_name": "上武",
    "runner_name": "伊勢崎",
    "total_distance_km": 560.0,
    "latitude": 34.71888760889437,
    "longitude": 135.26332197437338,
    "is_shadow_confederation": false
  },
  {
    "rank": 9,
    "team_name": "広島経済大学",
    "team_short_name": "広経",
    "runner_name": "高松（香川）",
    "total_distance_km": 557.9,
    "latitude": 34.725935177321865,
    "longitude": 135.28457938615517,
    "is_shadow_confederation": false
  },
  {
    "rank": 10,
    "team_name": "三重大学",
    "team_short_name": "三重",
    "runner_name": "新宮",
    "total_distance_km": 555.4,
    "latitude": 34.733065573849295,
    "longitude": 135.31041992901388,
    "is_shadow_confederation": false
  },
  {
    "rank": 11,
    "team_name": "鳥取大学",
    "team_short_name": "鳥取",
    "runner_name": "松江",
    "total_distance_km": 550.8,
    "latitude": 34.73577260902059,
    "longitude": 135.35940252940782,
    "is_shadow_confederation": false
  },
  {
    "rank": 12,
    "team_name": "関西大学",
    "team_short_name": "関大",
    "runner_name": "豊中",
    "total_distance_km": 548.4,
    "latitude": 34.73037284768217,
    "longitude": 135.38477144675818,
    "is_shadow_confederation": false
  },
  {
    "rank": 13,
    "team_name": "立命館大学",
    "team_short_name": "立命",
    "runner_name": "舞鶴",
    "total_distance_km": 524.7,
    "latitude": 34.7541842859665,
    "longitude": 135.58414208468614,
    "is_shadow_confederation": false
  },
  {
    "rank": 14,
    "team_name": "山梨学院大学",
    "team_short_name": "山学",
    "runner_name": "甲府",
    "total_distance_km": 513.5,
    "latitude": 34.81668450789666,
    "longitude": 135.6722894476188,
    "is_shadow_confederation": false
  },
  {
    "rank": 15,
    "team_name": "福島大学",
    "team_short_name": "福島",
    "runner_name": "福島",
    "total_distance_km": 483.6,
    "latitude": 34.99503844334743,
    "longitude": 135.80358127098822,
    "is_shadow_confederation": false
  },
  {
    "rank": 16,
    "team_name": "金沢大学",
    "team_short_name": "金沢",
    "runner_name": "福井",
    "total_distance_km": 448.2,
    "latitude": 34.98527770770967,
    "longitude": 136.12385463950977,
    "is_shadow_confederation": false
  },
  {
    "rank": 17,
    "team_name": "東北大学",
    "team_short_name": "東北",
    "runner_name": "大館",
    "total_distance_km": 379.6,
    "latitude": 35.02770383842869,
    "longitude": 136.6716734241441,
    "is_shadow_confederation": false
  },
  {
    "rank": 18,
    "team_name": "学連選抜",
    "team_short_name": "学連",
    "runner_name": "大村",
    "total_distance_km": 309.0,
    "latitude": 34.895374949890055,
    "longitude": 137.2528263052253,
    "is_shadow_confederation": false
  },
  {
    "rank": null,
    "team_name": "区間記録連合",
    "team_short_name": "区間記録",
    "runner_name": "西脇",
    "total_distance_km": 856.5,
    "latitude": 34.38199907184007,
    "longitude": 132.55774121873412,
    "is_shadow_confederation": true
  }
]