[
  {
    "rank": 1,
    "team_name": "琉球大学",
    "team_short_name": "琉球",
    "runner_name": "盛山",
    "total_distance_km": 249.3,
    "latitude": 34.7080712114296,
    "longitude": 137.74459976667865,
    "is_shadow_confederation": false
  },
  {
    "rank": 2,
    "team_name": "熊本学園大学",
    "team_short_name": "熊学",
    "runner_name": "八代",
    "total_distance_km": 240.4,
    "latitude": 34.72506044465916,
    "longitude": 137.8323737579668,
    "is_shadow_confederation": false
  },
  {
    "rank": 3,
    "team_name": "鹿児島大学",
    "team_short_name": "鹿大",
    "runner_name": "加久藤",
    "total_distance_km": 236.5,
    "latitude": 34.731359820954125,
    "longitude": 137.87193846381643,
    "is_shadow_confederation": false
  },
  {
    "rank": 4,
    "team_name": "福岡大学",
    "team_short_name": "福岡",
    "runner_name": "福岡",
    "total_distance_km": 230.0,
    "latitude": 34.75721737400612,
    "longitude": 137.93491875137875,
    "is_shadow_confederation": false
  },
  {
    "rank": 5,
    "team_name": "四国大学",
    "team_short_name": "四国",
    "runner_name": "大三島",
    "total_distance_km": 211.9,
    "latitude": 34.82214531941998,
    "longitude": 138.0967284278094,
    "is_shadow_confederation": false
  },
  {
    "rank": 6,
    "team_name": "広島経済大学",
    "team_short_name": "広経",
    "runner_name": "加計",
    "total_distance_km": 208.4,
    "latitude": 34.831730245394674,
    "longitude": 138.11849086697504,
    "is_shadow_confederation": false
  },
  {
    "rank": 7,
    "team_name": "鳥取大学",
    "team_short_name": "鳥取",
    "runner_name": "鳥取",
    "total_distance_km": 201.4,
    "latitude": 34.84806545612978,
    "longitude": 138.18359350205228,
    "is_shadow_confederation": false
  },
  {
    "rank": 8,
    "team_name": "関西大学",
    "team_short_name": "関大",
    "runner_name": "和田山",
    "total_distance_km": 200.2,
    "latitude": 34.85208784619873,
    "longitude": 138.19565093683505,
    "is_shadow_confederation": false
  },
  {
    "rank": 9,
    "team_name": "三重大学",
    "team_short_name": "三重",
    "runner_name": "五條",
    "total_distance_km": 200.0,
    "latitude": 34.85275578939258,
    "longitude": 138.19768225586654,
    "is_shadow_confederation": false
  },
  {
    "rank": 10,
    "team_name": "立命館大学",
    "team_short_name": "立命",
    "runner_name": "福知山",
    "total_distance_km": 199.9,
    "latitude": 34.853089760989505,
    "longitude": 138.1986979153823,
    "is_shadow_confederation": false
  },
  {
    "rank": 11,
    "team_name": "名古屋大学",
    "team_short_name": "名大",
    "runner_name": "美濃",
    "total_distance_km": 196.3,
    "latitude": 34.87122797876043,
    "longitude": 138.22813040993628,
    "is_shadow_confederation": false
  },
  {
    "rank": 12,
    "team_name": "金沢大学",
    "team_short_name": "金沢",
    "runner_name": "小浜",
    "total_distance_km": 189.6,
    "latitude": 34.90478058222754,
    "longitude": 138.28671809985306,
    "is_shadow_confederation": false
  },
  {
    "rank": 13,
    "team_name": "上武大学",
    "team_short_name": "上武",
    "runner_name": "越谷",
    "total_distance_km": 183.2,
    "latitude": 34.943476275482915,
    "longitude": 138.3278400263615,
    "is_shadow_confederation": false
  },
  {
    "rank": 14,
    "team_name": "日本大学",
    "team_short_name": "日大",
    "runner_name": "古河",
    "total_distance_km": 177.1,
    "latitude": 34.965477459216274,
    "longitude": 138.37959148350447,
    "is_shadow_confederation": false
  },
  {
    "rank": 15,
    "team_name": "山梨学院大学",
    "team_short_name": "山学",
    "runner_name": "南信濃",
    "total_distance_km": 173.4,
    "latitude": 34.985942430666604,
    "longitude": 138.41062998212797,
    "is_shadow_confederation": false
  },
  {
    "rank": 16,
    "team_name": "福島大学",
    "team_short_name": "福島",
    "runner_name": "石川",
    "total_distance_km": 163.0,
    "latitude": 35.03881241565552,
    "longitude": 138.49596344378628,
    "is_shadow_confederation": false
  },
  {
    "rank": 17,
    "team_name": "東北大学",
    "team_short_name": "東北",
    "runner_name": "山形（山形）",
    "total_distance_km": 122.2,
    "latitude": 35.09962392355331,
    "longitude": 138.8643284300105,
    "is_shadow_confederation": false
  },
  {
    "rank": 18,
    "team_name": "学連選抜",
    "team_short_name": "学連",
    "runner_name": "美幌",
    "total_distance_km": 108.9,
    "latitude": 35.15023972771943,
    "longitude": 138.9857828822403,
    "is_shadow_confederation": false
  }
]