[
  {
    "rank": 1,
    "team_name": "日本大学",
    "team_short_name": "日大",
    "runner_name": "八王子",
    "total_distance_km": 36.8,
    "latitude": 35.43240542743518,
    "longitude": 139.5754846257092,
    "current_leg": 1,
    "is_shadow_confederation": false
  },
  {
    "rank": 2,
    "team_name": "名古屋大学",
    "team_short_name": "名大",
    "runner_name": "美濃",
    "total_distance_km": 36.0,
    "latitude": 35.43929925124624,
    "longitude": 139.57503317671544,
    "current_leg": 1,
    "is_shadow_confederation": false
  },
  {
    "rank": 2,
    "team_name": "上武大学",
    "team_short_name": "上武",
    "runner_name": "前橋",
    "total_distance_km": 36.0,
    "latitude": 35.43929925124624,
    "longitude": 139.57503317671544,
    "current_leg": 1,
    "is_shadow_confederation": false
  },
  {
    "rank": 2,
    "team_name": "山梨学院大学",
    "team_short_name": "山学",
    "runner_name": "佐久間",
    "total_distance_km": 36.0,
    "latitude": 35.43929925124624,
    "longitude": 139.57503317671544,
    "current_leg": 1,
    "is_shadow_confederation": false
  },
  {
    "rank": 5,
    "team_name": "三重大学",
    "team_short_name": "三重",
    "runner_name": "粥見",
    "total_distance_km": 35.8,
    "latitude": 35.44108381649206,
    "longitude": 139.5752704419252,
    "current_leg": 1,
    "is_shadow_confederation": false
  },
  {
    "rank": 6,
    "team_name": "学連選抜",
    "team_short_name": "学連",
    "runner_name": "金山（岐阜）",
    "total_distance_km": 35.5,
    "latitude": 35.44353242193198,
    "longitude": 139.5766721019312,
    "current_leg": 1,
    "is_shadow_confederation": false
  },
  {
    "rank": 7,
    "team_name": "四国大学",
    "team_short_name": "四国",
    "runner_name": "穴吹",
    "total_distance_km": 34.9,
    "latitude": 35.44520723407738,
    "longitude": 139.58220835292929,
    "current_leg": 1,
    "is_shadow_confederation": false
  },
  {
    "rank": 8,
    "team_name": "立命館大学",
    "team_short_name": "立命",
    "runner_name": "東近江",
    "total_distance_km": 34.5,
    "latitude": 35.44532981434935,
    "longitude": 139.58660242748908,
    "current_leg": 1,
    "is_shadow_confederation": false
  },
  {
    "rank": 9,
    "team_name": "鹿児島大学",
    "team_short_name": "鹿大",
    "runner_name": "肝付前田",
    "total_distance_km": 34.4,
    "latitude": 35.445423961845606,
    "longitude": 139.58769783500486,
    "current_leg": 1,
    "is_shadow_confederation": false
  },
  {
    "rank": 10,
    "team_name": "広島経済大学",
    "team_short_name": "広経",
    "runner_name": "久世",
    "total_distance_km": 34.1,
    "latitude": 35.444984384748054,
    "longitude": 139.5909167808501,
    "current_leg": 1,
    "is_shadow_confederation": false
  },
  {
    "rank": 11,
    "team_name": "金沢大学",
    "team_short_name": "金沢",
    "runner_name": "伏木",
    "total_distance_km": 33.7,
    "latitude": 35.44406867557012,
    "longitude": 139.59517799641557,
    "current_leg": 1,
    "is_shadow_confederation": false
  },
  {
    "rank": 12,
    "team_name": "関西大学",
    "team_short_name": "関大",
    "runner_name": "福崎",
    "total_distance_km": 33.5,
    "latitude": 35.44428815941838,
    "longitude": 139.5971290204459,
    "current_leg": 1,
    "is_shadow_confederation": false
  },
  {
    "rank": 13,
    "team_name": "福岡大学",
    "team_short_name": "福岡",
    "runner_name": "飯塚",
    "total_distance_km": 33.1,
    "latitude": 35.44667505552742,
    "longitude": 139.60040547730608,
    "current_leg": 1,
    "is_shadow_confederation": false
  },
  {
    "rank": 14,
    "team_name": "鳥取大学",
    "team_short_name": "鳥取",
    "runner_name": "広瀬",
    "total_distance_km": 32.7,
    "latitude": 35.449558023975975,
    "longitude": 139.6030510405588,
    "current_leg": 1,
    "is_shadow_confederation": false
  },
  {
    "rank": 14,
    "team_name": "熊本学園大学",
    "team_short_name": "熊学",
    "runner_name": "犬飼",
    "total_distance_km": 32.7,
    "latitude": 35.449558023975975,
    "longitude": 139.6030510405588,
    "current_leg": 1,
    "is_shadow_confederation": false
  },
  {
    "rank": 16,
    "team_name": "福島大学",
    "team_short_name": "福島",
    "runner_name": "高田",
    "total_distance_km": 32.0,
    "latitude": 35.45291545469768,
    "longitude": 139.60945322356778,
    "current_leg": 1,
    "is_shadow_confederation": false
  },
  {
    "rank": 17,
    "team_name": "琉球大学",
    "team_short_name": "琉球",
    "runner_name": "北原",
    "total_distance_km": 31.7,
    "latitude": 35.45420487695768,
    "longitude": 139.61235788589784,
    "current_leg": 1,
    "is_shadow_confederation": false
  },
  {
    "rank": 18,
    "team_name": "東北大学",
    "team_short_name": "東北",
    "runner_name": "上富良野",
    "total_distance_km": 26.6,
    "latitude": 35.484657128723235,
    "longitude": 139.64802241034755,
    "current_leg": 1,
    "is_shadow_confederation": false
  },
  {
    "rank": null,
    "team_name": "区間記録連合",
    "team_short_name": "区間記録",
    "runner_name": "梁川",
    "total_distance_km": 39.0,
    "latitude": 35.42108353596651,
    "longitude": 139.55813123784824,
    "current_leg": 1,
    "is_shadow_confederation": true
  }
]