[
  {
    "rank": 1,
    "team_name": "琉球大学",
    "team_short_name": "琉球",
    "runner_name": "久米島",
    "total_distance_km": 559.9,
    "latitude": 34.71921707099089,
    "longitude": 135.26433515800107,
    "is_shadow_confederation": false
  },
  {
    "rank": 2,
    "team_name": "熊本学園大学",
    "team_short_name": "熊学",
    "runner_name": "熊本",
    "total_distance_km": 494.9,
    "latitude": 34.96220270985742,
    "longitude": 135.74586572831942,
    "is_shadow_confederation": false
  },
  {
    "rank": 3,
    "team_name": "鹿児島大学",
    "team_short_name": "鹿大",
    "runner_name": "西都",
    "total_distance_km": 478.6,
    "latitude": 34.9940036336349,
    "longitude": 135.85356699136605,
    "is_shadow_confederation": false
  },
  {
    "rank": 4,
    "team_name": "福岡大学",
    "team_short_name": "福岡",
    "runner_name": "前原",
    "total_distance_km": 462.5,
    "latitude": 35.02319867769344,
    "longitude": 135.98709563876608,
    "is_shadow_confederation": false
  },
  {
    "rank": 5,
    "team_name": "四国大学",
    "team_short_name": "四国",
    "runner_name": "大洲",
    "total_distance_km": 448.0,
    "latitude": 34.98524463173983,
    "longitude": 136.12604474122693,
    "is_shadow_confederation": false
  },
  {
    "rank": 6,
    "team_name": "広島経済大学",
    "team_short_name": "広経",
    "runner_name": "高梁",
    "total_distance_km": 431.0,
    "latitude": 34.92999981048387,
    "longitude": 136.2937091576129,
    "is_shadow_confederation": false
  },
  {
    "rank": 7,
    "team_name": "鳥取大学",
    "team_short_name": "鳥取",
    "runner_name": "境",
    "total_distance_km": 421.8,
    "latitude": 34.882047001329326,
    "longitude": 136.35882028163053,
    "is_shadow_confederation": false
  },
  {
    "rank": 8,
    "team_name": "関西大学",
    "team_short_name": "関大",
    "runner_name": "枚方",
    "total_distance_km": 417.0,
    "latitude": 34.85413939077548,
    "longitude": 136.38720692463795,
    "is_shadow_confederation": false
  },
  {
    "rank": 9,
    "team_name": "名古屋大学",
    "team_short_name": "名大",
    "runner_name": "多治見",
    "total_distance_km": 415.9,
    "latitude": 34.85190180018477,
    "longitude": 136.39871929437322,
    "is_shadow_confederation": false
  },
  {
    "rank": 10,
    "team_name": "立命館大学",
    "team_short_name": "立命",
    "runner_name": "米原",
    "total_distance_km": 407.6,
    "latitude": 34.85702033792925,
    "longitude": 136.48154016325287,
    "is_shadow_confederation": false
  },
  {
    "rank": 11,
    "team_name": "三重大学",
    "team_short_name": "三重",
    "runner_name": "風屋",
    "total_distance_km": 402.2,
    "latitude": 34.88214746692903,
    "longitude": 136.52550613064446,
    "is_shadow_confederation": false
  },
  {
    "rank": 12,
    "team_name": "金沢大学",
    "team_short_name": "金沢",
    "runner_name": "志賀",
    "total_distance_km": 387.1,
    "latitude": 34.97533162942175,
    "longitude": 136.62560738476296,
    "is_shadow_confederation": false
  },
  {
    "rank": 13,
    "team_name": "日本大学",
    "team_short_name": "日大",
    "runner_name": "小田原",
    "total_distance_km": 386.1,
    "latitude": 34.98305138213538,
    "longitude": 136.6310940027263,
    "is_shadow_confederation": false
  },
  {
    "rank": 14,
    "team_name": "上武大学",
    "team_short_name": "上武",
    "runner_name": "寄居",
    "total_distance_km": 380.0,
    "latitude": 35.024191936116324,
    "longitude": 136.67119074689842,
    "is_shadow_confederation": false
  },
  {
    "rank": 15,
    "team_name": "山梨学院大学",
    "team_short_name": "山学",
    "runner_name": "浜松",
    "total_distance_km": 365.2,
    "latitude": 35.11881511757697,
    "longitude": 136.75608624810727,
    "is_shadow_confederation": false
  },
  {
    "rank": 16,
    "team_name": "福島大学",
    "team_short_name": "福島",
    "runner_name": "長岡",
    "total_distance_km": 335.4,
    "latitude": 35.026656765780814,
    "longitude": 137.02325310221704,
    "is_shadow_confederation": false
  },
  {
    "rank": 17,
    "team_name": "学連選抜",
    "team_short_name": "学連",
    "runner_name": "大村",
    "total_distance_km": 317.2,
    "latitude": 34.94353232048494,
    "longitude": 137.1907193001392,
    "is_shadow_confederation": false
  },
  {
    "rank": 18,
    "team_name": "東北大学",
    "team_short_name": "東北",
    "runner_name": "高畠",
    "total_distance_km": 276.8,
    "latitude": 34.69916524934028,
    "longitude": 137.48602515976697,
    "is_shadow_confederation": false
  }
]