[
  {
    "rank": 1,
    "team_name": "名古屋大学",
    "team_short_name": "名大",
    "runner_name": "名古屋",
    "total_distance_km": 666.8,
    "latitude": 34.810326454755725,
    "longitude": 134.2823888205214,
    "is_shadow_confederation": false
  },
  {
    "rank": 2,
    "team_name": "琉球大学",
    "team_short_name": "琉球",
    "runner_name": "久米島",
    "total_distance_km": 663.9,
    "latitude": 34.82905383706697,
    "longitude": 134.30370919500723,
    "is_shadow_confederation": false
  },
  {
    "rank": 3,
    "team_name": "四国大学",
    "team_short_name": "四国",
    "runner_name": "徳島",
    "total_distance_km": 660.5,
    "latitude": 34.84286681763849,
    "longitude": 134.3301412765306,
    "is_shadow_confederation": false
  },
  {
    "rank": 4,
    "team_name": "立命館大学",
    "team_short_name": "立命",
    "runner_name": "彦根",
    "total_distance_km": 656.5,
    "latitude": 34.825707473261325,
    "longitude": 134.36752437074855,
    "is_shadow_confederation": false
  },
  {
    "rank": 5,
    "team_name": "熊本学園大学",
    "team_short_name": "熊学",
    "runner_name": "大分",
    "total_distance_km": 655.1,
    "latitude": 34.828092922688,
    "longitude": 134.38210178195777,
    "is_shadow_confederation": false
  },
  {
    "rank": 6,
    "team_name": "関西大学",
    "team_short_name": "関大",
    "runner_name": "豊中",
    "total_distance_km": 655.0,
    "latitude": 34.82818188912895,
    "longitude": 134.38318959889483,
    "is_shadow_confederation": false
  },
  {
    "rank": 7,
    "team_name": "福岡大学",
    "team_short_name": "福岡",
    "runner_name": "博多",
    "total_distance_km": 654.9,
    "latitude": 34.8282708555699,
    "longitude": 134.38427741583192,
    "is_shadow_confederation": false
  },
  {
    "rank": 8,
    "team_name": "広島経済大学",
    "team_short_name": "広経",
    "runner_name": "高松（香川）",
    "total_distance_km": 651.2,
    "latitude": 34.83286745405432,
    "longitude": 134.42353635625597,
    "is_shadow_confederation": false
  },
  {
    "rank": 9,
    "team_name": "鹿児島大学",
    "team_short_name": "鹿大",
    "runner_name": "笠利",
    "total_distance_km": 647.7,
    "latitude": 34.82611916244244,
    "longitude": 134.4596672230277,
    "is_shadow_confederation": false
  },
  {
    "rank": 10,
    "team_name": "三重大学",
    "team_short_name": "三重",
    "runner_name": "新宮",
    "total_distance_km": 647.4,
    "latitude": 34.82450012612191,
    "longitude": 134.46226066192557,
    "is_shadow_confederation": false
  },
  {
    "rank": 11,
    "team_name": "山梨学院大学",
    "team_short_name": "山学",
    "runner_name": "静岡",
    "total_distance_km": 640.9,
    "latitude": 34.82702039622612,
    "longitude": 134.5279260905685,
    "is_shadow_confederation": false
  },
  {
    "rank": 12,
    "team_name": "日本大学",
    "team_short_name": "日大",
    "runner_name": "八王子",
    "total_distance_km": 637.4,
    "latitude": 34.83337273527683,
    "longitude": 134.56500114693782,
    "is_shadow_confederation": false
  },
  {
    "rank": 13,
    "team_name": "鳥取大学",
    "team_short_name": "鳥取",
    "runner_name": "松江",
    "total_distance_km": 633.9,
    "latitude": 34.83033624870548,
    "longitude": 134.6022507130218,
    "is_shadow_confederation": false
  },
  {
    "rank": 14,
    "team_name": "上武大学",
    "team_short_name": "上武",
    "runner_name": "伊勢崎",
    "total_distance_km": 629.8,
    "latitude": 34.84491251203356,
    "longitude": 134.63358365616105,
    "is_shadow_confederation": false
  },
  {
    "rank": 15,
    "team_name": "金沢大学",
    "team_short_name": "金沢",
    "runner_name": "富山",
    "total_distance_km": 622.9,
    "latitude": 34.830092341152,
    "longitude": 134.70575651588203,
    "is_shadow_confederation": false
  },
  {
    "rank": 16,
    "team_name": "福島大学",
    "team_short_name": "福島",
    "runner_name": "浪江",
    "total_distance_km": 607.7,
    "latitude": 34.76125986357726,
    "longitude": 134.84283194309282,
    "is_shadow_confederation": false
  },
  {
    "rank": 17,
    "team_name": "学連選抜",
    "team_short_name": "学連",
    "runner_name": "多度津",
    "total_distance_km": 597.2,
    "latitude": 34.693582913943175,
    "longitude": 134.9210894408341,
    "is_shadow_confederation": false
  },
  {
    "rank": 18,
    "team_name": "東北大学",
    "team_short_name": "東北",
    "runner_name": "丸森",
    "total_distance_km": 555.1,
    "latitude": 34.73368308445955,
    "longitude": 135.31360906389716,
    "is_shadow_confederation": false
  },
  {
    "rank": null,
    "team_name": "区間記録連合",
    "team_short_name": "区間記録",
    "runner_name": "新居浜",
    "total_distance_km": 679.6,
    "latitude": 34.74303440611091,
    "longitude": 134.17666163716245,
    "is_shadow_confederation": true
  }
]