[
  {
    "rank": 1,
    "team_name": "琉球大学",
    "team_short_name": "琉球",
    "runner_name": "西表島",
    "total_distance_km": 796.9,
    "latitude": 34.3973570097543,
    "longitude": 133.090411657531,
    "is_shadow_confederation": false
  },
  {
    "rank": 2,
    "team_name": "福岡大学",
    "team_short_name": "福岡",
    "runner_name": "大牟田",
    "total_distance_km": 783.7,
    "latitude": 34.41142211676711,
    "longitude": 133.21437432578944,
    "is_shadow_confederation": false
  },
  {
    "rank": 3,
    "team_name": "名古屋大学",
    "team_short_name": "名大",
    "runner_name": "大府",
    "total_distance_km": 780.8,
    "latitude": 34.4230541501893,
    "longitude": 133.22790872481812,
    "is_shadow_confederation": false
  },
  {
    "rank": 4,
    "team_name": "鹿児島大学",
    "team_short_name": "鹿大",
    "runner_name": "さつま柏原",
    "total_distance_km": 776.4,
    "latitude": 34.45127611842147,
    "longitude": 133.25426168287845,
    "is_shadow_confederation": false
  },
  {
    "rank": 5,
    "team_name": "関西大学",
    "team_short_name": "関大",
    "runner_name": "郡家",
    "total_distance_km": 775.1,
    "latitude": 34.454823656350165,
    "longitude": 133.2673862445568,
    "is_shadow_confederation": false
  },
  {
    "rank": 6,
    "team_name": "四国大学",
    "team_short_name": "四国",
    "runner_name": "江川崎",
    "total_distance_km": 774.1,
    "latitude": 34.45891530151892,
    "longitude": 133.27708352291927,
    "is_shadow_confederation": false
  },
  {
    "rank": 7,
    "team_name": "熊本学園大学",
    "team_short_name": "熊学",
    "runner_name": "三角",
    "total_distance_km": 774.0,
    "latitude": 34.459280390978485,
    "longitude": 133.27807813178458,
    "is_shadow_confederation": false
  },
  {
    "rank": 8,
    "team_name": "広島経済大学",
    "team_short_name": "広経",
    "runner_name": "引田",
    "total_distance_km": 770.8,
    "latitude": 34.47384684131706,
    "longitude": 133.30774050897546,
    "is_shadow_confederation": false
  },
  {
    "rank": 9,
    "team_name": "立命館大学",
    "team_short_name": "立命",
    "runner_name": "京都",
    "total_distance_km": 765.6,
    "latitude": 34.485305488348686,
    "longitude": 133.35791902181643,
    "is_shadow_confederation": false
  },
  {
    "rank": 10,
    "team_name": "山梨学院大学",
    "team_short_name": "山学",
    "runner_name": "三島",
    "total_distance_km": 759.3,
    "latitude": 34.498387719722245,
    "longitude": 133.42332573337137,
    "is_shadow_confederation": false
  },
  {
    "rank": 11,
    "team_name": "三重大学",
    "team_short_name": "三重",
    "runner_name": "津",
    "total_distance_km": 757.0,
    "latitude": 34.498362352847025,
    "longitude": 133.44474480172445,
    "is_shadow_confederation": false
  },
  {
    "rank": 12,
    "team_name": "日本大学",
    "team_short_name": "日大",
    "runner_name": "練馬",
    "total_distance_km": 752.6,
    "latitude": 34.50889022562072,
    "longitude": 133.48833660077133,
    "is_shadow_confederation": false
  },
  {
    "rank": 13,
    "team_name": "鳥取大学",
    "team_short_name": "鳥取",
    "runner_name": "米子",
    "total_distance_km": 751.3,
    "latitude": 34.50658176946682,
    "longitude": 133.49975451300892,
    "is_shadow_confederation": false
  },
  {
    "rank": 14,
    "team_name": "上武大学",
    "team_short_name": "上武",
    "runner_name": "小山",
    "total_distance_km": 740.5,
    "latitude": 34.53309397979777,
    "longitude": 133.60120422303996,
    "is_shadow_confederation": false
  },
  {
    "rank": 15,
    "team_name": "金沢大学",
    "team_short_name": "金沢",
    "runner_name": "敦賀",
    "total_distance_km": 736.0,
    "latitude": 34.54272779650355,
    "longitude": 133.64735581967065,
    "is_shadow_confederation": false
  },
  {
    "rank": 16,
    "team_name": "福島大学",
    "team_short_name": "福島",
    "runner_name": "寺泊",
    "total_distance_km": 720.7,
    "latitude": 34.611933126430166,
    "longitude": 133.78196153073046,
    "is_shadow_confederation": false
  },
  {
    "rank": 17,
    "team_name": "学連選抜",
    "team_short_name": "学連",
    "runner_name": "加世田",
    "total_distance_km": 717.8,
    "latitude": 34.62947718597122,
    "longitude": 133.80398146493158,
    "is_shadow_confederation": false
  },
  {
    "rank": 18,
    "team_name": "東北大学",
    "team_short_name": "東北",
    "runner_name": "丸森",
    "total_distance_km": 659.4,
    "latitude": 34.839194529023516,
    "longitude": 134.34055181244904,
    "is_shadow_confederation": false
  },
  {
    "rank": null,
    "team_name": "区間記録連合",
    "team_short_name": "区間記録",
    "runner_name": "西脇",
    "total_distance_km": 803.8,
    "latitude": 34.39859035271189,
    "longitude": 133.0239581239643,
    "is_shadow_confederation": true
  }
]