[
  {
    "rank": 1,
    "team_name": "琉球大学",
    "team_short_name": "琉球",
    "runner_name": "久米島",
    "total_distance_km": 581.3,
    "latitude": 34.629006842275054,
    "longitude": 135.0651311562788,
    "is_shadow_confederation": false
  },
  {
    "rank": 2,
    "team_name": "熊本学園大学",
    "team_short_name": "熊学",
    "runner_name": "大分",
    "total_distance_km": 548.9,
    "latitude": 34.731600902504866,
    "longitude": 135.37951863649033,
    "is_shadow_confederation": false
  },
  {
    "rank": 3,
    "team_name": "福岡大学",
    "team_short_name": "福岡",
    "runner_name": "前原",
    "total_distance_km": 532.8,
    "latitude": 34.6996338572814,
    "longitude": 135.5379824574628,
    "is_shadow_confederation": false
  },
  {
    "rank": 4,
    "team_name": "立命館大学",
    "team_short_name": "立命",
    "runner_name": "舞鶴",
    "total_distance_km": 526.3,
    "latitude": 34.744308996164776,
    "longitude": 135.57140788354224,
    "is_shadow_confederation": false
  },
  {
    "rank": 5,
    "team_name": "四国大学",
    "team_short_name": "四国",
    "runner_name": "大洲",
    "total_distance_km": 523.1,
    "latitude": 34.76428675727399,
    "longitude": 135.59634597213036,
    "is_shadow_confederation": false
  },
  {
    "rank": 6,
    "team_name": "鹿児島大学",
    "team_short_name": "鹿大",
    "runner_name": "西都",
    "total_distance_km": 522.9,
    "latitude": 34.765223881338,
    "longitude": 135.59821226077818,
    "is_shadow_confederation": false
  },
  {
    "rank": 7,
    "team_name": "関西大学",
    "team_short_name": "関大",
    "runner_name": "枚方",
    "total_distance_km": 521.9,
    "latitude": 34.771039969419526,
    "longitude": 135.60654668226928,
    "is_shadow_confederation": false
  },
  {
    "rank": 8,
    "team_name": "鳥取大学",
    "team_short_name": "鳥取",
    "runner_name": "境",
    "total_distance_km": 519.2,
    "latitude": 34.78974627675773,
    "longitude": 135.62459963561056,
    "is_shadow_confederation": false
  },
  {
    "rank": 9,
    "team_name": "広島経済大学",
    "team_short_name": "広経",
    "runner_name": "高梁",
    "total_distance_km": 518.9,
    "latitude": 34.792309403485575,
    "longitude": 135.62564471740887,
    "is_shadow_confederation": false
  },
  {
    "rank": 10,
    "team_name": "名古屋大学",
    "team_short_name": "名大",
    "runner_name": "多治見",
    "total_distance_km": 517.5,
    "latitude": 34.802356020965,
    "longitude": 135.63357218665814,
    "is_shadow_confederation": false
  },
  {
    "rank": 11,
    "team_name": "三重大学",
    "team_short_name": "三重",
    "runner_name": "奈良",
    "total_distance_km": 510.6,
    "latitude": 34.83596409909483,
    "longitude": 135.69361101208867,
    "is_shadow_confederation": false
  },
  {
    "rank": 12,
    "team_name": "山梨学院大学",
    "team_short_name": "山学",
    "runner_name": "甲府",
    "total_distance_km": 509.2,
    "latitude": 34.846725754525515,
    "longitude": 135.70143036082365,
    "is_shadow_confederation": false
  },
  {
    "rank": 13,
    "team_name": "金沢大学",
    "team_short_name": "金沢",
    "runner_name": "福井",
    "total_distance_km": 507.0,
    "latitude": 34.86099859771736,
    "longitude": 135.71713237444945,
    "is_shadow_confederation": false
  },
  {
    "rank": 14,
    "team_name": "上武大学",
    "team_short_name": "上武",
    "runner_name": "桐生",
    "total_distance_km": 505.8,
    "latitude": 34.86787091360851,
    "longitude": 135.7271312355686,
    "is_shadow_confederation": false
  },
  {
    "rank": 15,
    "team_name": "日本大学",
    "team_short_name": "日大",
    "runner_name": "牛久",
    "total_distance_km": 489.9,
    "latitude": 34.99598623739234,
    "longitude": 135.7585713336431,
    "is_shadow_confederation": false
  },
  {
    "rank": 16,
    "team_name": "福島大学",
    "team_short_name": "福島",
    "runner_name": "福島",
    "total_distance_km": 460.6,
    "latitude": 35.03000841270761,
    "longitude": 136.0059280736713,
    "is_shadow_confederation": false
  },
  {
    "rank": 17,
    "team_name": "東北大学",
    "team_short_name": "東北",
    "runner_name": "一関",
    "total_distance_km": 460.4,
    "latitude": 35.03029030867478,
    "longitude": 136.00809279166566,
    "is_shadow_confederation": false
  },
  {
    "rank": 18,
    "team_name": "学連選抜",
    "team_short_name": "学連",
    "runner_name": "久世",
    "total_distance_km": 450.8,
    "latitude": 34.99364961774276,
    "longitude": 136.10032406870047,
    "is_shadow_confederation": false
  }
]