[
  {
    "rank": 1,
    "team_name": "琉球大学",
    "team_short_name": "琉球",
    "runner_name": "大原",
    "total_distance_km": 931.1,
    "latitude": 34.081142384559186,
    "longitude": 131.99484784740272,
    "is_shadow_confederation": false
  },
  {
    "rank": 2,
    "team_name": "熊本学園大学",
    "team_short_name": "熊学",
    "runner_name": "菊池",
    "total_distance_km": 877.4,
    "latitude": 34.36484108975017,
    "longitude": 132.3593402750288,
    "is_shadow_confederation": false
  },
  {
    "rank": 3,
    "team_name": "福岡大学",
    "team_short_name": "福岡",
    "runner_name": "大牟田",
    "total_distance_km": 858.3,
    "latitude": 34.37272205178618,
    "longitude": 132.5417778553948,
    "is_shadow_confederation": false
  },
  {
    "rank": 4,
    "team_name": "鹿児島大学",
    "team_short_name": "鹿大",
    "runner_name": "さつま柏原",
    "total_distance_km": 849.9,
    "latitude": 34.42154320772012,
    "longitude": 132.6015292695139,
    "is_shadow_confederation": false
  },
  {
    "rank": 5,
    "team_name": "関西大学",
    "team_short_name": "関大",
    "runner_name": "郡家",
    "total_distance_km": 849.6,
    "latitude": 34.422005712958224,
    "longitude": 132.60473966608106,
    "is_shadow_confederation": false
  },
  {
    "rank": 6,
    "team_name": "名古屋大学",
    "team_short_name": "名大",
    "runner_name": "大府",
    "total_distance_km": 848.4,
    "latitude": 34.42367027143365,
    "longitude": 132.6173718968532,
    "is_shadow_confederation": false
  },
  {
    "rank": 7,
    "team_name": "広島経済大学",
    "team_short_name": "広経",
    "runner_name": "引田",
    "total_distance_km": 841.2,
    "latitude": 34.44484592149279,
    "longitude": 132.6733384944839,
    "is_shadow_confederation": false
  },
  {
    "rank": 8,
    "team_name": "鳥取大学",
    "team_short_name": "鳥取",
    "runner_name": "玖珂",
    "total_distance_km": 840.4,
    "latitude": 34.44182882255467,
    "longitude": 132.68080724042804,
    "is_shadow_confederation": false
  },
  {
    "rank": 9,
    "team_name": "立命館大学",
    "team_short_name": "立命",
    "runner_name": "京都",
    "total_distance_km": 838.7,
    "latitude": 34.4356306274213,
    "longitude": 132.69748531945868,
    "is_shadow_confederation": false
  },
  {
    "rank": 10,
    "team_name": "四国大学",
    "team_short_name": "四国",
    "runner_name": "江川崎",
    "total_distance_km": 827.7,
    "latitude": 34.400273903296764,
    "longitude": 132.8013712783278,
    "is_shadow_confederation": false
  },
  {
    "rank": 11,
    "team_name": "上武大学",
    "team_short_name": "上武",
    "runner_name": "前橋",
    "total_distance_km": 826.1,
    "latitude": 34.407005428652525,
    "longitude": 132.81542804644778,
    "is_shadow_confederation": false
  },
  {
    "rank": 12,
    "team_name": "山梨学院大学",
    "team_short_name": "山学",
    "runner_name": "上田",
    "total_distance_km": 823.7,
    "latitude": 34.40780997968154,
    "longitude": 132.840088673369,
    "is_shadow_confederation": false
  },
  {
    "rank": 13,
    "team_name": "金沢大学",
    "team_short_name": "金沢",
    "runner_name": "小松",
    "total_distance_km": 816.9,
    "latitude": 34.39085441854205,
    "longitude": 132.90383015035044,
    "is_shadow_confederation": false
  },
  {
    "rank": 14,
    "team_name": "三重大学",
    "team_short_name": "三重",
    "runner_name": "和歌山",
    "total_distance_km": 816.2,
    "latitude": 34.39485958597803,
    "longitude": 132.90957484900542,
    "is_shadow_confederation": false
  },
  {
    "rank": 15,
    "team_name": "日本大学",
    "team_short_name": "日大",
    "runner_name": "府中（東京）",
    "total_distance_km": 791.5,
    "latitude": 34.38895696303804,
    "longitude": 133.13850743018733,
    "is_shadow_confederation": false
  },
  {
    "rank": 16,
    "team_name": "学連選抜",
    "team_short_name": "学連",
    "runner_name": "飯塚",
    "total_distance_km": 772.1,
    "latitude": 34.467047030347324,
    "longitude": 133.2964700842198,
    "is_shadow_confederation": false
  },
  {
    "rank": 17,
    "team_name": "福島大学",
    "team_short_name": "福島",
    "runner_name": "寺泊",
    "total_distance_km": 754.0,
    "latitude": 34.50784769148076,
    "longitude": 133.47322125922315,
    "is_shadow_confederation": false
  },
  {
    "rank": 18,
    "team_name": "東北大学",
    "team_short_name": "東北",
    "runner_name": "秋田",
    "total_distance_km": 749.0,
    "latitude": 34.49855027502245,
    "longitude": 133.52123956987666,
    "is_shadow_confederation": false
  }
]