[
  {
    "rank": 1,
    "team_name": "琉球大学",
    "team_short_name": "琉球",
    "runner_name": "ゴール",
    "total_distance_km": 1057.8,
    "latitude": 33.950916,
    "longitude": 130.924104,
    "is_shadow_confederation": false
  },
  {
    "rank": 2,
    "team_name": "鹿児島大学",
    "team_short_name": "鹿大",
    "runner_name": "喜入",
    "total_distance_km": 896.5,
    "latitude": 34.248219627182316,
    "longitude": 132.22422744708513,
    "is_shadow_confederation": false
  },
  {
    "rank": 3,
    "team_name": "熊本学園大学",
    "team_short_name": "熊学",
    "runner_name": "菊池",
    "total_distance_km": 859.7,
    "latitude": 34.36924605347864,
    "longitude": 132.5293597063822,
    "is_shadow_confederation": false
  },
  {
    "rank": 4,
    "team_name": "福岡大学",
    "team_short_name": "福岡",
    "runner_name": "大牟田",
    "total_distance_km": 845.0,
    "latitude": 34.43461070198285,
    "longitude": 132.64570294932113,
    "is_shadow_confederation": false
  },
  {
    "rank": 5,
    "team_name": "四国大学",
    "team_short_name": "四国",
    "runner_name": "江川崎",
    "total_distance_km": 807.6,
    "latitude": 34.405425698565075,
    "longitude": 132.98844149513678,
    "is_shadow_confederation": false
  },
  {
    "rank": 6,
    "team_name": "広島経済大学",
    "team_short_name": "広経",
    "runner_name": "引田",
    "total_distance_km": 787.2,
    "latitude": 34.40134136478827,
    "longitude": 133.1821404086807,
    "is_shadow_confederation": false
  },
  {
    "rank": 7,
    "team_name": "関西大学",
    "team_short_name": "関大",
    "runner_name": "郡家",
    "total_distance_km": 772.5,
    "latitude": 34.46519507551803,
    "longitude": 133.29274262844606,
    "is_shadow_confederation": false
  },
  {
    "rank": 8,
    "team_name": "鳥取大学",
    "team_short_name": "鳥取",
    "runner_name": "玖珂",
    "total_distance_km": 769.8,
    "latitude": 34.477189610245404,
    "longitude": 133.3166786450287,
    "is_shadow_confederation": false
  },
  {
    "rank": 9,
    "team_name": "名古屋大学",
    "team_short_name": "名大",
    "runner_name": "大府",
    "total_distance_km": 769.1,
    "latitude": 34.48086459851887,
    "longitude": 133.32266846177347,
    "is_shadow_confederation": false
  },
  {
    "rank": 10,
    "team_name": "三重大学",
    "team_short_name": "三重",
    "runner_name": "和歌山",
    "total_distance_km": 758.7,
    "latitude": 34.502276575339764,
    "longitude": 133.42778545073605,
    "is_shadow_confederation": false
  },
  {
    "rank": 11,
    "team_name": "立命館大学",
    "team_short_name": "立命",
    "runner_name": "長浜（滋賀）",
    "total_distance_km": 733.1,
    "latitude": 34.55547869169156,
    "longitude": 133.673147257049,
    "is_shadow_confederation": false
  },
  {
    "rank": 12,
    "team_name": "上武大学",
    "team_short_name": "上武",
    "runner_name": "小山",
    "total_distance_km": 723.8,
    "latitude": 34.59362055394902,
    "longitude": 133.75645518575524,
    "is_shadow_confederation": false
  },
  {
    "rank": 13,
    "team_name": "日本大学",
    "team_short_name": "日大",
    "runner_name": "練馬",
    "total_distance_km": 721.3,
    "latitude": 34.60832769583003,
    "longitude": 133.77708555075012,
    "is_shadow_confederation": false
  },
  {
    "rank": 14,
    "team_name": "金沢大学",
    "team_short_name": "金沢",
    "runner_name": "敦賀",
    "total_distance_km": 717.3,
    "latitude": 34.632043202714165,
    "longitude": 133.80846423562653,
    "is_shadow_confederation": false
  },
  {
    "rank": 14,
    "team_name": "山梨学院大学",
    "team_short_name": "山学",
    "runner_name": "三島",
    "total_distance_km": 717.3,
    "latitude": 34.632043202714165,
    "longitude": 133.80846423562653,
    "is_shadow_confederation": false
  },
  {
    "rank": 16,
    "team_name": "学連選抜",
    "team_short_name": "学連",
    "runner_name": "加世田",
    "total_distance_km": 675.9,
    "latitude": 34.75677904804984,
    "longitude": 134.21318535685802,
    "is_shadow_confederation": false
  },
  {
    "rank": 17,
    "team_name": "福島大学",
    "team_short_name": "福島",
    "runner_name": "浪江",
    "total_distance_km": 636.4,
    "latitude": 34.833731717794315,
    "longitude": 134.575924631089,
    "is_shadow_confederation": false
  },
  {
    "rank": 18,
    "team_name": "東北大学",
    "team_short_name": "東北",
    "runner_name": "丸森",
    "total_distance_km": 544.0,
    "latitude": 34.71948301897047,
    "longitude": 135.43043737278035,
    "is_shadow_confederation": false
  }
]