[
  {
    "rank": 1,
    "team_name": "琉球大学",
    "team_short_name": "琉球",
    "runner_name": "大原",
    "total_distance_km": 937.4,
    "latitude": 34.04118157928696,
    "longitude": 131.95154509583992,
    "is_shadow_confederation": false
  },
  {
    "rank": 2,
    "team_name": "鹿児島大学",
    "team_short_name": "鹿大",
    "runner_name": "さつま柏原",
    "total_distance_km": 754.5,
    "latitude": 34.50885763646378,
    "longitude": 133.4680093286253,
    "is_shadow_confederation": false
  },
  {
    "rank": 3,
    "team_name": "熊本学園大学",
    "team_short_name": "熊学",
    "runner_name": "犬飼",
    "total_distance_km": 734.3,
    "latitude": 34.55295449943289,
    "longitude": 133.6611016032284,
    "is_shadow_confederation": false
  },
  {
    "rank": 4,
    "team_name": "福岡大学",
    "team_short_name": "福岡",
    "runner_name": "口之津",
    "total_distance_km": 699.9,
    "latitude": 34.67674995531346,
    "longitude": 133.9798656493854,
    "is_shadow_confederation": false
  },
  {
    "rank": 5,
    "team_name": "名古屋大学",
    "team_short_name": "名大",
    "runner_name": "名古屋",
    "total_distance_km": 669.2,
    "latitude": 34.794792652029585,
    "longitude": 134.26513798658078,
    "is_shadow_confederation": false
  },
  {
    "rank": 6,
    "team_name": "四国大学",
    "team_short_name": "四国",
    "runner_name": "新居浜",
    "total_distance_km": 665.7,
    "latitude": 34.81770892744584,
    "longitude": 134.29000423977226,
    "is_shadow_confederation": false
  },
  {
    "rank": 7,
    "team_name": "日本大学",
    "team_short_name": "日大",
    "runner_name": "八王子",
    "total_distance_km": 643.2,
    "latitude": 34.82243187167569,
    "longitude": 134.50388301266398,
    "is_shadow_confederation": false
  },
  {
    "rank": 8,
    "team_name": "上武大学",
    "team_short_name": "上武",
    "runner_name": "伊勢崎",
    "total_distance_km": 639.6,
    "latitude": 34.82928272582385,
    "longitude": 134.54186959801038,
    "is_shadow_confederation": false
  },
  {
    "rank": 9,
    "team_name": "広島経済大学",
    "team_short_name": "広経",
    "runner_name": "高松（香川）",
    "total_distance_km": 627.3,
    "latitude": 34.84219124281559,
    "longitude": 134.66031374120175,
    "is_shadow_confederation": false
  },
  {
    "rank": 10,
    "team_name": "三重大学",
    "team_short_name": "三重",
    "runner_name": "新宮",
    "total_distance_km": 625.6,
    "latitude": 34.83583598239227,
    "longitude": 134.67716833112638,
    "is_shadow_confederation": false
  },
  {
    "rank": 11,
    "team_name": "関西大学",
    "team_short_name": "関大",
    "runner_name": "豊中",
    "total_distance_km": 620.9,
    "latitude": 34.82423865474825,
    "longitude": 134.72638350013685,
    "is_shadow_confederation": false
  },
  {
    "rank": 12,
    "team_name": "鳥取大学",
    "team_short_name": "鳥取",
    "runner_name": "松江",
    "total_distance_km": 617.3,
    "latitude": 34.80463918154533,
    "longitude": 134.7570659699567,
    "is_shadow_confederation": false
  },
  {
    "rank": 13,
    "team_name": "山梨学院大学",
    "team_short_name": "山学",
    "runner_name": "静岡",
    "total_distance_km": 614.7,
    "latitude": 34.79499690878487,
    "longitude": 134.78132052474817,
    "is_shadow_confederation": false
  },
  {
    "rank": 14,
    "team_name": "立命館大学",
    "team_short_name": "立命",
    "runner_name": "彦根",
    "total_distance_km": 584.1,
    "latitude": 34.63077283426744,
    "longitude": 135.0353774606185,
    "is_shadow_confederation": false
  },
  {
    "rank": 15,
    "team_name": "福島大学",
    "team_short_name": "福島",
    "runner_name": "浪江",
    "total_distance_km": 550.2,
    "latitude": 34.73454176568588,
    "longitude": 135.3657821621572,
    "is_shadow_confederation": false
  },
  {
    "rank": 16,
    "team_name": "金沢大学",
    "team_short_name": "金沢",
    "runner_name": "福井",
    "total_distance_km": 532.9,
    "latitude": 34.699425225568326,
    "longitude": 135.53692063454073,
    "is_shadow_confederation": false
  },
  {
    "rank": 17,
    "team_name": "東北大学",
    "team_short_name": "東北",
    "runner_name": "一関",
    "total_distance_km": 440.9,
    "latitude": 34.95974033087554,
    "longitude": 136.19509931303665,
    "is_shadow_confederation": false
  },
  {
    "rank": 18,
    "team_name": "学連選抜",
    "team_short_name": "学連",
    "runner_name": "上",
    "total_distance_km": 382.3,
    "latitude": 35.008433037666144,
    "longitude": 136.6549195939764,
    "is_shadow_confederation": false
  },
  {
    "rank": null,
    "team_name": "区間記録連合",
    "team_short_name": "区間記録",
    "runner_name": "豊中",
    "total_distance_km": 965.4,
    "latitude": 34.072517874105344,
    "longitude": 131.69271502050432,
    "is_shadow_confederation": true
  }
]