[
  {
    "rank": 1,
    "team_name": "琉球大学",
    "team_short_name": "琉球",
    "runner_name": "ゴール",
    "total_distance_km": 1082.6,
    "latitude": 33.950916,
    "longitude": 130.924104,
    "is_shadow_confederation": false
  },
  {
    "rank": 2,
    "team_name": "鹿児島大学",
    "team_short_name": "鹿大",
    "runner_name": "ゴール",
    "total_distance_km": 1062.6,
    "latitude": 33.950916,
    "longitude": 130.924104,
    "is_shadow_confederation": false
  },
  {
    "rank": 3,
    "team_name": "熊本学園大学",
    "team_short_name": "熊学",
    "runner_name": "日田",
    "total_distance_km": 1029.0,
    "latitude": 34.04354413396918,
    "longitude": 131.12029848031636,
    "is_shadow_confederation": false
  },
  {
    "rank": 4,
    "team_name": "福岡大学",
    "team_short_name": "福岡",
    "runner_name": "太宰府",
    "total_distance_km": 1005.7,
    "latitude": 34.05664883007354,
    "longitude": 131.3333397055916,
    "is_shadow_confederation": false
  },
  {
    "rank": 5,
    "team_name": "名古屋大学",
    "team_short_name": "名大",
    "runner_name": "岐阜",
    "total_distance_km": 977.8,
    "latitude": 34.055918533996085,
    "longitude": 131.58442419566111,
    "is_shadow_confederation": false
  },
  {
    "rank": 6,
    "team_name": "日本大学",
    "team_short_name": "日大",
    "runner_name": "青梅",
    "total_distance_km": 959.6,
    "latitude": 34.072343819320736,
    "longitude": 131.74359942794487,
    "is_shadow_confederation": false
  },
  {
    "rank": 7,
    "team_name": "上武大学",
    "team_short_name": "上武",
    "runner_name": "館林",
    "total_distance_km": 955.7,
    "latitude": 34.069832784093755,
    "longitude": 131.78495413069155,
    "is_shadow_confederation": false
  },
  {
    "rank": 8,
    "team_name": "四国大学",
    "team_short_name": "四国",
    "runner_name": "西条",
    "total_distance_km": 946.4,
    "latitude": 34.030406409936816,
    "longitude": 131.8615162773072,
    "is_shadow_confederation": false
  },
  {
    "rank": 9,
    "team_name": "関西大学",
    "team_short_name": "関大",
    "runner_name": "西脇",
    "total_distance_km": 934.5,
    "latitude": 34.058325942938176,
    "longitude": 131.9730866355069,
    "is_shadow_confederation": false
  },
  {
    "rank": 10,
    "team_name": "広島経済大学",
    "team_short_name": "広経",
    "runner_name": "滝宮",
    "total_distance_km": 919.4,
    "latitude": 34.11044402345799,
    "longitude": 132.10916231945163,
    "is_shadow_confederation": false
  },
  {
    "rank": 11,
    "team_name": "山梨学院大学",
    "team_short_name": "山学",
    "runner_name": "佐久間",
    "total_distance_km": 915.1,
    "latitude": 34.13091237803526,
    "longitude": 132.14692044581997,
    "is_shadow_confederation": false
  },
  {
    "rank": 12,
    "team_name": "三重大学",
    "team_short_name": "三重",
    "runner_name": "上野",
    "total_distance_km": 910.5,
    "latitude": 34.161131897154846,
    "longitude": 132.176664,
    "is_shadow_confederation": false
  },
  {
    "rank": 13,
    "team_name": "鳥取大学",
    "team_short_name": "鳥取",
    "runner_name": "津和野",
    "total_distance_km": 900.1,
    "latitude": 34.217648647675375,
    "longitude": 132.22523519771482,
    "is_shadow_confederation": false
  },
  {
    "rank": 14,
    "team_name": "立命館大学",
    "team_short_name": "立命",
    "runner_name": "園部",
    "total_distance_km": 886.8,
    "latitude": 34.305894736382434,
    "longitude": 132.29835862433416,
    "is_shadow_confederation": false
  },
  {
    "rank": 15,
    "team_name": "福島大学",
    "team_short_name": "福島",
    "runner_name": "喜多方",
    "total_distance_km": 826.7,
    "latitude": 34.40354337990736,
    "longitude": 132.81075280899407,
    "is_shadow_confederation": false
  },
  {
    "rank": 16,
    "team_name": "金沢大学",
    "team_short_name": "金沢",
    "runner_name": "小松",
    "total_distance_km": 815.5,
    "latitude": 34.39676140970489,
    "longitude": 132.91667672060973,
    "is_shadow_confederation": false
  },
  {
    "rank": 17,
    "team_name": "東北大学",
    "team_short_name": "東北",
    "runner_name": "秋田",
    "total_distance_km": 726.0,
    "latitude": 34.582499824892324,
    "longitude": 133.7366007877903,
    "is_shadow_confederation": false
  },
  {
    "rank": 18,
    "team_name": "学連選抜",
    "team_short_name": "学連",
    "runner_name": "加世田",
    "total_distance_km": 669.3,
    "latitude": 34.794424556285534,
    "longitude": 134.26414053794883,
    "is_shadow_confederation": false
  },
  {
    "rank": null,
    "team_name": "区間記録連合",
    "team_short_name": "区間記録",
    "runner_name": "ゴール",
    "total_distance_km": 1082.6,
    "latitude": 33.950916,
    "longitude": 130.924104,
    "is_shadow_confederation": true
  }
]