[
  {
    "rank": 1,
    "team_name": "熊本学園大学",
    "team_short_name": "熊学",
    "runner_name": "岱明",
    "total_distance_km": 205.9,
    "latitude": 34.83943078585516,
    "longitude": 138.13659287998416,
    "is_shadow_confederation": false
  },
  {
    "rank": 2,
    "team_name": "琉球大学",
    "team_short_name": "琉球",
    "runner_name": "仲筋",
    "total_distance_km": 203.8,
    "latitude": 34.84587975347385,
    "longitude": 138.1581254656272,
    "is_shadow_confederation": false
  },
  {
    "rank": 3,
    "team_name": "福岡大学",
    "team_short_name": "福岡",
    "runner_name": "福岡",
    "total_distance_km": 197.7,
    "latitude": 34.866955608727224,
    "longitude": 138.21400992836445,
    "is_shadow_confederation": false
  },
  {
    "rank": 4,
    "team_name": "鹿児島大学",
    "team_short_name": "鹿大",
    "runner_name": "川内（鹿児島）",
    "total_distance_km": 194.3,
    "latitude": 34.88309107879557,
    "longitude": 138.24372412577395,
    "is_shadow_confederation": false
  },
  {
    "rank": 5,
    "team_name": "立命館大学",
    "team_short_name": "立命",
    "runner_name": "福知山",
    "total_distance_km": 193.7,
    "latitude": 34.88560505664939,
    "longitude": 138.2494749186228,
    "is_shadow_confederation": false
  },
  {
    "rank": 6,
    "team_name": "広島経済大学",
    "team_short_name": "広経",
    "runner_name": "加計",
    "total_distance_km": 189.0,
    "latitude": 34.909981411646186,
    "longitude": 138.28851942729364,
    "is_shadow_confederation": false
  },
  {
    "rank": 7,
    "team_name": "関西大学",
    "team_short_name": "関大",
    "runner_name": "和田山",
    "total_distance_km": 188.3,
    "latitude": 34.916045478493494,
    "longitude": 138.29063611793788,
    "is_shadow_confederation": false
  },
  {
    "rank": 8,
    "team_name": "三重大学",
    "team_short_name": "三重",
    "runner_name": "五條",
    "total_distance_km": 187.9,
    "latitude": 34.919545135299025,
    "longitude": 138.29163102776621,
    "is_shadow_confederation": false
  },
  {
    "rank": 9,
    "team_name": "四国大学",
    "team_short_name": "四国",
    "runner_name": "大三島",
    "total_distance_km": 187.4,
    "latitude": 34.92325058376829,
    "longitude": 138.29358673137762,
    "is_shadow_confederation": false
  },
  {
    "rank": 10,
    "team_name": "金沢大学",
    "team_short_name": "金沢",
    "runner_name": "小浜",
    "total_distance_km": 186.0,
    "latitude": 34.93091501988063,
    "longitude": 138.3035747585641,
    "is_shadow_confederation": false
  },
  {
    "rank": 11,
    "team_name": "鳥取大学",
    "team_short_name": "鳥取",
    "runner_name": "鳥取",
    "total_distance_km": 184.8,
    "latitude": 34.93857339751108,
    "longitude": 138.31208311204912,
    "is_shadow_confederation": false
  },
  {
    "rank": 12,
    "team_name": "名古屋大学",
    "team_short_name": "名大",
    "runner_name": "美濃",
    "total_distance_km": 183.1,
    "latitude": 34.94406825887811,
    "longitude": 138.3286655444906,
    "is_shadow_confederation": false
  },
  {
    "rank": 13,
    "team_name": "山梨学院大学",
    "team_short_name": "山学",
    "runner_name": "南信濃",
    "total_distance_km": 173.4,
    "latitude": 34.985942430666604,
    "longitude": 138.41062998212797,
    "is_shadow_confederation": false
  },
  {
    "rank": 14,
    "team_name": "上武大学",
    "team_short_name": "上武",
    "runner_name": "越谷",
    "total_distance_km": 168.3,
    "latitude": 35.013999388650056,
    "longitude": 138.45486347609864,
    "is_shadow_confederation": false
  },
  {
    "rank": 15,
    "team_name": "日本大学",
    "team_short_name": "日大",
    "runner_name": "古河",
    "total_distance_km": 167.1,
    "latitude": 35.01704177351917,
    "longitude": 138.46736039900156,
    "is_shadow_confederation": false
  },
  {
    "rank": 16,
    "team_name": "福島大学",
    "team_short_name": "福島",
    "runner_name": "石川",
    "total_distance_km": 156.9,
    "latitude": 35.072520439175086,
    "longitude": 138.54287173847518,
    "is_shadow_confederation": false
  },
  {
    "rank": 17,
    "team_name": "東北大学",
    "team_short_name": "東北",
    "runner_name": "山形（山形）",
    "total_distance_km": 133.1,
    "latitude": 35.13323152472436,
    "longitude": 138.75419908532922,
    "is_shadow_confederation": false
  },
  {
    "rank": 18,
    "team_name": "学連選抜",
    "team_short_name": "学連",
    "runner_name": "新潟",
    "total_distance_km": 125.1,
    "latitude": 35.10613123206873,
    "longitude": 138.83479481314046,
    "is_shadow_confederation": false
  }
]