[
  {
    "rank": 1,
    "team_name": "琉球大学",
    "team_short_name": "琉球",
    "runner_name": "名護",
    "total_distance_km": 359.3,
    "latitude": 35.12631574664776,
    "longitude": 136.81985198999467,
    "is_shadow_confederation": false
  },
  {
    "rank": 2,
    "team_name": "鹿児島大学",
    "team_short_name": "鹿大",
    "runner_name": "加久藤",
    "total_distance_km": 271.1,
    "latitude": 34.680532006661956,
    "longitude": 137.5315827557306,
    "is_shadow_confederation": false
  },
  {
    "rank": 3,
    "team_name": "熊本学園大学",
    "team_short_name": "熊学",
    "runner_name": "八代",
    "total_distance_km": 267.1,
    "latitude": 34.69401409559005,
    "longitude": 137.5702190434181,
    "is_shadow_confederation": false
  },
  {
    "rank": 4,
    "team_name": "福岡大学",
    "team_short_name": "福岡",
    "runner_name": "黒木",
    "total_distance_km": 249.0,
    "latitude": 34.708846265085356,
    "longitude": 137.74773713593572,
    "is_shadow_confederation": false
  },
  {
    "rank": 5,
    "team_name": "名古屋大学",
    "team_short_name": "名大",
    "runner_name": "大垣",
    "total_distance_km": 230.1,
    "latitude": 34.7568143400258,
    "longitude": 137.93394920260315,
    "is_shadow_confederation": false
  },
  {
    "rank": 6,
    "team_name": "日本大学",
    "team_short_name": "日大",
    "runner_name": "古河",
    "total_distance_km": 221.1,
    "latitude": 34.777991862204,
    "longitude": 138.0248184635095,
    "is_shadow_confederation": false
  },
  {
    "rank": 7,
    "team_name": "上武大学",
    "team_short_name": "上武",
    "runner_name": "越谷",
    "total_distance_km": 220.3,
    "latitude": 34.77934814742448,
    "longitude": 138.03307239853882,
    "is_shadow_confederation": false
  },
  {
    "rank": 8,
    "team_name": "四国大学",
    "team_short_name": "四国",
    "runner_name": "大三島",
    "total_distance_km": 217.1,
    "latitude": 34.7864436865987,
    "longitude": 138.06578408325996,
    "is_shadow_confederation": false
  },
  {
    "rank": 9,
    "team_name": "三重大学",
    "team_short_name": "三重",
    "runner_name": "五條",
    "total_distance_km": 216.4,
    "latitude": 34.79027208238097,
    "longitude": 138.071207724254,
    "is_shadow_confederation": false
  },
  {
    "rank": 10,
    "team_name": "広島経済大学",
    "team_short_name": "広経",
    "runner_name": "加計",
    "total_distance_km": 205.7,
    "latitude": 34.840101564571206,
    "longitude": 138.13862249059977,
    "is_shadow_confederation": false
  },
  {
    "rank": 11,
    "team_name": "関西大学",
    "team_short_name": "関大",
    "runner_name": "和田山",
    "total_distance_km": 201.2,
    "latitude": 34.84832780067095,
    "longitude": 138.18573026961607,
    "is_shadow_confederation": false
  },
  {
    "rank": 12,
    "team_name": "鳥取大学",
    "team_short_name": "鳥取",
    "runner_name": "鳥取",
    "total_distance_km": 201.1,
    "latitude": 34.84874924237696,
    "longitude": 138.1866968327928,
    "is_shadow_confederation": false
  },
  {
    "rank": 13,
    "team_name": "立命館大学",
    "team_short_name": "立命",
    "runner_name": "福知山",
    "total_distance_km": 189.8,
    "latitude": 34.90328666361635,
    "longitude": 138.2856251736193,
    "is_shadow_confederation": false
  },
  {
    "rank": 14,
    "team_name": "福島大学",
    "team_short_name": "福島",
    "runner_name": "石川",
    "total_distance_km": 181.8,
    "latitude": 34.95084145813709,
    "longitude": 138.33751953921873,
    "is_shadow_confederation": false
  },
  {
    "rank": 15,
    "team_name": "山梨学院大学",
    "team_short_name": "山学",
    "runner_name": "南信濃",
    "total_distance_km": 173.6,
    "latitude": 34.984785853511106,
    "longitude": 138.4089628734175,
    "is_shadow_confederation": false
  },
  {
    "rank": 16,
    "team_name": "金沢大学",
    "team_short_name": "金沢",
    "runner_name": "小浜",
    "total_distance_km": 162.6,
    "latitude": 35.04198502498571,
    "longitude": 138.49794190363448,
    "is_shadow_confederation": false
  },
  {
    "rank": 17,
    "team_name": "東北大学",
    "team_short_name": "東北",
    "runner_name": "帯広",
    "total_distance_km": 109.5,
    "latitude": 35.147779950330815,
    "longitude": 138.980245650206,
    "is_shadow_confederation": false
  },
  {
    "rank": 18,
    "team_name": "学連選抜",
    "team_short_name": "学連",
    "runner_name": "美幌",
    "total_distance_km": 46.4,
    "latitude": 35.37799019276115,
    "longitude": 139.50674950859104,
    "is_shadow_confederation": false
  },
  {
    "rank": null,
    "team_name": "区間記録連合",
    "team_short_name": "区間記録",
    "runner_name": "風屋",
    "total_distance_km": 393.6,
    "latitude": 34.9281626705989,
    "longitude": 136.58747013446356,
    "is_shadow_confederation": true
  }
]