[
  {
    "rank": 1,
    "team_name": "琉球大学",
    "team_short_name": "琉球",
    "runner_name": "名護",
    "total_distance_km": 386.4,
    "latitude": 34.98101374752805,
    "longitude": 136.62894040595887,
    "is_shadow_confederation": false
  },
  {
    "rank": 2,
    "team_name": "熊本学園大学",
    "team_short_name": "熊学",
    "runner_name": "人吉",
    "total_distance_km": 376.7,
    "latitude": 35.0516010262298,
    "longitude": 136.68116989280784,
    "is_shadow_confederation": false
  },
  {
    "rank": 3,
    "team_name": "福岡大学",
    "team_short_name": "福岡",
    "runner_name": "朝倉",
    "total_distance_km": 366.9,
    "latitude": 35.114591540057084,
    "longitude": 136.7381599557303,
    "is_shadow_confederation": false
  },
  {
    "rank": 4,
    "team_name": "立命館大学",
    "team_short_name": "立命",
    "runner_name": "米原",
    "total_distance_km": 362.4,
    "latitude": 35.1245237719899,
    "longitude": 136.78594009770265,
    "is_shadow_confederation": false
  },
  {
    "rank": 5,
    "team_name": "四国大学",
    "team_short_name": "四国",
    "runner_name": "松山",
    "total_distance_km": 359.6,
    "latitude": 35.12635498114107,
    "longitude": 136.8165609739456,
    "is_shadow_confederation": false
  },
  {
    "rank": 6,
    "team_name": "鳥取大学",
    "team_short_name": "鳥取",
    "runner_name": "防府",
    "total_distance_km": 357.4,
    "latitude": 35.124179439274876,
    "longitude": 136.8402084253509,
    "is_shadow_confederation": false
  },
  {
    "rank": 7,
    "team_name": "広島経済大学",
    "team_short_name": "広経",
    "runner_name": "大竹",
    "total_distance_km": 356.7,
    "latitude": 35.124167472713935,
    "longitude": 136.847888056492,
    "is_shadow_confederation": false
  },
  {
    "rank": 8,
    "team_name": "鹿児島大学",
    "team_short_name": "鹿大",
    "runner_name": "西米良",
    "total_distance_km": 356.6,
    "latitude": 35.12416576320523,
    "longitude": 136.84898514665502,
    "is_shadow_confederation": false
  },
  {
    "rank": 9,
    "team_name": "名古屋大学",
    "team_short_name": "名大",
    "runner_name": "愛西",
    "total_distance_km": 355.4,
    "latitude": 35.12451544475674,
    "longitude": 136.86213766013006,
    "is_shadow_confederation": false
  },
  {
    "rank": 10,
    "team_name": "関西大学",
    "team_short_name": "関大",
    "runner_name": "柏原",
    "total_distance_km": 353.0,
    "latitude": 35.12389118889966,
    "longitude": 136.888221571912,
    "is_shadow_confederation": false
  },
  {
    "rank": 11,
    "team_name": "山梨学院大学",
    "team_short_name": "山学",
    "runner_name": "浜松",
    "total_distance_km": 349.4,
    "latitude": 35.11303043347081,
    "longitude": 136.92233547422163,
    "is_shadow_confederation": false
  },
  {
    "rank": 12,
    "team_name": "三重大学",
    "team_short_name": "三重",
    "runner_name": "風屋",
    "total_distance_km": 348.2,
    "latitude": 35.102496236131444,
    "longitude": 136.9248138860674,
    "is_shadow_confederation": false
  },
  {
    "rank": 13,
    "team_name": "金沢大学",
    "team_short_name": "金沢",
    "runner_name": "志賀",
    "total_distance_km": 346.1,
    "latitude": 35.08522088381256,
    "longitude": 136.93422742200534,
    "is_shadow_confederation": false
  },
  {
    "rank": 14,
    "team_name": "上武大学",
    "team_short_name": "上武",
    "runner_name": "寄居",
    "total_distance_km": 343.8,
    "latitude": 35.07290982268319,
    "longitude": 136.95417429378801,
    "is_shadow_confederation": false
  },
  {
    "rank": 15,
    "team_name": "日本大学",
    "team_short_name": "日大",
    "runner_name": "小田原",
    "total_distance_km": 339.7,
    "latitude": 35.056263347565285,
    "longitude": 136.99323280846028,
    "is_shadow_confederation": false
  },
  {
    "rank": 16,
    "team_name": "福島大学",
    "team_short_name": "福島",
    "runner_name": "津川",
    "total_distance_km": 310.1,
    "latitude": 34.899178267453635,
    "longitude": 137.24188982976696,
    "is_shadow_confederation": false
  },
  {
    "rank": 17,
    "team_name": "東北大学",
    "team_short_name": "東北",
    "runner_name": "高畠",
    "total_distance_km": 299.3,
    "latitude": 34.83708261656574,
    "longitude": 137.32694021144619,
    "is_shadow_confederation": false
  },
  {
    "rank": 18,
    "team_name": "学連選抜",
    "team_short_name": "学連",
    "runner_name": "大村",
    "total_distance_km": 293.1,
    "latitude": 34.79458004317435,
    "longitude": 137.36967372942942,
    "is_shadow_confederation": false
  }
]