[
  {
    "rank": 1,
    "team_name": "名古屋大学",
    "team_short_name": "名大",
    "runner_name": "多治見",
    "total_distance_km": 471.3,
    "latitude": 34.97825236291603,
    "longitude": 135.91125702097438,
    "is_shadow_confederation": false
  },
  {
    "rank": 2,
    "team_name": "四国大学",
    "team_short_name": "四国",
    "runner_name": "大洲",
    "total_distance_km": 469.3,
    "latitude": 34.987048266034655,
    "longitude": 135.9297156929331,
    "is_shadow_confederation": false
  },
  {
    "rank": 3,
    "team_name": "琉球大学",
    "team_short_name": "琉球",
    "runner_name": "波照間",
    "total_distance_km": 466.0,
    "latitude": 35.00750050122609,
    "longitude": 135.95567803439167,
    "is_shadow_confederation": false
  },
  {
    "rank": 4,
    "team_name": "福岡大学",
    "team_short_name": "福岡",
    "runner_name": "前原",
    "total_distance_km": 463.1,
    "latitude": 35.02217568216896,
    "longitude": 135.98064251741425,
    "is_shadow_confederation": false
  },
  {
    "rank": 5,
    "team_name": "熊本学園大学",
    "team_short_name": "熊学",
    "runner_name": "熊本",
    "total_distance_km": 462.9,
    "latitude": 35.02251262705861,
    "longitude": 135.98279535401363,
    "is_shadow_confederation": false
  },
  {
    "rank": 6,
    "team_name": "立命館大学",
    "team_short_name": "立命",
    "runner_name": "舞鶴",
    "total_distance_km": 461.6,
    "latitude": 35.02716794541548,
    "longitude": 135.99569647800496,
    "is_shadow_confederation": false
  },
  {
    "rank": 7,
    "team_name": "関西大学",
    "team_short_name": "関大",
    "runner_name": "枚方",
    "total_distance_km": 459.2,
    "latitude": 35.031503608658724,
    "longitude": 136.02107695198464,
    "is_shadow_confederation": false
  },
  {
    "rank": 8,
    "team_name": "日本大学",
    "team_short_name": "日大",
    "runner_name": "牛久",
    "total_distance_km": 457.5,
    "latitude": 35.02544955519616,
    "longitude": 136.03818286337892,
    "is_shadow_confederation": false
  },
  {
    "rank": 9,
    "team_name": "広島経済大学",
    "team_short_name": "広経",
    "runner_name": "高梁",
    "total_distance_km": 456.6,
    "latitude": 35.02222216245992,
    "longitude": 136.04723082642445,
    "is_shadow_confederation": false
  },
  {
    "rank": 10,
    "team_name": "鳥取大学",
    "team_short_name": "鳥取",
    "runner_name": "境",
    "total_distance_km": 454.3,
    "latitude": 35.01138291362821,
    "longitude": 136.06862002291487,
    "is_shadow_confederation": false
  },
  {
    "rank": 11,
    "team_name": "鹿児島大学",
    "team_short_name": "鹿大",
    "runner_name": "西都",
    "total_distance_km": 450.9,
    "latitude": 34.994229407401946,
    "longitude": 136.09948541366634,
    "is_shadow_confederation": false
  },
  {
    "rank": 12,
    "team_name": "山梨学院大学",
    "team_short_name": "山学",
    "runner_name": "甲府",
    "total_distance_km": 450.7,
    "latitude": 34.99306982808358,
    "longitude": 136.10116272373457,
    "is_shadow_confederation": false
  },
  {
    "rank": 13,
    "team_name": "三重大学",
    "team_short_name": "三重",
    "runner_name": "奈良",
    "total_distance_km": 450.4,
    "latitude": 34.99133045910602,
    "longitude": 136.10367868883694,
    "is_shadow_confederation": false
  },
  {
    "rank": 14,
    "team_name": "上武大学",
    "team_short_name": "上武",
    "runner_name": "桐生",
    "total_distance_km": 446.9,
    "latitude": 34.984140009598605,
    "longitude": 136.13795106098507,
    "is_shadow_confederation": false
  },
  {
    "rank": 15,
    "team_name": "金沢大学",
    "team_short_name": "金沢",
    "runner_name": "福井",
    "total_distance_km": 444.5,
    "latitude": 34.97837046251507,
    "longitude": 136.16326653830473,
    "is_shadow_confederation": false
  },
  {
    "rank": 16,
    "team_name": "福島大学",
    "team_short_name": "福島",
    "runner_name": "福島",
    "total_distance_km": 436.0,
    "latitude": 34.944590899309375,
    "longitude": 136.24419082769433,
    "is_shadow_confederation": false
  },
  {
    "rank": 17,
    "team_name": "学連選抜",
    "team_short_name": "学連",
    "runner_name": "上",
    "total_distance_km": 408.4,
    "latitude": 34.85323309848611,
    "longitude": 136.4740957677915,
    "is_shadow_confederation": false
  },
  {
    "rank": 18,
    "team_name": "東北大学",
    "team_short_name": "東北",
    "runner_name": "大館",
    "total_distance_km": 395.1,
    "latitude": 34.91725332458968,
    "longitude": 136.5784596036059,
    "is_shadow_confederation": false
  },
  {
    "rank": null,
    "team_name": "区間記録連合",
    "team_short_name": "区間記録",
    "runner_name": "桐生",
    "total_distance_km": 489.4,
    "latitude": 34.995843744012895,
    "longitude": 135.7640454877525,
    "is_shadow_confederation": true
  }
]