[
  {
    "rank": 1,
    "team_name": "琉球大学",
    "team_short_name": "琉球",
    "runner_name": "波照間",
    "total_distance_km": 530.6,
    "latitude": 34.713391480651254,
    "longitude": 135.54640655311962,
    "is_shadow_confederation": false
  },
  {
    "rank": 2,
    "team_name": "熊本学園大学",
    "team_short_name": "熊学",
    "runner_name": "熊本",
    "total_distance_km": 467.2,
    "latitude": 34.99943008028616,
    "longitude": 135.94696945501371,
    "is_shadow_confederation": false
  },
  {
    "rank": 3,
    "team_name": "鹿児島大学",
    "team_short_name": "鹿大",
    "runner_name": "西都",
    "total_distance_km": 455.4,
    "latitude": 35.01694428401771,
    "longitude": 136.05864282962804,
    "is_shadow_confederation": false
  },
  {
    "rank": 4,
    "team_name": "福岡大学",
    "team_short_name": "福岡",
    "runner_name": "前原",
    "total_distance_km": 436.7,
    "latitude": 34.9466207452331,
    "longitude": 136.23695360480315,
    "is_shadow_confederation": false
  },
  {
    "rank": 5,
    "team_name": "四国大学",
    "team_short_name": "四国",
    "runner_name": "大洲",
    "total_distance_km": 420.3,
    "latitude": 34.86968340420186,
    "longitude": 136.36419516940828,
    "is_shadow_confederation": false
  },
  {
    "rank": 6,
    "team_name": "広島経済大学",
    "team_short_name": "広経",
    "runner_name": "高梁",
    "total_distance_km": 406.2,
    "latitude": 34.86730044563502,
    "longitude": 136.4899745634921,
    "is_shadow_confederation": false
  },
  {
    "rank": 7,
    "team_name": "鳥取大学",
    "team_short_name": "鳥取",
    "runner_name": "防府",
    "total_distance_km": 397.2,
    "latitude": 34.91439830451233,
    "longitude": 136.5564627866224,
    "is_shadow_confederation": false
  },
  {
    "rank": 8,
    "team_name": "名古屋大学",
    "team_short_name": "名大",
    "runner_name": "愛西",
    "total_distance_km": 394.4,
    "latitude": 34.922345864599215,
    "longitude": 136.58274808807587,
    "is_shadow_confederation": false
  },
  {
    "rank": 9,
    "team_name": "関西大学",
    "team_short_name": "関大",
    "runner_name": "柏原",
    "total_distance_km": 386.1,
    "latitude": 34.98305138213538,
    "longitude": 136.6310940027263,
    "is_shadow_confederation": false
  },
  {
    "rank": 10,
    "team_name": "立命館大学",
    "team_short_name": "立命",
    "runner_name": "米原",
    "total_distance_km": 385.8,
    "latitude": 34.985074418489724,
    "longitude": 136.6332742271382,
    "is_shadow_confederation": false
  },
  {
    "rank": 11,
    "team_name": "三重大学",
    "team_short_name": "三重",
    "runner_name": "風屋",
    "total_distance_km": 379.6,
    "latitude": 35.02770383842869,
    "longitude": 136.6716734241441,
    "is_shadow_confederation": false
  },
  {
    "rank": 12,
    "team_name": "金沢大学",
    "team_short_name": "金沢",
    "runner_name": "志賀",
    "total_distance_km": 367.8,
    "latitude": 35.11233649032866,
    "longitude": 136.72867643534116,
    "is_shadow_confederation": false
  },
  {
    "rank": 13,
    "team_name": "日本大学",
    "team_short_name": "日大",
    "runner_name": "小田原",
    "total_distance_km": 364.1,
    "latitude": 35.12150642741675,
    "longitude": 136.76770062224188,
    "is_shadow_confederation": false
  },
  {
    "rank": 14,
    "team_name": "上武大学",
    "team_short_name": "上武",
    "runner_name": "寄居",
    "total_distance_km": 362.1,
    "latitude": 35.124754656418595,
    "longitude": 136.7892194020859,
    "is_shadow_confederation": false
  },
  {
    "rank": 15,
    "team_name": "山梨学院大学",
    "team_short_name": "山学",
    "runner_name": "浜松",
    "total_distance_km": 341.5,
    "latitude": 35.062831934547816,
    "longitude": 136.97596416830564,
    "is_shadow_confederation": false
  },
  {
    "rank": 16,
    "team_name": "福島大学",
    "team_short_name": "福島",
    "runner_name": "津川",
    "total_distance_km": 314.0,
    "latitude": 34.91910354027316,
    "longitude": 137.2080936919431,
    "is_shadow_confederation": false
  },
  {
    "rank": 17,
    "team_name": "学連選抜",
    "team_short_name": "学連",
    "runner_name": "大村",
    "total_distance_km": 291.3,
    "latitude": 34.78188600763533,
    "longitude": 137.38192271908156,
    "is_shadow_confederation": false
  },
  {
    "rank": 18,
    "team_name": "東北大学",
    "team_short_name": "東北",
    "runner_name": "高畠",
    "total_distance_km": 259.7,
    "latitude": 34.683427272075726,
    "longitude": 137.6481383844192,
    "is_shadow_confederation": false
  }
]