[
  {
    "rank": 1,
    "team_name": "琉球大学",
    "team_short_name": "琉球",
    "runner_name": "久米島",
    "total_distance_km": 635.2,
    "latitude": 34.83304120130799,
    "longitude": 134.58887182237405,
    "is_shadow_confederation": false
  },
  {
    "rank": 2,
    "team_name": "鹿児島大学",
    "team_short_name": "鹿大",
    "runner_name": "西都",
    "total_distance_km": 503.7,
    "latitude": 34.88385757053934,
    "longitude": 135.73943142382623,
    "is_shadow_confederation": false
  },
  {
    "rank": 3,
    "team_name": "熊本学園大学",
    "team_short_name": "熊学",
    "runner_name": "熊本",
    "total_distance_km": 491.7,
    "latitude": 34.9849861709744,
    "longitude": 135.75341700388475,
    "is_shadow_confederation": false
  },
  {
    "rank": 4,
    "team_name": "福岡大学",
    "team_short_name": "福岡",
    "runner_name": "前原",
    "total_distance_km": 469.2,
    "latitude": 34.98749548671669,
    "longitude": 135.9306666223427,
    "is_shadow_confederation": false
  },
  {
    "rank": 5,
    "team_name": "四国大学",
    "team_short_name": "四国",
    "runner_name": "大洲",
    "total_distance_km": 433.2,
    "latitude": 34.93829270071331,
    "longitude": 136.27302930662898,
    "is_shadow_confederation": false
  },
  {
    "rank": 6,
    "team_name": "名古屋大学",
    "team_short_name": "名大",
    "runner_name": "多治見",
    "total_distance_km": 431.1,
    "latitude": 34.93061757209945,
    "longitude": 136.29291209486703,
    "is_shadow_confederation": false
  },
  {
    "rank": 7,
    "team_name": "広島経済大学",
    "team_short_name": "広経",
    "runner_name": "高梁",
    "total_distance_km": 420.2,
    "latitude": 34.86925434060745,
    "longitude": 136.36511361162908,
    "is_shadow_confederation": false
  },
  {
    "rank": 8,
    "team_name": "上武大学",
    "team_short_name": "上武",
    "runner_name": "桐生",
    "total_distance_km": 417.9,
    "latitude": 34.857041006469565,
    "longitude": 136.37818571658656,
    "is_shadow_confederation": false
  },
  {
    "rank": 9,
    "team_name": "日本大学",
    "team_short_name": "日大",
    "runner_name": "牛久",
    "total_distance_km": 417.3,
    "latitude": 34.85528236444779,
    "longitude": 136.38423383577336,
    "is_shadow_confederation": false
  },
  {
    "rank": 10,
    "team_name": "三重大学",
    "team_short_name": "三重",
    "runner_name": "風屋",
    "total_distance_km": 410.2,
    "latitude": 34.85220574047538,
    "longitude": 136.45543797684505,
    "is_shadow_confederation": false
  },
  {
    "rank": 11,
    "team_name": "鳥取大学",
    "team_short_name": "鳥取",
    "runner_name": "防府",
    "total_distance_km": 408.9,
    "latitude": 34.85174191572572,
    "longitude": 136.4689930613961,
    "is_shadow_confederation": false
  },
  {
    "rank": 12,
    "team_name": "関西大学",
    "team_short_name": "関大",
    "runner_name": "柏原",
    "total_distance_km": 404.2,
    "latitude": 34.87716986427196,
    "longitude": 136.50560332647663,
    "is_shadow_confederation": false
  },
  {
    "rank": 13,
    "team_name": "立命館大学",
    "team_short_name": "立命",
    "runner_name": "米原",
    "total_distance_km": 388.4,
    "latitude": 34.96414978765099,
    "longitude": 136.6217268110577,
    "is_shadow_confederation": false
  },
  {
    "rank": 14,
    "team_name": "山梨学院大学",
    "team_short_name": "山学",
    "runner_name": "浜松",
    "total_distance_km": 369.1,
    "latitude": 35.10686293649033,
    "longitude": 136.71627847744938,
    "is_shadow_confederation": false
  },
  {
    "rank": 15,
    "team_name": "福島大学",
    "team_short_name": "福島",
    "runner_name": "長岡",
    "total_distance_km": 358.3,
    "latitude": 35.12515414367613,
    "longitude": 136.83056556120616,
    "is_shadow_confederation": false
  },
  {
    "rank": 16,
    "team_name": "金沢大学",
    "team_short_name": "金沢",
    "runner_name": "志賀",
    "total_distance_km": 330.0,
    "latitude": 34.996709918471126,
    "longitude": 137.06900317513654,
    "is_shadow_confederation": false
  },
  {
    "rank": 17,
    "team_name": "東北大学",
    "team_short_name": "東北",
    "runner_name": "高畠",
    "total_distance_km": 283.2,
    "latitude": 34.725845975301915,
    "longitude": 137.42850892044808,
    "is_shadow_confederation": false
  },
  {
    "rank": 18,
    "team_name": "学連選抜",
    "team_short_name": "学連",
    "runner_name": "新潟",
    "total_distance_km": 177.6,
    "latitude": 34.96223912914473,
    "longitude": 138.37585234887825,
    "is_shadow_confederation": false
  },
  {
    "rank": null,
    "team_name": "区間記録連合",
    "team_short_name": "区間記録",
    "runner_name": "勝沼",
    "total_distance_km": 694.4,
    "latitude": 34.70225399510632,
    "longitude": 134.03099186136012,
    "is_shadow_confederation": true
  }
]