[
  {
    "rank": 1,
    "team_name": "福岡大学",
    "team_short_name": "福岡",
    "runner_name": "久留米",
    "total_distance_km": 112.0,
    "latitude": 35.136994012371126,
    "longitude": 138.95967793352614,
    "is_shadow_confederation": false
  },
  {
    "rank": 2,
    "team_name": "琉球大学",
    "team_short_name": "琉球",
    "runner_name": "北原",
    "total_distance_km": 111.4,
    "latitude": 35.13840156399659,
    "longitude": 138.96357317507324,
    "is_shadow_confederation": false
  },
  {
    "rank": 3,
    "team_name": "熊本学園大学",
    "team_short_name": "熊学",
    "runner_name": "甲佐",
    "total_distance_km": 110.5,
    "latitude": 35.14327983720965,
    "longitude": 138.97118266309585,
    "is_shadow_confederation": false
  },
  {
    "rank": 4,
    "team_name": "立命館大学",
    "team_short_name": "立命",
    "runner_name": "東近江",
    "total_distance_km": 109.9,
    "latitude": 35.146112434324316,
    "longitude": 138.97637989814,
    "is_shadow_confederation": false
  },
  {
    "rank": 5,
    "team_name": "四国大学",
    "team_short_name": "四国",
    "runner_name": "穴吹",
    "total_distance_km": 109.3,
    "latitude": 35.14877155217076,
    "longitude": 138.9820577006905,
    "is_shadow_confederation": false
  },
  {
    "rank": 6,
    "team_name": "名古屋大学",
    "team_short_name": "名大",
    "runner_name": "美濃加茂",
    "total_distance_km": 108.5,
    "latitude": 35.149203754597515,
    "longitude": 138.9893092997371,
    "is_shadow_confederation": false
  },
  {
    "rank": 7,
    "team_name": "鹿児島大学",
    "team_short_name": "鹿大",
    "runner_name": "東市来",
    "total_distance_km": 107.4,
    "latitude": 35.15649720371935,
    "longitude": 138.99583852053166,
    "is_shadow_confederation": false
  },
  {
    "rank": 8,
    "team_name": "金沢大学",
    "team_short_name": "金沢",
    "runner_name": "秋ヶ島",
    "total_distance_km": 106.7,
    "latitude": 35.161047866742685,
    "longitude": 138.99861681363808,
    "is_shadow_confederation": false
  },
  {
    "rank": 9,
    "team_name": "関西大学",
    "team_short_name": "関大",
    "runner_name": "福崎",
    "total_distance_km": 106.4,
    "latitude": 35.16214769226981,
    "longitude": 139.00119503306038,
    "is_shadow_confederation": false
  },
  {
    "rank": 10,
    "team_name": "三重大学",
    "team_short_name": "三重",
    "runner_name": "粥見",
    "total_distance_km": 106.0,
    "latitude": 35.16490753192993,
    "longitude": 139.00298412812225,
    "is_shadow_confederation": false
  },
  {
    "rank": 11,
    "team_name": "上武大学",
    "team_short_name": "上武",
    "runner_name": "佐野",
    "total_distance_km": 103.6,
    "latitude": 35.17436924351032,
    "longitude": 139.01147507600902,
    "is_shadow_confederation": false
  },
  {
    "rank": 12,
    "team_name": "広島経済大学",
    "team_short_name": "広経",
    "runner_name": "三次",
    "total_distance_km": 102.9,
    "latitude": 35.17820295711322,
    "longitude": 139.01439645268948,
    "is_shadow_confederation": false
  },
  {
    "rank": 13,
    "team_name": "鳥取大学",
    "team_short_name": "鳥取",
    "runner_name": "川本",
    "total_distance_km": 101.8,
    "latitude": 35.18391428106533,
    "longitude": 139.0191166670087,
    "is_shadow_confederation": false
  },
  {
    "rank": 14,
    "team_name": "日本大学",
    "team_short_name": "日大",
    "runner_name": "大子",
    "total_distance_km": 100.4,
    "latitude": 35.185250712297005,
    "longitude": 139.0320893507078,
    "is_shadow_confederation": false
  },
  {
    "rank": 15,
    "team_name": "山梨学院大学",
    "team_short_name": "山学",
    "runner_name": "長野",
    "total_distance_km": 98.6,
    "latitude": 35.192729985369795,
    "longitude": 139.0483173022222,
    "is_shadow_confederation": false
  },
  {
    "rank": 16,
    "team_name": "福島大学",
    "team_short_name": "福島",
    "runner_name": "梁川",
    "total_distance_km": 97.6,
    "latitude": 35.20016765772283,
    "longitude": 139.05357607236152,
    "is_shadow_confederation": false
  },
  {
    "rank": 17,
    "team_name": "東北大学",
    "team_short_name": "東北",
    "runner_name": "帯広",
    "total_distance_km": 69.2,
    "latitude": 35.30610373438009,
    "longitude": 139.2993963325682,
    "is_shadow_confederation": false
  },
  {
    "rank": 18,
    "team_name": "学連選抜",
    "team_short_name": "学連",
    "runner_name": "美幌",
    "total_distance_km": 48.2,
    "latitude": 35.36391715976505,
    "longitude": 139.49730697417777,
    "is_shadow_confederation": false
  }
]