[
  {
    "rank": 1,
    "team_name": "名古屋大学",
    "team_short_name": "名大",
    "runner_name": "豊田（愛知）",
    "total_distance_km": 612.9,
    "latitude": 34.790063633750265,
    "longitude": 134.7998559361078,
    "is_shadow_confederation": false
  },
  {
    "rank": 2,
    "team_name": "四国大学",
    "team_short_name": "四国",
    "runner_name": "徳島",
    "total_distance_km": 605.1,
    "latitude": 34.74557838035002,
    "longitude": 134.86383852998145,
    "is_shadow_confederation": false
  },
  {
    "rank": 3,
    "team_name": "立命館大学",
    "team_short_name": "立命",
    "runner_name": "彦根",
    "total_distance_km": 599.8,
    "latitude": 34.71068089575375,
    "longitude": 134.9021268047052,
    "is_shadow_confederation": false
  },
  {
    "rank": 4,
    "team_name": "琉球大学",
    "team_short_name": "琉球",
    "runner_name": "久米島",
    "total_distance_km": 599.6,
    "latitude": 34.70919787700152,
    "longitude": 134.90336819775084,
    "is_shadow_confederation": false
  },
  {
    "rank": 5,
    "team_name": "熊本学園大学",
    "team_short_name": "熊学",
    "runner_name": "大分",
    "total_distance_km": 599.4,
    "latitude": 34.7077148582493,
    "longitude": 134.90460959079647,
    "is_shadow_confederation": false
  },
  {
    "rank": 6,
    "team_name": "関西大学",
    "team_short_name": "関大",
    "runner_name": "豊中",
    "total_distance_km": 596.9,
    "latitude": 34.692119952901784,
    "longitude": 134.92384294826326,
    "is_shadow_confederation": false
  },
  {
    "rank": 7,
    "team_name": "福岡大学",
    "team_short_name": "福岡",
    "runner_name": "博多",
    "total_distance_km": 596.2,
    "latitude": 34.68870637713853,
    "longitude": 134.93026779893134,
    "is_shadow_confederation": false
  },
  {
    "rank": 8,
    "team_name": "広島経済大学",
    "team_short_name": "広経",
    "runner_name": "高松（香川）",
    "total_distance_km": 594.9,
    "latitude": 34.682269972796604,
    "longitude": 134.94211991388053,
    "is_shadow_confederation": false
  },
  {
    "rank": 9,
    "team_name": "日本大学",
    "team_short_name": "日大",
    "runner_name": "八王子",
    "total_distance_km": 591.4,
    "latitude": 34.660224054353165,
    "longitude": 134.9689439132627,
    "is_shadow_confederation": false
  },
  {
    "rank": 10,
    "team_name": "山梨学院大学",
    "team_short_name": "山学",
    "runner_name": "静岡",
    "total_distance_km": 589.6,
    "latitude": 34.64910517117181,
    "longitude": 134.9824996249009,
    "is_shadow_confederation": false
  },
  {
    "rank": 11,
    "team_name": "三重大学",
    "team_short_name": "三重",
    "runner_name": "新宮",
    "total_distance_km": 589.5,
    "latitude": 34.648585057283405,
    "longitude": 134.9833905599015,
    "is_shadow_confederation": false
  },
  {
    "rank": 12,
    "team_name": "鹿児島大学",
    "team_short_name": "鹿大",
    "runner_name": "笠利",
    "total_distance_km": 585.8,
    "latitude": 34.64120867217147,
    "longitude": 135.0221705946681,
    "is_shadow_confederation": false
  },
  {
    "rank": 13,
    "team_name": "上武大学",
    "team_short_name": "上武",
    "runner_name": "伊勢崎",
    "total_distance_km": 583.0,
    "latitude": 34.62808897924014,
    "longitude": 135.04665258127153,
    "is_shadow_confederation": false
  },
  {
    "rank": 14,
    "team_name": "鳥取大学",
    "team_short_name": "鳥取",
    "runner_name": "松江",
    "total_distance_km": 580.5,
    "latitude": 34.63080395484039,
    "longitude": 135.07356868680048,
    "is_shadow_confederation": false
  },
  {
    "rank": 15,
    "team_name": "金沢大学",
    "team_short_name": "金沢",
    "runner_name": "富山",
    "total_distance_km": 573.2,
    "latitude": 34.66092687050183,
    "longitude": 135.14215059936643,
    "is_shadow_confederation": false
  },
  {
    "rank": 16,
    "team_name": "福島大学",
    "team_short_name": "福島",
    "runner_name": "浪江",
    "total_distance_km": 561.8,
    "latitude": 34.713822136601024,
    "longitude": 135.24481638500762,
    "is_shadow_confederation": false
  },
  {
    "rank": 17,
    "team_name": "学連選抜",
    "team_short_name": "学連",
    "runner_name": "久世",
    "total_distance_km": 538.6,
    "latitude": 34.69396199671666,
    "longitude": 135.47644632892633,
    "is_shadow_confederation": false
  },
  {
    "rank": 18,
    "team_name": "東北大学",
    "team_short_name": "東北",
    "runner_name": "一関",
    "total_distance_km": 509.7,
    "latitude": 34.84257655743519,
    "longitude": 135.69931151238302,
    "is_shadow_confederation": false
  },
  {
    "rank": null,
    "team_name": "区間記録連合",
    "team_short_name": "区間記録",
    "runner_name": "勝沼",
    "total_distance_km": 623.2,
    "latitude": 34.83112211152772,
    "longitude": 134.7027240532772,
    "is_shadow_confederation": true
  }
]