[
  {
    "rank": 1,
    "team_name": "名古屋大学",
    "team_short_name": "名大",
    "runner_name": "多治見",
    "total_distance_km": 500.2,
    "latitude": 34.91444301467609,
    "longitude": 135.74445470411231,
    "is_shadow_confederation": false
  },
  {
    "rank": 2,
    "team_name": "四国大学",
    "team_short_name": "四国",
    "runner_name": "大洲",
    "total_distance_km": 497.8,
    "latitude": 34.936070453046305,
    "longitude": 135.74507612527384,
    "is_shadow_confederation": false
  },
  {
    "rank": 3,
    "team_name": "琉球大学",
    "team_short_name": "琉球",
    "runner_name": "波照間",
    "total_distance_km": 496.5,
    "latitude": 34.94778491299612,
    "longitude": 135.74543008525978,
    "is_shadow_confederation": false
  },
  {
    "rank": 4,
    "team_name": "福岡大学",
    "team_short_name": "福岡",
    "runner_name": "前原",
    "total_distance_km": 495.9,
    "latitude": 34.95319158681911,
    "longitude": 135.74559345140716,
    "is_shadow_confederation": false
  },
  {
    "rank": 5,
    "team_name": "熊本学園大学",
    "team_short_name": "熊学",
    "runner_name": "熊本",
    "total_distance_km": 494.8,
    "latitude": 34.96310382216126,
    "longitude": 135.74589295601066,
    "is_shadow_confederation": false
  },
  {
    "rank": 6,
    "team_name": "立命館大学",
    "team_short_name": "立命",
    "runner_name": "舞鶴",
    "total_distance_km": 490.8,
    "latitude": 34.99301462175654,
    "longitude": 135.7527011961732,
    "is_shadow_confederation": false
  },
  {
    "rank": 7,
    "team_name": "関西大学",
    "team_short_name": "関大",
    "runner_name": "枚方",
    "total_distance_km": 488.8,
    "latitude": 34.99920858347362,
    "longitude": 135.76771790507115,
    "is_shadow_confederation": false
  },
  {
    "rank": 8,
    "team_name": "広島経済大学",
    "team_short_name": "広経",
    "runner_name": "高梁",
    "total_distance_km": 486.0,
    "latitude": 35.00939155706311,
    "longitude": 135.78785565083734,
    "is_shadow_confederation": false
  },
  {
    "rank": 9,
    "team_name": "日本大学",
    "team_short_name": "日大",
    "runner_name": "牛久",
    "total_distance_km": 485.6,
    "latitude": 35.00718813720893,
    "longitude": 135.7904850677235,
    "is_shadow_confederation": false
  },
  {
    "rank": 10,
    "team_name": "鳥取大学",
    "team_short_name": "鳥取",
    "runner_name": "境",
    "total_distance_km": 482.7,
    "latitude": 34.98984529761744,
    "longitude": 135.81083542318666,
    "is_shadow_confederation": false
  },
  {
    "rank": 11,
    "team_name": "鹿児島大学",
    "team_short_name": "鹿大",
    "runner_name": "西都",
    "total_distance_km": 480.6,
    "latitude": 34.99195812150311,
    "longitude": 135.83323865756486,
    "is_shadow_confederation": false
  },
  {
    "rank": 12,
    "team_name": "三重大学",
    "team_short_name": "三重",
    "runner_name": "奈良",
    "total_distance_km": 480.2,
    "latitude": 34.99129139223069,
    "longitude": 135.8375208261131,
    "is_shadow_confederation": false
  },
  {
    "rank": 13,
    "team_name": "山梨学院大学",
    "team_short_name": "山学",
    "runner_name": "甲府",
    "total_distance_km": 477.8,
    "latitude": 34.99812439314152,
    "longitude": 135.857714852443,
    "is_shadow_confederation": false
  },
  {
    "rank": 14,
    "team_name": "上武大学",
    "team_short_name": "上武",
    "runner_name": "桐生",
    "total_distance_km": 475.1,
    "latitude": 34.99692396346545,
    "longitude": 135.8825342168175,
    "is_shadow_confederation": false
  },
  {
    "rank": 15,
    "team_name": "金沢大学",
    "team_short_name": "金沢",
    "runner_name": "福井",
    "total_distance_km": 471.6,
    "latitude": 34.978104820540864,
    "longitude": 135.90797649257763,
    "is_shadow_confederation": false
  },
  {
    "rank": 16,
    "team_name": "福島大学",
    "team_short_name": "福島",
    "runner_name": "福島",
    "total_distance_km": 460.4,
    "latitude": 35.03029030867478,
    "longitude": 136.00809279166566,
    "is_shadow_confederation": false
  },
  {
    "rank": 17,
    "team_name": "学連選抜",
    "team_short_name": "学連",
    "runner_name": "久世",
    "total_distance_km": 436.3,
    "latitude": 34.94561925309408,
    "longitude": 136.2411534536511,
    "is_shadow_confederation": false
  },
  {
    "rank": 18,
    "team_name": "東北大学",
    "team_short_name": "東北",
    "runner_name": "大館",
    "total_distance_km": 413.5,
    "latitude": 34.85733497972286,
    "longitude": 136.42212519354857,
    "is_shadow_confederation": false
  },
  {
    "rank": null,
    "team_name": "区間記録連合",
    "team_short_name": "区間記録",
    "runner_name": "桐生",
    "total_distance_km": 528.8,
    "latitude": 34.728878855849565,
    "longitude": 135.55151069425492,
    "is_shadow_confederation": true
  }
]