[
  {
    "rank": 1,
    "team_name": "琉球大学",
    "team_short_name": "琉球",
    "runner_name": "大原",
    "total_distance_km": 906.1,
    "latitude": 34.17161685764695,
    "longitude": 132.21689873287423,
    "is_shadow_confederation": false
  },
  {
    "rank": 2,
    "team_name": "鹿児島大学",
    "team_short_name": "鹿大",
    "runner_name": "鹿児島",
    "total_distance_km": 735.2,
    "latitude": 34.547505176573914,
    "longitude": 133.6538594408362,
    "is_shadow_confederation": false
  },
  {
    "rank": 3,
    "team_name": "熊本学園大学",
    "team_short_name": "熊学",
    "runner_name": "犬飼",
    "total_distance_km": 707.0,
    "latitude": 34.6561479254848,
    "longitude": 133.91322081844154,
    "is_shadow_confederation": false
  },
  {
    "rank": 4,
    "team_name": "福岡大学",
    "team_short_name": "福岡",
    "runner_name": "口之津",
    "total_distance_km": 680.2,
    "latitude": 34.74118357610396,
    "longitude": 134.17051856966225,
    "is_shadow_confederation": false
  },
  {
    "rank": 5,
    "team_name": "四国大学",
    "team_short_name": "四国",
    "runner_name": "徳島",
    "total_distance_km": 645.0,
    "latitude": 34.81930719942235,
    "longitude": 134.48495623070377,
    "is_shadow_confederation": false
  },
  {
    "rank": 6,
    "team_name": "名古屋大学",
    "team_short_name": "名大",
    "runner_name": "豊田（愛知）",
    "total_distance_km": 641.0,
    "latitude": 34.826844410840486,
    "longitude": 134.5268540033731,
    "is_shadow_confederation": false
  },
  {
    "rank": 7,
    "team_name": "日本大学",
    "team_short_name": "日大",
    "runner_name": "八王子",
    "total_distance_km": 614.3,
    "latitude": 34.794704323856344,
    "longitude": 134.78563027778657,
    "is_shadow_confederation": false
  },
  {
    "rank": 8,
    "team_name": "上武大学",
    "team_short_name": "上武",
    "runner_name": "伊勢崎",
    "total_distance_km": 612.5,
    "latitude": 34.78734664265161,
    "longitude": 134.80255722822812,
    "is_shadow_confederation": false
  },
  {
    "rank": 9,
    "team_name": "広島経済大学",
    "team_short_name": "広経",
    "runner_name": "高松（香川）",
    "total_distance_km": 606.1,
    "latitude": 34.75141672181788,
    "longitude": 134.85552129046877,
    "is_shadow_confederation": false
  },
  {
    "rank": 10,
    "team_name": "三重大学",
    "team_short_name": "三重",
    "runner_name": "新宮",
    "total_distance_km": 604.8,
    "latitude": 34.743670442058296,
    "longitude": 134.86616021048258,
    "is_shadow_confederation": false
  },
  {
    "rank": 11,
    "team_name": "関西大学",
    "team_short_name": "関大",
    "runner_name": "豊中",
    "total_distance_km": 594.5,
    "latitude": 34.68017367115744,
    "longitude": 134.9456711396608,
    "is_shadow_confederation": false
  },
  {
    "rank": 12,
    "team_name": "鳥取大学",
    "team_short_name": "鳥取",
    "runner_name": "松江",
    "total_distance_km": 592.4,
    "latitude": 34.66682681423054,
    "longitude": 134.96154502726358,
    "is_shadow_confederation": false
  },
  {
    "rank": 13,
    "team_name": "山梨学院大学",
    "team_short_name": "山学",
    "runner_name": "静岡",
    "total_distance_km": 591.1,
    "latitude": 34.658392726623816,
    "longitude": 134.97135208381522,
    "is_shadow_confederation": false
  },
  {
    "rank": 14,
    "team_name": "立命館大学",
    "team_short_name": "立命",
    "runner_name": "彦根",
    "total_distance_km": 564.6,
    "latitude": 34.70291163135328,
    "longitude": 135.21885243056795,
    "is_shadow_confederation": false
  },
  {
    "rank": 15,
    "team_name": "福島大学",
    "team_short_name": "福島",
    "runner_name": "福島",
    "total_distance_km": 527.9,
    "latitude": 34.73443370636304,
    "longitude": 135.55867368239836,
    "is_shadow_confederation": false
  },
  {
    "rank": 16,
    "team_name": "金沢大学",
    "team_short_name": "金沢",
    "runner_name": "福井",
    "total_distance_km": 509.0,
    "latitude": 34.848394461969626,
    "longitude": 135.70225800392595,
    "is_shadow_confederation": false
  },
  {
    "rank": 17,
    "team_name": "東北大学",
    "team_short_name": "東北",
    "runner_name": "一関",
    "total_distance_km": 419.2,
    "latitude": 34.866320358207254,
    "longitude": 136.37290001952755,
    "is_shadow_confederation": false
  },
  {
    "rank": 18,
    "team_name": "学連選抜",
    "team_short_name": "学連",
    "runner_name": "上",
    "total_distance_km": 358.0,
    "latitude": 35.124189696327115,
    "longitude": 136.83362588437282,
    "is_shadow_confederation": false
  },
  {
    "rank": null,
    "team_name": "区間記録連合",
    "team_short_name": "区間記録",
    "runner_name": "豊中",
    "total_distance_km": 927.2,
    "latitude": 34.090671940592884,
    "longitude": 132.03130952734858,
    "is_shadow_confederation": true
  }
]