[
  {
    "rank": 1,
    "team_name": "琉球大学",
    "team_short_name": "琉球",
    "runner_name": "西表島",
    "total_distance_km": 863.3,
    "latitude": 34.37570096573086,
    "longitude": 132.4972549630894,
    "is_shadow_confederation": false
  },
  {
    "rank": 2,
    "team_name": "鹿児島大学",
    "team_short_name": "鹿大",
    "runner_name": "鹿児島",
    "total_distance_km": 738.7,
    "latitude": 34.53580404918405,
    "longitude": 133.62012451338165,
    "is_shadow_confederation": false
  },
  {
    "rank": 3,
    "team_name": "熊本学園大学",
    "team_short_name": "熊学",
    "runner_name": "犬飼",
    "total_distance_km": 715.0,
    "latitude": 34.641100636786014,
    "longitude": 133.8308456782254,
    "is_shadow_confederation": false
  },
  {
    "rank": 4,
    "team_name": "福岡大学",
    "team_short_name": "福岡",
    "runner_name": "口之津",
    "total_distance_km": 696.6,
    "latitude": 34.69265789628647,
    "longitude": 134.01017907867546,
    "is_shadow_confederation": false
  },
  {
    "rank": 5,
    "team_name": "四国大学",
    "team_short_name": "四国",
    "runner_name": "新居浜",
    "total_distance_km": 660.9,
    "latitude": 34.84313601691564,
    "longitude": 134.32598485942435,
    "is_shadow_confederation": false
  },
  {
    "rank": 6,
    "team_name": "広島経済大学",
    "team_short_name": "広経",
    "runner_name": "高松（香川）",
    "total_distance_km": 641.5,
    "latitude": 34.82596448391232,
    "longitude": 134.52149356739596,
    "is_shadow_confederation": false
  },
  {
    "rank": 7,
    "team_name": "鳥取大学",
    "team_short_name": "鳥取",
    "runner_name": "松江",
    "total_distance_km": 625.2,
    "latitude": 34.83506819240656,
    "longitude": 134.68144095768076,
    "is_shadow_confederation": false
  },
  {
    "rank": 8,
    "team_name": "名古屋大学",
    "team_short_name": "名大",
    "runner_name": "豊田（愛知）",
    "total_distance_km": 624.8,
    "latitude": 34.83430040242085,
    "longitude": 134.68571358423515,
    "is_shadow_confederation": false
  },
  {
    "rank": 9,
    "team_name": "関西大学",
    "team_short_name": "関大",
    "runner_name": "豊中",
    "total_distance_km": 624.6,
    "latitude": 34.833916507428,
    "longitude": 134.6878498975123,
    "is_shadow_confederation": false
  },
  {
    "rank": 10,
    "team_name": "三重大学",
    "team_short_name": "三重",
    "runner_name": "新宮",
    "total_distance_km": 614.7,
    "latitude": 34.79499690878487,
    "longitude": 134.78132052474817,
    "is_shadow_confederation": false
  },
  {
    "rank": 11,
    "team_name": "立命館大学",
    "team_short_name": "立命",
    "runner_name": "彦根",
    "total_distance_km": 607.2,
    "latitude": 34.758175694722766,
    "longitude": 134.84676090214862,
    "is_shadow_confederation": false
  },
  {
    "rank": 12,
    "team_name": "日本大学",
    "team_short_name": "日大",
    "runner_name": "八王子",
    "total_distance_km": 590.0,
    "latitude": 34.651185626725415,
    "longitude": 134.9789358848985,
    "is_shadow_confederation": false
  },
  {
    "rank": 13,
    "team_name": "上武大学",
    "team_short_name": "上武",
    "runner_name": "伊勢崎",
    "total_distance_km": 587.0,
    "latitude": 34.645560828060454,
    "longitude": 135.010260014125,
    "is_shadow_confederation": false
  },
  {
    "rank": 14,
    "team_name": "金沢大学",
    "team_short_name": "金沢",
    "runner_name": "富山",
    "total_distance_km": 584.3,
    "latitude": 34.6320750244338,
    "longitude": 135.03388438467215,
    "is_shadow_confederation": false
  },
  {
    "rank": 15,
    "team_name": "山梨学院大学",
    "team_short_name": "山学",
    "runner_name": "静岡",
    "total_distance_km": 567.5,
    "latitude": 34.69126091601042,
    "longitude": 135.19068710885085,
    "is_shadow_confederation": false
  },
  {
    "rank": 16,
    "team_name": "学連選抜",
    "team_short_name": "学連",
    "runner_name": "久世",
    "total_distance_km": 522.7,
    "latitude": 34.76632652893679,
    "longitude": 135.59993256510904,
    "is_shadow_confederation": false
  },
  {
    "rank": 17,
    "team_name": "福島大学",
    "team_short_name": "福島",
    "runner_name": "福島",
    "total_distance_km": 511.1,
    "latitude": 34.83229051112797,
    "longitude": 135.6904440674807,
    "is_shadow_confederation": false
  },
  {
    "rank": 18,
    "team_name": "東北大学",
    "team_short_name": "東北",
    "runner_name": "一関",
    "total_distance_km": 436.7,
    "latitude": 34.9466207452331,
    "longitude": 136.23695360480315,
    "is_shadow_confederation": false
  }
]