[
  {
    "rank": 1,
    "team_name": "琉球大学",
    "team_short_name": "琉球",
    "runner_name": "大原",
    "total_distance_km": 925.4,
    "latitude": 34.09260657308647,
    "longitude": 132.05067196978,
    "is_shadow_confederation": false
  },
  {
    "rank": 2,
    "team_name": "名古屋大学",
    "team_short_name": "名大",
    "runner_name": "揖斐川",
    "total_distance_km": 904.9,
    "latitude": 34.17680003763029,
    "longitude": 132.22804099539792,
    "is_shadow_confederation": false
  },
  {
    "rank": 3,
    "team_name": "福岡大学",
    "team_short_name": "福岡",
    "runner_name": "佐賀（佐賀）",
    "total_distance_km": 900.6,
    "latitude": 34.213259286355644,
    "longitude": 132.22646927805533,
    "is_shadow_confederation": false
  },
  {
    "rank": 4,
    "team_name": "鹿児島大学",
    "team_short_name": "鹿大",
    "runner_name": "喜入",
    "total_distance_km": 900.5,
    "latitude": 34.214137158619586,
    "longitude": 132.22622246198725,
    "is_shadow_confederation": false
  },
  {
    "rank": 5,
    "team_name": "熊本学園大学",
    "team_short_name": "熊学",
    "runner_name": "菊池",
    "total_distance_km": 892.7,
    "latitude": 34.27020092384631,
    "longitude": 132.2544488371816,
    "is_shadow_confederation": false
  },
  {
    "rank": 6,
    "team_name": "四国大学",
    "team_short_name": "四国",
    "runner_name": "西条",
    "total_distance_km": 891.2,
    "latitude": 34.280634965234256,
    "longitude": 132.26424970408993,
    "is_shadow_confederation": false
  },
  {
    "rank": 7,
    "team_name": "関西大学",
    "team_short_name": "関大",
    "runner_name": "西脇",
    "total_distance_km": 889.8,
    "latitude": 34.28728184308778,
    "longitude": 132.27627278197284,
    "is_shadow_confederation": false
  },
  {
    "rank": 8,
    "team_name": "立命館大学",
    "team_short_name": "立命",
    "runner_name": "園部",
    "total_distance_km": 883.2,
    "latitude": 34.331446136575806,
    "longitude": 132.3200205593975,
    "is_shadow_confederation": false
  },
  {
    "rank": 9,
    "team_name": "広島経済大学",
    "team_short_name": "広経",
    "runner_name": "滝宮",
    "total_distance_km": 882.2,
    "latitude": 34.340278240134325,
    "longitude": 132.32003447483888,
    "is_shadow_confederation": false
  },
  {
    "rank": 10,
    "team_name": "日本大学",
    "team_short_name": "日大",
    "runner_name": "海老名",
    "total_distance_km": 876.8,
    "latitude": 34.36555282237471,
    "longitude": 132.36580613633154,
    "is_shadow_confederation": false
  },
  {
    "rank": 11,
    "team_name": "山梨学院大学",
    "team_short_name": "山学",
    "runner_name": "佐久間",
    "total_distance_km": 873.1,
    "latitude": 34.37844253891631,
    "longitude": 132.4023304117402,
    "is_shadow_confederation": false
  },
  {
    "rank": 12,
    "team_name": "三重大学",
    "team_short_name": "三重",
    "runner_name": "上野",
    "total_distance_km": 870.6,
    "latitude": 34.3914725617564,
    "longitude": 132.4236027712421,
    "is_shadow_confederation": false
  },
  {
    "rank": 13,
    "team_name": "上武大学",
    "team_short_name": "上武",
    "runner_name": "前橋",
    "total_distance_km": 863.8,
    "latitude": 34.37816751724807,
    "longitude": 132.49282285779094,
    "is_shadow_confederation": false
  },
  {
    "rank": 14,
    "team_name": "鳥取大学",
    "team_short_name": "鳥取",
    "runner_name": "玖珂",
    "total_distance_km": 861.7,
    "latitude": 34.36924614003935,
    "longitude": 132.50920124971594,
    "is_shadow_confederation": false
  },
  {
    "rank": 15,
    "team_name": "金沢大学",
    "team_short_name": "金沢",
    "runner_name": "小松",
    "total_distance_km": 850.2,
    "latitude": 34.421307640159974,
    "longitude": 132.59828375523608,
    "is_shadow_confederation": false
  },
  {
    "rank": 16,
    "team_name": "学連選抜",
    "team_short_name": "学連",
    "runner_name": "飯塚",
    "total_distance_km": 834.5,
    "latitude": 34.41464206347628,
    "longitude": 132.73494486388822,
    "is_shadow_confederation": false
  },
  {
    "rank": 17,
    "team_name": "福島大学",
    "team_short_name": "福島",
    "runner_name": "喜多方",
    "total_distance_km": 829.8,
    "latitude": 34.40022866548359,
    "longitude": 132.7787105145211,
    "is_shadow_confederation": false
  },
  {
    "rank": 18,
    "team_name": "東北大学",
    "team_short_name": "東北",
    "runner_name": "東根",
    "total_distance_km": 763.6,
    "latitude": 34.48778856652246,
    "longitude": 133.37919012196878,
    "is_shadow_confederation": false
  },
  {
    "rank": null,
    "team_name": "区間記録連合",
    "team_short_name": "区間記録",
    "runner_name": "豊中",
    "total_distance_km": 937.0,
    "latitude": 34.04364760772707,
    "longitude": 131.95466134372555,
    "is_shadow_confederation": true
  }
]