[
  {
    "rank": 1,
    "team_name": "琉球大学",
    "team_short_name": "琉球",
    "runner_name": "那覇",
    "total_distance_km": 693.2,
    "latitude": 34.70380621092375,
    "longitude": 134.0436452529806,
    "is_shadow_confederation": false
  },
  {
    "rank": 2,
    "team_name": "鹿児島大学",
    "team_short_name": "鹿大",
    "runner_name": "笠利",
    "total_distance_km": 597.2,
    "latitude": 34.693582913943175,
    "longitude": 134.9210894408341,
    "is_shadow_confederation": false
  },
  {
    "rank": 3,
    "team_name": "熊本学園大学",
    "team_short_name": "熊学",
    "runner_name": "大分",
    "total_distance_km": 591.3,
    "latitude": 34.65961361177671,
    "longitude": 134.9697466367802,
    "is_shadow_confederation": false
  },
  {
    "rank": 4,
    "team_name": "福岡大学",
    "team_short_name": "福岡",
    "runner_name": "博多",
    "total_distance_km": 562.2,
    "latitude": 34.712420865509436,
    "longitude": 135.24079311278658,
    "is_shadow_confederation": false
  },
  {
    "rank": 5,
    "team_name": "四国大学",
    "team_short_name": "四国",
    "runner_name": "徳島",
    "total_distance_km": 541.2,
    "latitude": 34.709727202365414,
    "longitude": 135.45648200930455,
    "is_shadow_confederation": false
  },
  {
    "rank": 6,
    "team_name": "広島経済大学",
    "team_short_name": "広経",
    "runner_name": "高梁",
    "total_distance_km": 516.9,
    "latitude": 34.80249027466872,
    "longitude": 135.64005315742392,
    "is_shadow_confederation": false
  },
  {
    "rank": 7,
    "team_name": "名古屋大学",
    "team_short_name": "名大",
    "runner_name": "多治見",
    "total_distance_km": 509.6,
    "latitude": 34.84338833963731,
    "longitude": 135.69977507461903,
    "is_shadow_confederation": false
  },
  {
    "rank": 8,
    "team_name": "鳥取大学",
    "team_short_name": "鳥取",
    "runner_name": "境",
    "total_distance_km": 506.3,
    "latitude": 34.86478766304238,
    "longitude": 135.723253522154,
    "is_shadow_confederation": false
  },
  {
    "rank": 9,
    "team_name": "関西大学",
    "team_short_name": "関大",
    "runner_name": "枚方",
    "total_distance_km": 506.2,
    "latitude": 34.86532895808881,
    "longitude": 135.72412797182608,
    "is_shadow_confederation": false
  },
  {
    "rank": 10,
    "team_name": "立命館大学",
    "team_short_name": "立命",
    "runner_name": "舞鶴",
    "total_distance_km": 493.4,
    "latitude": 34.975714245205545,
    "longitude": 135.74615007784652,
    "is_shadow_confederation": false
  },
  {
    "rank": 11,
    "team_name": "三重大学",
    "team_short_name": "三重",
    "runner_name": "奈良",
    "total_distance_km": 492.4,
    "latitude": 34.9794405214653,
    "longitude": 135.75275477236514,
    "is_shadow_confederation": false
  },
  {
    "rank": 12,
    "team_name": "日本大学",
    "team_short_name": "日大",
    "runner_name": "牛久",
    "total_distance_km": 480.3,
    "latitude": 34.99153979865011,
    "longitude": 135.8364679216308,
    "is_shadow_confederation": false
  },
  {
    "rank": 13,
    "team_name": "上武大学",
    "team_short_name": "上武",
    "runner_name": "桐生",
    "total_distance_km": 473.3,
    "latitude": 34.98241018951135,
    "longitude": 135.89068582351985,
    "is_shadow_confederation": false
  },
  {
    "rank": 13,
    "team_name": "金沢大学",
    "team_short_name": "金沢",
    "runner_name": "福井",
    "total_distance_km": 473.3,
    "latitude": 34.98241018951135,
    "longitude": 135.89068582351985,
    "is_shadow_confederation": false
  },
  {
    "rank": 15,
    "team_name": "山梨学院大学",
    "team_short_name": "山学",
    "runner_name": "甲府",
    "total_distance_km": 451.6,
    "latitude": 34.99775578447453,
    "longitude": 136.093127601977,
    "is_shadow_confederation": false
  },
  {
    "rank": 16,
    "team_name": "学連選抜",
    "team_short_name": "学連",
    "runner_name": "上",
    "total_distance_km": 412.8,
    "latitude": 34.85560378201927,
    "longitude": 136.4293609436555,
    "is_shadow_confederation": false
  },
  {
    "rank": 17,
    "team_name": "福島大学",
    "team_short_name": "福島",
    "runner_name": "福島",
    "total_distance_km": 412.6,
    "latitude": 34.85609745323053,
    "longitude": 136.4313738562589,
    "is_shadow_confederation": false
  },
  {
    "rank": 18,
    "team_name": "東北大学",
    "team_short_name": "東北",
    "runner_name": "大館",
    "total_distance_km": 346.2,
    "latitude": 35.08604351963727,
    "longitude": 136.93377915838926,
    "is_shadow_confederation": false
  }
]