[
  {
    "rank": 1,
    "team_name": "琉球大学",
    "team_short_name": "琉球",
    "runner_name": "西表島",
    "total_distance_km": 792.3,
    "latitude": 34.38476512167505,
    "longitude": 133.13154648512545,
    "is_shadow_confederation": false
  },
  {
    "rank": 2,
    "team_name": "鹿児島大学",
    "team_short_name": "鹿大",
    "runner_name": "笠利",
    "total_distance_km": 647.1,
    "latitude": 34.822476518975506,
    "longitude": 134.46440975626894,
    "is_shadow_confederation": false
  },
  {
    "rank": 3,
    "team_name": "熊本学園大学",
    "team_short_name": "熊学",
    "runner_name": "大分",
    "total_distance_km": 618.7,
    "latitude": 34.813397972247266,
    "longitude": 134.74609956046197,
    "is_shadow_confederation": false
  },
  {
    "rank": 4,
    "team_name": "福岡大学",
    "team_short_name": "福岡",
    "runner_name": "博多",
    "total_distance_km": 599.5,
    "latitude": 34.70845636762541,
    "longitude": 134.90398889427365,
    "is_shadow_confederation": false
  },
  {
    "rank": 5,
    "team_name": "四国大学",
    "team_short_name": "四国",
    "runner_name": "徳島",
    "total_distance_km": 560.0,
    "latitude": 34.71888760889437,
    "longitude": 135.26332197437338,
    "is_shadow_confederation": false
  },
  {
    "rank": 6,
    "team_name": "名古屋大学",
    "team_short_name": "名大",
    "runner_name": "豊田（愛知）",
    "total_distance_km": 557.8,
    "latitude": 34.72625481705742,
    "longitude": 135.28560024804304,
    "is_shadow_confederation": false
  },
  {
    "rank": 7,
    "team_name": "日本大学",
    "team_short_name": "日大",
    "runner_name": "八王子",
    "total_distance_km": 547.4,
    "latitude": 34.727101103104566,
    "longitude": 135.39489361393706,
    "is_shadow_confederation": false
  },
  {
    "rank": 8,
    "team_name": "上武大学",
    "team_short_name": "上武",
    "runner_name": "伊勢崎",
    "total_distance_km": 547.1,
    "latitude": 34.72589077721687,
    "longitude": 135.39782269747147,
    "is_shadow_confederation": false
  },
  {
    "rank": 9,
    "team_name": "広島経済大学",
    "team_short_name": "広経",
    "runner_name": "高松（香川）",
    "total_distance_km": 545.1,
    "latitude": 34.72045761656015,
    "longitude": 135.41858880746858,
    "is_shadow_confederation": false
  },
  {
    "rank": 10,
    "team_name": "三重大学",
    "team_short_name": "三重",
    "runner_name": "奈良",
    "total_distance_km": 537.4,
    "latitude": 34.69631221596411,
    "longitude": 135.48889484442248,
    "is_shadow_confederation": false
  },
  {
    "rank": 11,
    "team_name": "鳥取大学",
    "team_short_name": "鳥取",
    "runner_name": "境",
    "total_distance_km": 536.1,
    "latitude": 34.69787637297186,
    "longitude": 135.5025309338621,
    "is_shadow_confederation": false
  },
  {
    "rank": 12,
    "team_name": "関西大学",
    "team_short_name": "関大",
    "runner_name": "枚方",
    "total_distance_km": 534.3,
    "latitude": 34.69756632062155,
    "longitude": 135.52198742101717,
    "is_shadow_confederation": false
  },
  {
    "rank": 13,
    "team_name": "立命館大学",
    "team_short_name": "立命",
    "runner_name": "舞鶴",
    "total_distance_km": 509.3,
    "latitude": 34.84589140080347,
    "longitude": 135.7010165392725,
    "is_shadow_confederation": false
  },
  {
    "rank": 14,
    "team_name": "山梨学院大学",
    "team_short_name": "山学",
    "runner_name": "甲府",
    "total_distance_km": 500.0,
    "latitude": 34.916245313484545,
    "longitude": 135.74450595976742,
    "is_shadow_confederation": false
  },
  {
    "rank": 15,
    "team_name": "福島大学",
    "team_short_name": "福島",
    "runner_name": "福島",
    "total_distance_km": 473.8,
    "latitude": 34.98630117619821,
    "longitude": 135.88838933619405,
    "is_shadow_confederation": false
  },
  {
    "rank": 16,
    "team_name": "金沢大学",
    "team_short_name": "金沢",
    "runner_name": "福井",
    "total_distance_km": 433.4,
    "latitude": 34.93805260919775,
    "longitude": 136.27086421686917,
    "is_shadow_confederation": false
  },
  {
    "rank": 17,
    "team_name": "東北大学",
    "team_short_name": "東北",
    "runner_name": "大館",
    "total_distance_km": 375.0,
    "latitude": 35.0661964266402,
    "longitude": 136.68643689725158,
    "is_shadow_confederation": false
  },
  {
    "rank": 18,
    "team_name": "学連選抜",
    "team_short_name": "学連",
    "runner_name": "大村",
    "total_distance_km": 293.4,
    "latitude": 34.79670900439033,
    "longitude": 137.367653731045,
    "is_shadow_confederation": false
  },
  {
    "rank": null,
    "team_name": "区間記録連合",
    "team_short_name": "区間記録",
    "runner_name": "西脇",
    "total_distance_km": 817.0,
    "latitude": 34.390546281311764,
    "longitude": 132.90280821528657,
    "is_shadow_confederation": true
  }
]