[
  {
    "rank": 1,
    "team_name": "琉球大学",
    "team_short_name": "琉球",
    "runner_name": "石垣島",
    "total_distance_km": 1053.8,
    "latitude": 33.96156177695771,
    "longitude": 130.9534777669776,
    "is_shadow_confederation": false
  },
  {
    "rank": 2,
    "team_name": "鹿児島大学",
    "team_short_name": "鹿大",
    "runner_name": "指宿",
    "total_distance_km": 1016.7,
    "latitude": 34.04331886208444,
    "longitude": 131.23903956003218,
    "is_shadow_confederation": false
  },
  {
    "rank": 3,
    "team_name": "名古屋大学",
    "team_short_name": "名大",
    "runner_name": "岐阜",
    "total_distance_km": 1013.5,
    "latitude": 34.03997270353625,
    "longitude": 131.26902251392195,
    "is_shadow_confederation": false
  },
  {
    "rank": 4,
    "team_name": "福岡大学",
    "team_short_name": "福岡",
    "runner_name": "太宰府",
    "total_distance_km": 1012.4,
    "latitude": 34.04278968980726,
    "longitude": 131.2795037634231,
    "is_shadow_confederation": false
  },
  {
    "rank": 5,
    "team_name": "熊本学園大学",
    "team_short_name": "熊学",
    "runner_name": "日田",
    "total_distance_km": 1003.3,
    "latitude": 34.058336037456954,
    "longitude": 131.35791000878672,
    "is_shadow_confederation": false
  },
  {
    "rank": 6,
    "team_name": "関西大学",
    "team_short_name": "関大",
    "runner_name": "大阪",
    "total_distance_km": 999.7,
    "latitude": 34.08081242490742,
    "longitude": 131.38555309320165,
    "is_shadow_confederation": false
  },
  {
    "rank": 7,
    "team_name": "四国大学",
    "team_short_name": "四国",
    "runner_name": "中村",
    "total_distance_km": 999.2,
    "latitude": 34.084482076037595,
    "longitude": 131.38869120192595,
    "is_shadow_confederation": false
  },
  {
    "rank": 8,
    "team_name": "立命館大学",
    "team_short_name": "立命",
    "runner_name": "大津（滋賀）",
    "total_distance_km": 992.6,
    "latitude": 34.08237210680132,
    "longitude": 131.44503563086312,
    "is_shadow_confederation": false
  },
  {
    "rank": 9,
    "team_name": "広島経済大学",
    "team_short_name": "広経",
    "runner_name": "財田",
    "total_distance_km": 989.5,
    "latitude": 34.06802720937823,
    "longitude": 131.47264705973595,
    "is_shadow_confederation": false
  },
  {
    "rank": 10,
    "team_name": "日本大学",
    "team_short_name": "日大",
    "runner_name": "青梅",
    "total_distance_km": 981.5,
    "latitude": 34.05147811053818,
    "longitude": 131.5463687820152,
    "is_shadow_confederation": false
  },
  {
    "rank": 11,
    "team_name": "三重大学",
    "team_short_name": "三重",
    "runner_name": "桑名",
    "total_distance_km": 980.9,
    "latitude": 34.05264276267574,
    "longitude": 131.55271484081325,
    "is_shadow_confederation": false
  },
  {
    "rank": 12,
    "team_name": "山梨学院大学",
    "team_short_name": "山学",
    "runner_name": "勝沼",
    "total_distance_km": 971.6,
    "latitude": 34.05025845501618,
    "longitude": 131.64029734552864,
    "is_shadow_confederation": false
  },
  {
    "rank": 13,
    "team_name": "鳥取大学",
    "team_short_name": "鳥取",
    "runner_name": "山口（山口）",
    "total_distance_km": 965.9,
    "latitude": 34.07545328315388,
    "longitude": 131.68862627826297,
    "is_shadow_confederation": false
  },
  {
    "rank": 13,
    "team_name": "上武大学",
    "team_short_name": "上武",
    "runner_name": "鳩山",
    "total_distance_km": 965.9,
    "latitude": 34.07545328315388,
    "longitude": 131.68862627826297,
    "is_shadow_confederation": false
  },
  {
    "rank": 15,
    "team_name": "金沢大学",
    "team_short_name": "金沢",
    "runner_name": "大野（福井）",
    "total_distance_km": 949.2,
    "latitude": 34.03445959695586,
    "longitude": 131.83457584396243,
    "is_shadow_confederation": false
  },
  {
    "rank": 16,
    "team_name": "学連選抜",
    "team_short_name": "学連",
    "runner_name": "恵那",
    "total_distance_km": 936.0,
    "latitude": 34.049760659883646,
    "longitude": 131.96247403388074,
    "is_shadow_confederation": false
  },
  {
    "rank": 17,
    "team_name": "福島大学",
    "team_short_name": "福島",
    "runner_name": "新津",
    "total_distance_km": 931.3,
    "latitude": 34.079806830252274,
    "longitude": 131.99339206071292,
    "is_shadow_confederation": false
  },
  {
    "rank": 18,
    "team_name": "東北大学",
    "team_short_name": "東北",
    "runner_name": "東根",
    "total_distance_km": 859.9,
    "latitude": 34.370138747931136,
    "longitude": 132.52766274694756,
    "is_shadow_confederation": false
  },
  {
    "rank": null,
    "team_name": "区間記録連合",
    "team_short_name": "区間記録",
    "runner_name": "鳩山",
    "total_distance_km": 1073.3,
    "latitude": 33.950916,
    "longitude": 130.924104,
    "is_shadow_confederation": true
  }
]