[
  {
    "rank": 1,
    "team_name": "琉球大学",
    "team_short_name": "琉球",
    "runner_name": "仲筋",
    "total_distance_km": 180.3,
    "latitude": 34.948090215460226,
    "longitude": 138.35358486117676,
    "current_leg": 2,
    "is_shadow_confederation": false
  },
  {
    "rank": 2,
    "team_name": "名古屋大学",
    "team_short_name": "名大",
    "runner_name": "美濃",
    "total_distance_km": 169.3,
    "latitude": 35.008641669816775,
    "longitude": 138.4460720889551,
    "current_leg": 2,
    "is_shadow_confederation": false
  },
  {
    "rank": 3,
    "team_name": "福岡大学",
    "team_short_name": "福岡",
    "runner_name": "福岡",
    "total_distance_km": 163.5,
    "latitude": 35.035294884062544,
    "longitude": 138.49253768866586,
    "current_leg": 2,
    "is_shadow_confederation": false
  },
  {
    "rank": 4,
    "team_name": "熊本学園大学",
    "team_short_name": "熊学",
    "runner_name": "岱明",
    "total_distance_km": 161.8,
    "latitude": 35.04519237712789,
    "longitude": 138.50532037734683,
    "current_leg": 2,
    "is_shadow_confederation": false
  },
  {
    "rank": 5,
    "team_name": "立命館大学",
    "team_short_name": "立命",
    "runner_name": "福知山",
    "total_distance_km": 160.6,
    "latitude": 35.04851157684251,
    "longitude": 138.5172295664408,
    "current_leg": 2,
    "is_shadow_confederation": false
  },
  {
    "rank": 6,
    "team_name": "三重大学",
    "team_short_name": "三重",
    "runner_name": "五條",
    "total_distance_km": 160.4,
    "latitude": 35.04945229043055,
    "longitude": 138.51909962135397,
    "current_leg": 2,
    "is_shadow_confederation": false
  },
  {
    "rank": 7,
    "team_name": "山梨学院大学",
    "team_short_name": "山学",
    "runner_name": "南信濃",
    "total_distance_km": 160.2,
    "latitude": 35.050393004018595,
    "longitude": 138.52096967626716,
    "current_leg": 2,
    "is_shadow_confederation": false
  },
  {
    "rank": 8,
    "team_name": "金沢大学",
    "team_short_name": "金沢",
    "runner_name": "小浜",
    "total_distance_km": 159.7,
    "latitude": 35.05270609245169,
    "longitude": 138.52567340816748,
    "current_leg": 2,
    "is_shadow_confederation": false
  },
  {
    "rank": 9,
    "team_name": "四国大学",
    "team_short_name": "四国",
    "runner_name": "大三島",
    "total_distance_km": 158.8,
    "latitude": 35.05784984608263,
    "longitude": 138.5332166082503,
    "current_leg": 2,
    "is_shadow_confederation": false
  },
  {
    "rank": 10,
    "team_name": "上武大学",
    "team_short_name": "上武",
    "runner_name": "越谷",
    "total_distance_km": 158.3,
    "latitude": 35.06120965635709,
    "longitude": 138.536863227525,
    "current_leg": 2,
    "is_shadow_confederation": false
  },
  {
    "rank": 11,
    "team_name": "鹿児島大学",
    "team_short_name": "鹿大",
    "runner_name": "川内（鹿児島）",
    "total_distance_km": 157.9,
    "latitude": 35.06404484117656,
    "longitude": 138.53954223687694,
    "current_leg": 2,
    "is_shadow_confederation": false
  },
  {
    "rank": 12,
    "team_name": "関西大学",
    "team_short_name": "関大",
    "runner_name": "和田山",
    "total_distance_km": 157.0,
    "latitude": 35.07162929834417,
    "longitude": 138.5427070094052,
    "current_leg": 2,
    "is_shadow_confederation": false
  },
  {
    "rank": 13,
    "team_name": "日本大学",
    "team_short_name": "日大",
    "runner_name": "古河",
    "total_distance_km": 156.2,
    "latitude": 35.07818107463482,
    "longitude": 138.54623585588647,
    "current_leg": 2,
    "is_shadow_confederation": false
  },
  {
    "rank": 14,
    "team_name": "鳥取大学",
    "team_short_name": "鳥取",
    "runner_name": "鳥取",
    "total_distance_km": 156.0,
    "latitude": 35.079945074987606,
    "longitude": 138.54668806669667,
    "current_leg": 2,
    "is_shadow_confederation": false
  },
  {
    "rank": 15,
    "team_name": "広島経済大学",
    "team_short_name": "広経",
    "runner_name": "加計",
    "total_distance_km": 151.1,
    "latitude": 35.111806928259924,
    "longitude": 138.5759714480996,
    "current_leg": 2,
    "is_shadow_confederation": false
  },
  {
    "rank": 16,
    "team_name": "福島大学",
    "team_short_name": "福島",
    "runner_name": "石川",
    "total_distance_km": 130.6,
    "latitude": 35.12749966919352,
    "longitude": 138.78071082962757,
    "current_leg": 2,
    "is_shadow_confederation": false
  },
  {
    "rank": 17,
    "team_name": "東北大学",
    "team_short_name": "東北",
    "runner_name": "山形（山形）",
    "total_distance_km": 127.4,
    "latitude": 35.11664954850368,
    "longitude": 138.81310685820765,
    "current_leg": 2,
    "is_shadow_confederation": false
  },
  {
    "rank": 18,
    "team_name": "学連選抜",
    "team_short_name": "学連",
    "runner_name": "新潟",
    "total_distance_km": 121.1,
    "latitude": 35.10141106262722,
    "longitude": 138.8759756403273,
    "current_leg": 2,
    "is_shadow_confederation": false
  },
  {
    "rank": null,
    "team_name": "区間記録連合",
    "team_short_name": "区間記録",
    "runner_name": "佐野",
    "total_distance_km": 194.6,
    "latitude": 34.882058875284166,
    "longitude": 138.2406909645627,
    "current_leg": 2,
    "is_shadow_confederation": true
  }
]