[
  {
    "rank": 1,
    "team_name": "琉球大学",
    "team_short_name": "琉球",
    "runner_name": "名護",
    "total_distance_km": 393.4,
    "latitude": 34.92972596657415,
    "longitude": 136.58843605974127,
    "current_leg": 4,
    "is_shadow_confederation": false
  },
  {
    "rank": 2,
    "team_name": "名古屋大学",
    "team_short_name": "名大",
    "runner_name": "愛西",
    "total_distance_km": 360.6,
    "latitude": 35.12590907856207,
    "longitude": 136.80561592400215,
    "current_leg": 4,
    "is_shadow_confederation": false
  },
  {
    "rank": 3,
    "team_name": "鹿児島大学",
    "team_short_name": "鹿大",
    "runner_name": "西米良",
    "total_distance_km": 354.6,
    "latitude": 35.12493261414584,
    "longitude": 136.8708997538368,
    "current_leg": 4,
    "is_shadow_confederation": false
  },
  {
    "rank": 4,
    "team_name": "立命館大学",
    "team_short_name": "立命",
    "runner_name": "米原",
    "total_distance_km": 346.7,
    "latitude": 35.090156698760815,
    "longitude": 136.93153784030878,
    "current_leg": 4,
    "is_shadow_confederation": false
  },
  {
    "rank": 5,
    "team_name": "熊本学園大学",
    "team_short_name": "熊学",
    "runner_name": "人吉",
    "total_distance_km": 346.6,
    "latitude": 35.0893340629361,
    "longitude": 136.93198610392488,
    "current_leg": 4,
    "is_shadow_confederation": false
  },
  {
    "rank": 6,
    "team_name": "福岡大学",
    "team_short_name": "福岡",
    "runner_name": "朝倉",
    "total_distance_km": 345.4,
    "latitude": 35.08077757340767,
    "longitude": 136.93957850089,
    "current_leg": 4,
    "is_shadow_confederation": false
  },
  {
    "rank": 7,
    "team_name": "鳥取大学",
    "team_short_name": "鳥取",
    "runner_name": "防府",
    "total_distance_km": 344.4,
    "latitude": 35.076331095332954,
    "longitude": 136.9490793715447,
    "current_leg": 4,
    "is_shadow_confederation": false
  },
  {
    "rank": 8,
    "team_name": "関西大学",
    "team_short_name": "関大",
    "runner_name": "柏原",
    "total_distance_km": 339.5,
    "latitude": 35.055026314683275,
    "longitude": 136.99480555284927,
    "current_leg": 4,
    "is_shadow_confederation": false
  },
  {
    "rank": 9,
    "team_name": "金沢大学",
    "team_short_name": "金沢",
    "runner_name": "志賀",
    "total_distance_km": 338.6,
    "latitude": 35.049480542178514,
    "longitude": 137.00192540843614,
    "current_leg": 4,
    "is_shadow_confederation": false
  },
  {
    "rank": 10,
    "team_name": "日本大学",
    "team_short_name": "日大",
    "runner_name": "小田原",
    "total_distance_km": 336.9,
    "latitude": 35.03717367679408,
    "longitude": 137.0129340860921,
    "current_leg": 4,
    "is_shadow_confederation": false
  },
  {
    "rank": 11,
    "team_name": "上武大学",
    "team_short_name": "上武",
    "runner_name": "寄居",
    "total_distance_km": 335.6,
    "latitude": 35.028048091913725,
    "longitude": 137.02185941440172,
    "current_leg": 4,
    "is_shadow_confederation": false
  },
  {
    "rank": 11,
    "team_name": "四国大学",
    "team_short_name": "四国",
    "runner_name": "松山",
    "total_distance_km": 335.6,
    "latitude": 35.028048091913725,
    "longitude": 137.02185941440172,
    "current_leg": 4,
    "is_shadow_confederation": false
  },
  {
    "rank": 13,
    "team_name": "三重大学",
    "team_short_name": "三重",
    "runner_name": "風屋",
    "total_distance_km": 334.8,
    "latitude": 35.02321205903273,
    "longitude": 137.0283185663354,
    "current_leg": 4,
    "is_shadow_confederation": false
  },
  {
    "rank": 14,
    "team_name": "山梨学院大学",
    "team_short_name": "山学",
    "runner_name": "大月",
    "total_distance_km": 329.8,
    "latitude": 34.995889434008866,
    "longitude": 137.0709538644308,
    "current_leg": 4,
    "is_shadow_confederation": false
  },
  {
    "rank": 15,
    "team_name": "広島経済大学",
    "team_short_name": "広経",
    "runner_name": "府中（広島）",
    "total_distance_km": 327.0,
    "latitude": 34.98292012672026,
    "longitude": 137.09707588159068,
    "current_leg": 4,
    "is_shadow_confederation": false
  },
  {
    "rank": 16,
    "team_name": "東北大学",
    "team_short_name": "東北",
    "runner_name": "高畠",
    "total_distance_km": 318.2,
    "latitude": 34.94942348760927,
    "longitude": 137.18267929812447,
    "current_leg": 4,
    "is_shadow_confederation": false
  },
  {
    "rank": 17,
    "team_name": "福島大学",
    "team_short_name": "福島",
    "runner_name": "津川",
    "total_distance_km": 313.8,
    "latitude": 34.918015201058346,
    "longitude": 137.20980164085114,
    "current_leg": 4,
    "is_shadow_confederation": false
  },
  {
    "rank": 18,
    "team_name": "学連選抜",
    "team_short_name": "学連",
    "runner_name": "大村",
    "total_distance_km": 309.7,
    "latitude": 34.89818124672609,
    "longitude": 137.24605654847468,
    "current_leg": 3,
    "is_shadow_confederation": false
  },
  {
    "rank": null,
    "team_name": "区間記録連合",
    "team_short_name": "区間記録",
    "runner_name": "桐生",
    "total_distance_km": 405.7,
    "latitude": 34.871360832002345,
    "longitude": 136.49234364375002,
    "current_leg": 5,
    "is_shadow_confederation": true
  }
]