[
  {
    "rank": 1,
    "team_name": "琉球大学",
    "team_short_name": "琉球",
    "runner_name": "那覇",
    "total_distance_km": 668.4,
    "latitude": 34.799896161264144,
    "longitude": 134.27122532563206,
    "is_shadow_confederation": false
  },
  {
    "rank": 2,
    "team_name": "鹿児島大学",
    "team_short_name": "鹿大",
    "runner_name": "笠利",
    "total_distance_km": 575.6,
    "latitude": 34.64826082506664,
    "longitude": 135.1209639732032,
    "is_shadow_confederation": false
  },
  {
    "rank": 3,
    "team_name": "熊本学園大学",
    "team_short_name": "熊学",
    "runner_name": "大分",
    "total_distance_km": 575.3,
    "latitude": 34.64966339034618,
    "longitude": 135.12376182558572,
    "is_shadow_confederation": false
  },
  {
    "rank": 4,
    "team_name": "福岡大学",
    "team_short_name": "福岡",
    "runner_name": "博多",
    "total_distance_km": 545.8,
    "latitude": 34.72218257633028,
    "longitude": 135.41123763725886,
    "is_shadow_confederation": false
  },
  {
    "rank": 5,
    "team_name": "四国大学",
    "team_short_name": "四国",
    "runner_name": "大洲",
    "total_distance_km": 525.9,
    "latitude": 34.74677781861521,
    "longitude": 135.5745914338282,
    "is_shadow_confederation": false
  },
  {
    "rank": 6,
    "team_name": "広島経済大学",
    "team_short_name": "広経",
    "runner_name": "高梁",
    "total_distance_km": 506.9,
    "latitude": 34.861539892763794,
    "longitude": 135.71800682412152,
    "is_shadow_confederation": false
  },
  {
    "rank": 7,
    "team_name": "名古屋大学",
    "team_short_name": "名大",
    "runner_name": "多治見",
    "total_distance_km": 495.4,
    "latitude": 34.95769714833827,
    "longitude": 135.7457295898633,
    "is_shadow_confederation": false
  },
  {
    "rank": 8,
    "team_name": "鳥取大学",
    "team_short_name": "鳥取",
    "runner_name": "境",
    "total_distance_km": 493.6,
    "latitude": 34.973912184847244,
    "longitude": 135.74608841087854,
    "is_shadow_confederation": false
  },
  {
    "rank": 9,
    "team_name": "関西大学",
    "team_short_name": "関大",
    "runner_name": "枚方",
    "total_distance_km": 490.5,
    "latitude": 34.99569297299163,
    "longitude": 135.75255591886443,
    "is_shadow_confederation": false
  },
  {
    "rank": 10,
    "team_name": "立命館大学",
    "team_short_name": "立命",
    "runner_name": "舞鶴",
    "total_distance_km": 482.8,
    "latitude": 34.990040442504416,
    "longitude": 135.80983661286615,
    "is_shadow_confederation": false
  },
  {
    "rank": 11,
    "team_name": "三重大学",
    "team_short_name": "三重",
    "runner_name": "奈良",
    "total_distance_km": 476.6,
    "latitude": 35.002167898625515,
    "longitude": 135.86799289797423,
    "is_shadow_confederation": false
  },
  {
    "rank": 12,
    "team_name": "日本大学",
    "team_short_name": "日大",
    "runner_name": "牛久",
    "total_distance_km": 466.9,
    "latitude": 35.00139634915181,
    "longitude": 135.94922550331438,
    "is_shadow_confederation": false
  },
  {
    "rank": 13,
    "team_name": "上武大学",
    "team_short_name": "上武",
    "runner_name": "桐生",
    "total_distance_km": 462.7,
    "latitude": 35.022849571948264,
    "longitude": 135.984948190613,
    "is_shadow_confederation": false
  },
  {
    "rank": 14,
    "team_name": "金沢大学",
    "team_short_name": "金沢",
    "runner_name": "福井",
    "total_distance_km": 459.9,
    "latitude": 35.030995048592715,
    "longitude": 136.01350458665158,
    "is_shadow_confederation": false
  },
  {
    "rank": 15,
    "team_name": "山梨学院大学",
    "team_short_name": "山学",
    "runner_name": "甲府",
    "total_distance_km": 442.0,
    "latitude": 34.965638432878194,
    "longitude": 136.18543051538848,
    "is_shadow_confederation": false
  },
  {
    "rank": 16,
    "team_name": "福島大学",
    "team_short_name": "福島",
    "runner_name": "長岡",
    "total_distance_km": 403.7,
    "latitude": 34.877532522079385,
    "longitude": 136.5109998921177,
    "is_shadow_confederation": false
  },
  {
    "rank": 17,
    "team_name": "学連選抜",
    "team_short_name": "学連",
    "runner_name": "上",
    "total_distance_km": 396.2,
    "latitude": 34.91437073467256,
    "longitude": 136.5673245206205,
    "is_shadow_confederation": false
  },
  {
    "rank": 18,
    "team_name": "東北大学",
    "team_short_name": "東北",
    "runner_name": "大館",
    "total_distance_km": 340.9,
    "latitude": 35.060866525407285,
    "longitude": 136.98198632166165,
    "is_shadow_confederation": false
  }
]