[
  {
    "rank": 1,
    "team_name": "琉球大学",
    "team_short_name": "琉球",
    "runner_name": "石垣島",
    "total_distance_km": 1031.6,
    "latitude": 34.04418056491589,
    "longitude": 131.09271981385626,
    "is_shadow_confederation": false
  },
  {
    "rank": 2,
    "team_name": "鹿児島大学",
    "team_short_name": "鹿大",
    "runner_name": "喜入",
    "total_distance_km": 860.0,
    "latitude": 34.369823043813184,
    "longitude": 132.5266582104967,
    "is_shadow_confederation": false
  },
  {
    "rank": 3,
    "team_name": "熊本学園大学",
    "team_short_name": "熊学",
    "runner_name": "三角",
    "total_distance_km": 829.1,
    "latitude": 34.39996236007876,
    "longitude": 132.78627543139,
    "is_shadow_confederation": false
  },
  {
    "rank": 4,
    "team_name": "福岡大学",
    "team_short_name": "福岡",
    "runner_name": "大牟田",
    "total_distance_km": 811.9,
    "latitude": 34.3967088617425,
    "longitude": 132.9474115134756,
    "is_shadow_confederation": false
  },
  {
    "rank": 5,
    "team_name": "四国大学",
    "team_short_name": "四国",
    "runner_name": "江川崎",
    "total_distance_km": 770.6,
    "latitude": 34.47369952981586,
    "longitude": 133.30988620263582,
    "is_shadow_confederation": false
  },
  {
    "rank": 6,
    "team_name": "広島経済大学",
    "team_short_name": "広経",
    "runner_name": "引田",
    "total_distance_km": 754.7,
    "latitude": 34.50893573769435,
    "longitude": 133.46592238302665,
    "is_shadow_confederation": false
  },
  {
    "rank": 7,
    "team_name": "鳥取大学",
    "team_short_name": "鳥取",
    "runner_name": "米子",
    "total_distance_km": 740.1,
    "latitude": 34.53454649477501,
    "longitude": 133.60515428218497,
    "is_shadow_confederation": false
  },
  {
    "rank": 8,
    "team_name": "関西大学",
    "team_short_name": "関大",
    "runner_name": "八尾（大阪）",
    "total_distance_km": 735.9,
    "latitude": 34.5432951476896,
    "longitude": 133.6482023941422,
    "is_shadow_confederation": false
  },
  {
    "rank": 9,
    "team_name": "名古屋大学",
    "team_short_name": "名大",
    "runner_name": "名古屋",
    "total_distance_km": 734.1,
    "latitude": 34.55399497374521,
    "longitude": 133.6628812036494,
    "is_shadow_confederation": false
  },
  {
    "rank": 10,
    "team_name": "三重大学",
    "team_short_name": "三重",
    "runner_name": "津",
    "total_distance_km": 722.5,
    "latitude": 34.60111683462975,
    "longitude": 133.76733359078943,
    "is_shadow_confederation": false
  },
  {
    "rank": 11,
    "team_name": "立命館大学",
    "team_short_name": "立命",
    "runner_name": "長浜（滋賀）",
    "total_distance_km": 702.9,
    "latitude": 34.6683445689781,
    "longitude": 133.9497269360432,
    "is_shadow_confederation": false
  },
  {
    "rank": 12,
    "team_name": "上武大学",
    "team_short_name": "上武",
    "runner_name": "小山",
    "total_distance_km": 688.3,
    "latitude": 34.714176921630404,
    "longitude": 134.09292039368123,
    "is_shadow_confederation": false
  },
  {
    "rank": 13,
    "team_name": "金沢大学",
    "team_short_name": "金沢",
    "runner_name": "敦賀",
    "total_distance_km": 687.3,
    "latitude": 34.71910224005244,
    "longitude": 134.09989535969555,
    "is_shadow_confederation": false
  },
  {
    "rank": 14,
    "team_name": "日本大学",
    "team_short_name": "日大",
    "runner_name": "練馬",
    "total_distance_km": 684.6,
    "latitude": 34.7298466853877,
    "longitude": 134.12472200480494,
    "is_shadow_confederation": false
  },
  {
    "rank": 15,
    "team_name": "山梨学院大学",
    "team_short_name": "山学",
    "runner_name": "三島",
    "total_distance_km": 674.2,
    "latitude": 34.7663460099907,
    "longitude": 134.22676325924814,
    "is_shadow_confederation": false
  },
  {
    "rank": 16,
    "team_name": "学連選抜",
    "team_short_name": "学連",
    "runner_name": "多度津",
    "total_distance_km": 636.6,
    "latitude": 34.83366011538653,
    "longitude": 134.57373990928187,
    "is_shadow_confederation": false
  },
  {
    "rank": 17,
    "team_name": "福島大学",
    "team_short_name": "福島",
    "runner_name": "浪江",
    "total_distance_km": 610.2,
    "latitude": 34.776368595202776,
    "longitude": 134.82360520283342,
    "is_shadow_confederation": false
  },
  {
    "rank": 18,
    "team_name": "東北大学",
    "team_short_name": "東北",
    "runner_name": "一関",
    "total_distance_km": 515.8,
    "latitude": 34.80596376926214,
    "longitude": 135.65104817384605,
    "is_shadow_confederation": false
  }
]