[
  {
    "rank": 1,
    "team_name": "琉球大学",
    "team_short_name": "琉球",
    "runner_name": "久米島",
    "total_distance_km": 609.6,
    "latitude": 34.77265652446965,
    "longitude": 134.8278735998833,
    "is_shadow_confederation": false
  },
  {
    "rank": 2,
    "team_name": "熊本学園大学",
    "team_short_name": "熊学",
    "runner_name": "大分",
    "total_distance_km": 573.0,
    "latitude": 34.66207026598242,
    "longitude": 135.14383760494562,
    "is_shadow_confederation": false
  },
  {
    "rank": 3,
    "team_name": "福岡大学",
    "team_short_name": "福岡",
    "runner_name": "博多",
    "total_distance_km": 560.3,
    "latitude": 34.71804343417981,
    "longitude": 135.2602105246758,
    "is_shadow_confederation": false
  },
  {
    "rank": 4,
    "team_name": "立命館大学",
    "team_short_name": "立命",
    "runner_name": "彦根",
    "total_distance_km": 550.0,
    "latitude": 34.73413148457431,
    "longitude": 135.36790870640698,
    "is_shadow_confederation": false
  },
  {
    "rank": 5,
    "team_name": "鹿児島大学",
    "team_short_name": "鹿大",
    "runner_name": "笠利",
    "total_distance_km": 548.1,
    "latitude": 34.729636014788554,
    "longitude": 135.3879231329189,
    "is_shadow_confederation": false
  },
  {
    "rank": 6,
    "team_name": "関西大学",
    "team_short_name": "関大",
    "runner_name": "豊中",
    "total_distance_km": 547.4,
    "latitude": 34.727101103104566,
    "longitude": 135.39489361393706,
    "is_shadow_confederation": false
  },
  {
    "rank": 7,
    "team_name": "四国大学",
    "team_short_name": "四国",
    "runner_name": "徳島",
    "total_distance_km": 547.1,
    "latitude": 34.72589077721687,
    "longitude": 135.39782269747147,
    "is_shadow_confederation": false
  },
  {
    "rank": 8,
    "team_name": "広島経済大学",
    "team_short_name": "広経",
    "runner_name": "高松（香川）",
    "total_distance_km": 544.3,
    "latitude": 34.71949309173837,
    "longitude": 135.4271622370688,
    "is_shadow_confederation": false
  },
  {
    "rank": 9,
    "team_name": "名古屋大学",
    "team_short_name": "名大",
    "runner_name": "豊田（愛知）",
    "total_distance_km": 542.3,
    "latitude": 34.715557095591876,
    "longitude": 135.44685985182122,
    "is_shadow_confederation": false
  },
  {
    "rank": 9,
    "team_name": "鳥取大学",
    "team_short_name": "鳥取",
    "runner_name": "境",
    "total_distance_km": 542.3,
    "latitude": 34.715557095591876,
    "longitude": 135.44685985182122,
    "is_shadow_confederation": false
  },
  {
    "rank": 11,
    "team_name": "三重大学",
    "team_short_name": "三重",
    "runner_name": "奈良",
    "total_distance_km": 533.5,
    "latitude": 34.69812894271542,
    "longitude": 135.53056289591262,
    "is_shadow_confederation": false
  },
  {
    "rank": 12,
    "team_name": "山梨学院大学",
    "team_short_name": "山学",
    "runner_name": "甲府",
    "total_distance_km": 532.8,
    "latitude": 34.6996338572814,
    "longitude": 135.5379824574628,
    "is_shadow_confederation": false
  },
  {
    "rank": 13,
    "team_name": "金沢大学",
    "team_short_name": "金沢",
    "runner_name": "福井",
    "total_distance_km": 532.2,
    "latitude": 34.70019975033209,
    "longitude": 135.5444718662092,
    "is_shadow_confederation": false
  },
  {
    "rank": 14,
    "team_name": "上武大学",
    "team_short_name": "上武",
    "runner_name": "桐生",
    "total_distance_km": 530.2,
    "latitude": 34.71695253115047,
    "longitude": 135.5469251977116,
    "is_shadow_confederation": false
  },
  {
    "rank": 15,
    "team_name": "日本大学",
    "team_short_name": "日大",
    "runner_name": "牛久",
    "total_distance_km": 508.6,
    "latitude": 34.85173187685783,
    "longitude": 135.70391329013057,
    "is_shadow_confederation": false
  },
  {
    "rank": 16,
    "team_name": "福島大学",
    "team_short_name": "福島",
    "runner_name": "福島",
    "total_distance_km": 479.2,
    "latitude": 34.9917866123463,
    "longitude": 135.84800020471633,
    "is_shadow_confederation": false
  },
  {
    "rank": 17,
    "team_name": "東北大学",
    "team_short_name": "東北",
    "runner_name": "一関",
    "total_distance_km": 477.4,
    "latitude": 35.0014157917487,
    "longitude": 135.85942748626982,
    "is_shadow_confederation": false
  },
  {
    "rank": 18,
    "team_name": "学連選抜",
    "team_short_name": "学連",
    "runner_name": "久世",
    "total_distance_km": 475.8,
    "latitude": 35.00069558234284,
    "longitude": 135.876444097582,
    "is_shadow_confederation": false
  }
]