[
  {
    "rank": 1,
    "team_name": "名古屋大学",
    "team_short_name": "名大",
    "runner_name": "愛西",
    "total_distance_km": 377.4,
    "latitude": 35.04594495354034,
    "longitude": 136.67778536382096,
    "is_shadow_confederation": false
  },
  {
    "rank": 2,
    "team_name": "四国大学",
    "team_short_name": "四国",
    "runner_name": "松山",
    "total_distance_km": 369.8,
    "latitude": 35.10321542353659,
    "longitude": 136.71001352708578,
    "is_shadow_confederation": false
  },
  {
    "rank": 3,
    "team_name": "立命館大学",
    "team_short_name": "立命",
    "runner_name": "米原",
    "total_distance_km": 368.4,
    "latitude": 35.11051044944407,
    "longitude": 136.72254342781295,
    "is_shadow_confederation": false
  },
  {
    "rank": 4,
    "team_name": "日本大学",
    "team_short_name": "日大",
    "runner_name": "小田原",
    "total_distance_km": 366.0,
    "latitude": 35.11684658978551,
    "longitude": 136.74764347611946,
    "is_shadow_confederation": false
  },
  {
    "rank": 5,
    "team_name": "琉球大学",
    "team_short_name": "琉球",
    "runner_name": "名護",
    "total_distance_km": 365.8,
    "latitude": 35.11734713039164,
    "longitude": 136.74975113494293,
    "is_shadow_confederation": false
  },
  {
    "rank": 6,
    "team_name": "福岡大学",
    "team_short_name": "福岡",
    "runner_name": "朝倉",
    "total_distance_km": 365.2,
    "latitude": 35.11881511757697,
    "longitude": 136.75608624810727,
    "is_shadow_confederation": false
  },
  {
    "rank": 7,
    "team_name": "関西大学",
    "team_short_name": "関大",
    "runner_name": "柏原",
    "total_distance_km": 365.1,
    "latitude": 35.11905978210786,
    "longitude": 136.7571421003013,
    "is_shadow_confederation": false
  },
  {
    "rank": 8,
    "team_name": "熊本学園大学",
    "team_short_name": "熊学",
    "runner_name": "人吉",
    "total_distance_km": 364.2,
    "latitude": 35.12126176288586,
    "longitude": 136.7666447700478,
    "is_shadow_confederation": false
  },
  {
    "rank": 9,
    "team_name": "広島経済大学",
    "team_short_name": "広経",
    "runner_name": "大竹",
    "total_distance_km": 363.7,
    "latitude": 35.122485085540305,
    "longitude": 136.7719240310181,
    "is_shadow_confederation": false
  },
  {
    "rank": 10,
    "team_name": "上武大学",
    "team_short_name": "上武",
    "runner_name": "寄居",
    "total_distance_km": 363.0,
    "latitude": 35.12382137974455,
    "longitude": 136.7794197770192,
    "is_shadow_confederation": false
  },
  {
    "rank": 11,
    "team_name": "鳥取大学",
    "team_short_name": "鳥取",
    "runner_name": "防府",
    "total_distance_km": 362.3,
    "latitude": 35.12460073346613,
    "longitude": 136.78703319916374,
    "is_shadow_confederation": false
  },
  {
    "rank": 12,
    "team_name": "山梨学院大学",
    "team_short_name": "山学",
    "runner_name": "浜松",
    "total_distance_km": 360.6,
    "latitude": 35.12590907856207,
    "longitude": 136.80561592400215,
    "is_shadow_confederation": false
  },
  {
    "rank": 13,
    "team_name": "三重大学",
    "team_short_name": "三重",
    "runner_name": "風屋",
    "total_distance_km": 359.8,
    "latitude": 35.126381137469934,
    "longitude": 136.81436696324621,
    "is_shadow_confederation": false
  },
  {
    "rank": 14,
    "team_name": "鹿児島大学",
    "team_short_name": "鹿大",
    "runner_name": "西米良",
    "total_distance_km": 351.7,
    "latitude": 35.12394421028449,
    "longitude": 136.9024835776513,
    "is_shadow_confederation": false
  },
  {
    "rank": 15,
    "team_name": "金沢大学",
    "team_short_name": "金沢",
    "runner_name": "志賀",
    "total_distance_km": 349.0,
    "latitude": 35.10945134523866,
    "longitude": 136.9228652653446,
    "is_shadow_confederation": false
  },
  {
    "rank": 16,
    "team_name": "福島大学",
    "team_short_name": "福島",
    "runner_name": "長岡",
    "total_distance_km": 341.6,
    "latitude": 35.06321733011596,
    "longitude": 136.9749731511304,
    "is_shadow_confederation": false
  },
  {
    "rank": 17,
    "team_name": "学連選抜",
    "team_short_name": "学連",
    "runner_name": "大村",
    "total_distance_km": 309.4,
    "latitude": 34.897239173836,
    "longitude": 137.24908303113625,
    "is_shadow_confederation": false
  },
  {
    "rank": 18,
    "team_name": "東北大学",
    "team_short_name": "東北",
    "runner_name": "高畠",
    "total_distance_km": 305.9,
    "latitude": 34.87678315732335,
    "longitude": 137.2757509658526,
    "is_shadow_confederation": false
  },
  {
    "rank": null,
    "team_name": "区間記録連合",
    "team_short_name": "区間記録",
    "runner_name": "風屋",
    "total_distance_km": 395.3,
    "latitude": 34.9162178754756,
    "longitude": 136.57669726940284,
    "is_shadow_confederation": true
  }
]