[
  {
    "rank": 1,
    "team_name": "日本大学",
    "team_short_name": "日大",
    "runner_name": "古河",
    "total_distance_km": 139.7,
    "latitude": 35.14582679950675,
    "longitude": 138.68512505561264
  },
  {
    "rank": 2,
    "team_name": "上武大学",
    "team_short_name": "上武",
    "runner_name": "越谷",
    "total_distance_km": 139.5,
    "latitude": 35.14633490585771,
    "longitude": 138.68696898493178
  },
  {
    "rank": 3,
    "team_name": "名古屋大学",
    "team_short_name": "名大",
    "runner_name": "美濃",
    "total_distance_km": 139.0,
    "latitude": 35.14541452809786,
    "longitude": 138.69234024119106
  },
  {
    "rank": 4,
    "team_name": "四国大学",
    "team_short_name": "四国",
    "runner_name": "大三島",
    "total_distance_km": 137.6,
    "latitude": 35.14306703539261,
    "longitude": 138.70655193974494
  },
  {
    "rank": 5,
    "team_name": "関西大学",
    "team_short_name": "関大",
    "runner_name": "和田山",
    "total_distance_km": 137.2,
    "latitude": 35.14197772742745,
    "longitude": 138.71065491071627
  },
  {
    "rank": 6,
    "team_name": "金沢大学",
    "team_short_name": "金沢",
    "runner_name": "小浜",
    "total_distance_km": 136.4,
    "latitude": 35.140490850571325,
    "longitude": 138.7191580941142
  },
  {
    "rank": 6,
    "team_name": "立命館大学",
    "team_short_name": "立命",
    "runner_name": "福知山",
    "total_distance_km": 136.4,
    "latitude": 35.140490850571325,
    "longitude": 138.7191580941142
  },
  {
    "rank": 8,
    "team_name": "熊本学園大学",
    "team_short_name": "熊学",
    "runner_name": "岱明",
    "total_distance_km": 135.5,
    "latitude": 35.138340812991125,
    "longitude": 138.72864615017835
  },
  {
    "rank": 9,
    "team_name": "福岡大学",
    "team_short_name": "福岡",
    "runner_name": "福岡",
    "total_distance_km": 134.1,
    "latitude": 35.13569439437694,
    "longitude": 138.74364435429337
  },
  {
    "rank": 10,
    "team_name": "鳥取大学",
    "team_short_name": "鳥取",
    "runner_name": "鳥取",
    "total_distance_km": 133.1,
    "latitude": 35.13323152472436,
    "longitude": 138.75419908532922
  },
  {
    "rank": 11,
    "team_name": "三重大学",
    "team_short_name": "三重",
    "runner_name": "五條",
    "total_distance_km": 132.3,
    "latitude": 35.13146273034162,
    "longitude": 138.76270375245647
  },
  {
    "rank": 12,
    "team_name": "福島大学",
    "team_short_name": "福島",
    "runner_name": "石川",
    "total_distance_km": 132.1,
    "latitude": 35.13108546502045,
    "longitude": 138.76484953839824
  },
  {
    "rank": 13,
    "team_name": "広島経済大学",
    "team_short_name": "広経",
    "runner_name": "加計",
    "total_distance_km": 131.5,
    "latitude": 35.12975951812431,
    "longitude": 138.77122731308705
  },
  {
    "rank": 14,
    "team_name": "山梨学院大学",
    "team_short_name": "山学",
    "runner_name": "南信濃",
    "total_distance_km": 130.8,
    "latitude": 35.12800185784481,
    "longitude": 138.77860338150745
  },
  {
    "rank": 15,
    "team_name": "琉球大学",
    "team_short_name": "琉球",
    "runner_name": "北原",
    "total_distance_km": 130.1,
    "latitude": 35.12576379291831,
    "longitude": 138.78573665574115
  },
  {
    "rank": 16,
    "team_name": "鹿児島大学",
    "team_short_name": "鹿大",
    "runner_name": "川内（鹿児島）",
    "total_distance_km": 127.6,
    "latitude": 35.11745014370062,
    "longitude": 138.81114107366434
  },
  {
    "rank": 17,
    "team_name": "東北大学",
    "team_short_name": "東北",
    "runner_name": "帯広",
    "total_distance_km": 99.5,
    "latitude": 35.188419444536926,
    "longitude": 139.04088592252683
  },
  {
    "rank": 18,
    "team_name": "学連選抜",
    "team_short_name": "学連",
    "runner_name": "美幌",
    "total_distance_km": 91.8,
    "latitude": 35.222739274722855,
    "longitude": 139.08640768452997
  }
]