[
  {
    "rank": 1,
    "team_name": "四国大学",
    "team_short_name": "四国",
    "runner_name": "穴吹",
    "total_distance_km": 75.7,
    "latitude": 35.28799528161381,
    "longitude": 139.23320401639546
  },
  {
    "rank": 2,
    "team_name": "金沢大学",
    "team_short_name": "金沢",
    "runner_name": "秋ヶ島",
    "total_distance_km": 74.1,
    "latitude": 35.294760060591564,
    "longitude": 139.24850799987465
  },
  {
    "rank": 3,
    "team_name": "福島大学",
    "team_short_name": "福島",
    "runner_name": "梁川",
    "total_distance_km": 73.8,
    "latitude": 35.29574879163296,
    "longitude": 139.25157784540662
  },
  {
    "rank": 4,
    "team_name": "日本大学",
    "team_short_name": "日大",
    "runner_name": "大子",
    "total_distance_km": 73.4,
    "latitude": 35.29706709968816,
    "longitude": 139.25567097278255
  },
  {
    "rank": 5,
    "team_name": "上武大学",
    "team_short_name": "上武",
    "runner_name": "佐野",
    "total_distance_km": 72.8,
    "latitude": 35.29904456177095,
    "longitude": 139.26181066384646
  },
  {
    "rank": 6,
    "team_name": "名古屋大学",
    "team_short_name": "名大",
    "runner_name": "美濃加茂",
    "total_distance_km": 72.7,
    "latitude": 35.29945935472117,
    "longitude": 139.26278535289777
  },
  {
    "rank": 7,
    "team_name": "三重大学",
    "team_short_name": "三重",
    "runner_name": "粥見",
    "total_distance_km": 72.6,
    "latitude": 35.29989213354018,
    "longitude": 139.26374978584403
  },
  {
    "rank": 8,
    "team_name": "立命館大学",
    "team_short_name": "立命",
    "runner_name": "東近江",
    "total_distance_km": 72.4,
    "latitude": 35.3007576911782,
    "longitude": 139.2656786517366
  },
  {
    "rank": 9,
    "team_name": "関西大学",
    "team_short_name": "関大",
    "runner_name": "福崎",
    "total_distance_km": 71.7,
    "latitude": 35.30363586885332,
    "longitude": 139.27252696963532
  },
  {
    "rank": 10,
    "team_name": "山梨学院大学",
    "team_short_name": "山学",
    "runner_name": "長野",
    "total_distance_km": 70.5,
    "latitude": 35.30424740235761,
    "longitude": 139.28561089534423
  },
  {
    "rank": 11,
    "team_name": "広島経済大学",
    "team_short_name": "広経",
    "runner_name": "三次",
    "total_distance_km": 70.0,
    "latitude": 35.30388053375134,
    "longitude": 139.2910844890402
  },
  {
    "rank": 12,
    "team_name": "熊本学園大学",
    "team_short_name": "熊学",
    "runner_name": "甲佐",
    "total_distance_km": 67.3,
    "latitude": 35.310817634999836,
    "longitude": 139.31726835617454
  },
  {
    "rank": 13,
    "team_name": "鳥取大学",
    "team_short_name": "鳥取",
    "runner_name": "川本",
    "total_distance_km": 66.4,
    "latitude": 35.31268633357285,
    "longitude": 139.32631293193563
  },
  {
    "rank": 14,
    "team_name": "鹿児島大学",
    "team_short_name": "鹿大",
    "runner_name": "東市来",
    "total_distance_km": 66.0,
    "latitude": 35.31381646166465,
    "longitude": 139.33048983219882
  },
  {
    "rank": 15,
    "team_name": "琉球大学",
    "team_short_name": "琉球",
    "runner_name": "北原",
    "total_distance_km": 65.5,
    "latitude": 35.31509735767096,
    "longitude": 139.33572764414095
  },
  {
    "rank": 16,
    "team_name": "福岡大学",
    "team_short_name": "福岡",
    "runner_name": "久留米",
    "total_distance_km": 64.0,
    "latitude": 35.31597078469359,
    "longitude": 139.3521089217369
  },
  {
    "rank": 17,
    "team_name": "東北大学",
    "team_short_name": "東北",
    "runner_name": "帯広",
    "total_distance_km": 49.2,
    "latitude": 35.355937854837954,
    "longitude": 139.49237095953325
  },
  {
    "rank": 18,
    "team_name": "学連選抜",
    "team_short_name": "学連",
    "runner_name": "美幌",
    "total_distance_km": 48.8,
    "latitude": 35.35931227617285,
    "longitude": 139.49392059540392
  }
]