[
  {
    "rank": 1,
    "team_name": "琉球大学",
    "team_short_name": "琉球",
    "runner_name": "波照間",
    "total_distance_km": 500.9,
    "latitude": 34.90813496884648,
    "longitude": 135.74427530931945,
    "is_shadow_confederation": false
  },
  {
    "rank": 2,
    "team_name": "熊本学園大学",
    "team_short_name": "熊学",
    "runner_name": "熊本",
    "total_distance_km": 446.0,
    "latitude": 34.98230161639768,
    "longitude": 136.14755155881215,
    "is_shadow_confederation": false
  },
  {
    "rank": 3,
    "team_name": "鹿児島大学",
    "team_short_name": "鹿大",
    "runner_name": "西都",
    "total_distance_km": 430.9,
    "latitude": 34.92938204886829,
    "longitude": 136.29450622035878,
    "is_shadow_confederation": false
  },
  {
    "rank": 4,
    "team_name": "福岡大学",
    "team_short_name": "福岡",
    "runner_name": "前原",
    "total_distance_km": 419.9,
    "latitude": 34.869038417873995,
    "longitude": 136.36795267396738,
    "is_shadow_confederation": false
  },
  {
    "rank": 5,
    "team_name": "四国大学",
    "team_short_name": "四国",
    "runner_name": "松山",
    "total_distance_km": 405.8,
    "latitude": 34.87055699767415,
    "longitude": 136.491852393196,
    "is_shadow_confederation": false
  },
  {
    "rank": 6,
    "team_name": "広島経済大学",
    "team_short_name": "広経",
    "runner_name": "大竹",
    "total_distance_km": 394.2,
    "latitude": 34.923551030054256,
    "longitude": 136.58437593735246,
    "is_shadow_confederation": false
  },
  {
    "rank": 7,
    "team_name": "鳥取大学",
    "team_short_name": "鳥取",
    "runner_name": "防府",
    "total_distance_km": 378.3,
    "latitude": 35.03941656828979,
    "longitude": 136.6720975017471,
    "is_shadow_confederation": false
  },
  {
    "rank": 8,
    "team_name": "名古屋大学",
    "team_short_name": "名大",
    "runner_name": "愛西",
    "total_distance_km": 374.8,
    "latitude": 35.06796026715869,
    "longitude": 136.68688995964462,
    "is_shadow_confederation": false
  },
  {
    "rank": 9,
    "team_name": "関西大学",
    "team_short_name": "関大",
    "runner_name": "柏原",
    "total_distance_km": 370.8,
    "latitude": 35.09661140035371,
    "longitude": 136.7035905149735,
    "is_shadow_confederation": false
  },
  {
    "rank": 10,
    "team_name": "立命館大学",
    "team_short_name": "立命",
    "runner_name": "米原",
    "total_distance_km": 368.2,
    "latitude": 35.111334246004915,
    "longitude": 136.72446153739043,
    "is_shadow_confederation": false
  },
  {
    "rank": 11,
    "team_name": "三重大学",
    "team_short_name": "三重",
    "runner_name": "風屋",
    "total_distance_km": 365.5,
    "latitude": 35.118081123984304,
    "longitude": 136.75291869152508,
    "is_shadow_confederation": false
  },
  {
    "rank": 12,
    "team_name": "金沢大学",
    "team_short_name": "金沢",
    "runner_name": "志賀",
    "total_distance_km": 349.6,
    "latitude": 35.11481997758688,
    "longitude": 136.92207057866017,
    "is_shadow_confederation": false
  },
  {
    "rank": 13,
    "team_name": "日本大学",
    "team_short_name": "日大",
    "runner_name": "小田原",
    "total_distance_km": 345.0,
    "latitude": 35.079028937610914,
    "longitude": 136.94339839878535,
    "is_shadow_confederation": false
  },
  {
    "rank": 14,
    "team_name": "上武大学",
    "team_short_name": "上武",
    "runner_name": "寄居",
    "total_distance_km": 341.7,
    "latitude": 35.063602725684106,
    "longitude": 136.97398213395516,
    "is_shadow_confederation": false
  },
  {
    "rank": 15,
    "team_name": "山梨学院大学",
    "team_short_name": "山学",
    "runner_name": "大月",
    "total_distance_km": 322.7,
    "latitude": 34.9643712039344,
    "longitude": 137.1377310561622,
    "is_shadow_confederation": false
  },
  {
    "rank": 16,
    "team_name": "福島大学",
    "team_short_name": "福島",
    "runner_name": "津川",
    "total_distance_km": 303.4,
    "latitude": 34.86527047702739,
    "longitude": 137.29922643321302,
    "is_shadow_confederation": false
  },
  {
    "rank": 17,
    "team_name": "学連選抜",
    "team_short_name": "学連",
    "runner_name": "大村",
    "total_distance_km": 270.2,
    "latitude": 34.68195493026036,
    "longitude": 137.5412325279325,
    "is_shadow_confederation": false
  },
  {
    "rank": 18,
    "team_name": "東北大学",
    "team_short_name": "東北",
    "runner_name": "高畠",
    "total_distance_km": 252.1,
    "latitude": 34.697667426743635,
    "longitude": 137.7257325468346,
    "is_shadow_confederation": false
  }
]