[
  {
    "rank": 1,
    "team_name": "福岡大学",
    "team_short_name": "福岡",
    "runner_name": "久留米",
    "total_distance_km": 57.7,
    "latitude": 35.318177032398005,
    "longitude": 139.4190942291116,
    "is_shadow_confederation": false
  },
  {
    "rank": 2,
    "team_name": "熊本学園大学",
    "team_short_name": "熊学",
    "runner_name": "甲佐",
    "total_distance_km": 55.4,
    "latitude": 35.32530823377008,
    "longitude": 139.44185909047786,
    "is_shadow_confederation": false
  },
  {
    "rank": 3,
    "team_name": "鹿児島大学",
    "team_short_name": "鹿大",
    "runner_name": "東市来",
    "total_distance_km": 52.6,
    "latitude": 35.33479866401677,
    "longitude": 139.46932409605182,
    "is_shadow_confederation": false
  },
  {
    "rank": 4,
    "team_name": "福島大学",
    "team_short_name": "福島",
    "runner_name": "梁川",
    "total_distance_km": 51.7,
    "latitude": 35.338690352064674,
    "longitude": 139.4770089922927,
    "is_shadow_confederation": false
  },
  {
    "rank": 5,
    "team_name": "琉球大学",
    "team_short_name": "琉球",
    "runner_name": "北原",
    "total_distance_km": 51.6,
    "latitude": 35.33949380126661,
    "longitude": 139.4775075242395,
    "is_shadow_confederation": false
  },
  {
    "rank": 6,
    "team_name": "金沢大学",
    "team_short_name": "金沢",
    "runner_name": "秋ヶ島",
    "total_distance_km": 51.5,
    "latitude": 35.340297250468545,
    "longitude": 139.47800605618633,
    "is_shadow_confederation": false
  },
  {
    "rank": 7,
    "team_name": "上武大学",
    "team_short_name": "上武",
    "runner_name": "佐野",
    "total_distance_km": 51.4,
    "latitude": 35.34083298252227,
    "longitude": 139.47879520927395,
    "is_shadow_confederation": false
  },
  {
    "rank": 8,
    "team_name": "名古屋大学",
    "team_short_name": "名大",
    "runner_name": "美濃加茂",
    "total_distance_km": 50.8,
    "latitude": 35.34389843391366,
    "longitude": 139.48402066808526,
    "is_shadow_confederation": false
  },
  {
    "rank": 9,
    "team_name": "立命館大学",
    "team_short_name": "立命",
    "runner_name": "東近江",
    "total_distance_km": 50.2,
    "latitude": 35.34757914810783,
    "longitude": 139.4887982370565,
    "is_shadow_confederation": false
  },
  {
    "rank": 10,
    "team_name": "山梨学院大学",
    "team_short_name": "山学",
    "runner_name": "長野",
    "total_distance_km": 49.7,
    "latitude": 35.35166541258049,
    "longitude": 139.4907816414275,
    "is_shadow_confederation": false
  },
  {
    "rank": 11,
    "team_name": "四国大学",
    "team_short_name": "四国",
    "runner_name": "穴吹",
    "total_distance_km": 49.6,
    "latitude": 35.352563433503065,
    "longitude": 139.4908213236626,
    "is_shadow_confederation": false
  },
  {
    "rank": 12,
    "team_name": "関西大学",
    "team_short_name": "関大",
    "runner_name": "福崎",
    "total_distance_km": 49.3,
    "latitude": 35.35509424950423,
    "longitude": 139.49198355056558,
    "is_shadow_confederation": false
  },
  {
    "rank": 13,
    "team_name": "広島経済大学",
    "team_short_name": "広経",
    "runner_name": "三次",
    "total_distance_km": 48.5,
    "latitude": 35.361696589247806,
    "longitude": 139.4954234367716,
    "is_shadow_confederation": false
  },
  {
    "rank": 14,
    "team_name": "日本大学",
    "team_short_name": "日大",
    "runner_name": "大子",
    "total_distance_km": 48.4,
    "latitude": 35.36243677942022,
    "longitude": 139.49605128257366,
    "is_shadow_confederation": false
  },
  {
    "rank": 15,
    "team_name": "鳥取大学",
    "team_short_name": "鳥取",
    "runner_name": "川本",
    "total_distance_km": 47.2,
    "latitude": 35.37206943014859,
    "longitude": 139.50198763799912,
    "is_shadow_confederation": false
  },
  {
    "rank": 16,
    "team_name": "三重大学",
    "team_short_name": "三重",
    "runner_name": "粥見",
    "total_distance_km": 45.4,
    "latitude": 35.38374134288697,
    "longitude": 139.5148404370859,
    "is_shadow_confederation": false
  },
  {
    "rank": 17,
    "team_name": "東北大学",
    "team_short_name": "東北",
    "runner_name": "帯広",
    "total_distance_km": 33.4,
    "latitude": 35.44485778006592,
    "longitude": 139.59798260412768,
    "is_shadow_confederation": false
  },
  {
    "rank": 18,
    "team_name": "学連選抜",
    "team_short_name": "学連",
    "runner_name": "美幌",
    "total_distance_km": 18.3,
    "latitude": 35.537253099895864,
    "longitude": 139.7084064983507,
    "is_shadow_confederation": false
  }
]