[
  {
    "rank": 1,
    "team_name": "琉球大学",
    "team_short_name": "琉球",
    "runner_name": "名護",
    "total_distance_km": 423.2,
    "latitude": 34.889267518050836,
    "longitude": 136.3474319188996,
    "is_shadow_confederation": false
  },
  {
    "rank": 2,
    "team_name": "熊本学園大学",
    "team_short_name": "熊学",
    "runner_name": "人吉",
    "total_distance_km": 387.9,
    "latitude": 34.96838137928993,
    "longitude": 136.6236111541164,
    "is_shadow_confederation": false
  },
  {
    "rank": 3,
    "team_name": "鹿児島大学",
    "team_short_name": "鹿大",
    "runner_name": "西米良",
    "total_distance_km": 372.5,
    "latitude": 35.08369305870112,
    "longitude": 136.69579630712875,
    "is_shadow_confederation": false
  },
  {
    "rank": 4,
    "team_name": "福岡大学",
    "team_short_name": "福岡",
    "runner_name": "朝倉",
    "total_distance_km": 365.1,
    "latitude": 35.11905978210786,
    "longitude": 136.7571421003013,
    "is_shadow_confederation": false
  },
  {
    "rank": 5,
    "team_name": "四国大学",
    "team_short_name": "四国",
    "runner_name": "松山",
    "total_distance_km": 348.7,
    "latitude": 35.10676702906456,
    "longitude": 136.9232626086868,
    "is_shadow_confederation": false
  },
  {
    "rank": 6,
    "team_name": "広島経済大学",
    "team_short_name": "広経",
    "runner_name": "大竹",
    "total_distance_km": 337.4,
    "latitude": 35.040808896284254,
    "longitude": 137.00970885116368,
    "is_shadow_confederation": false
  },
  {
    "rank": 7,
    "team_name": "鳥取大学",
    "team_short_name": "鳥取",
    "runner_name": "広瀬",
    "total_distance_km": 323.8,
    "latitude": 34.96934537878198,
    "longitude": 137.1274900229189,
    "is_shadow_confederation": false
  },
  {
    "rank": 8,
    "team_name": "関西大学",
    "team_short_name": "関大",
    "runner_name": "上郡",
    "total_distance_km": 322.3,
    "latitude": 34.96256370775889,
    "longitude": 137.14152071683523,
    "is_shadow_confederation": false
  },
  {
    "rank": 9,
    "team_name": "立命館大学",
    "team_short_name": "立命",
    "runner_name": "京田辺",
    "total_distance_km": 322.0,
    "latitude": 34.96120808562726,
    "longitude": 137.14436296234,
    "is_shadow_confederation": false
  },
  {
    "rank": 10,
    "team_name": "名古屋大学",
    "team_short_name": "名大",
    "runner_name": "大垣",
    "total_distance_km": 316.5,
    "latitude": 34.938152061926495,
    "longitude": 137.19472232946882,
    "is_shadow_confederation": false
  },
  {
    "rank": 11,
    "team_name": "三重大学",
    "team_short_name": "三重",
    "runner_name": "小俣",
    "total_distance_km": 312.0,
    "latitude": 34.910720860392374,
    "longitude": 137.22739461330957,
    "is_shadow_confederation": false
  },
  {
    "rank": 12,
    "team_name": "金沢大学",
    "team_short_name": "金沢",
    "runner_name": "七尾",
    "total_distance_km": 299.0,
    "latitude": 34.83469014151857,
    "longitude": 137.32846898035962,
    "is_shadow_confederation": false
  },
  {
    "rank": 13,
    "team_name": "上武大学",
    "team_short_name": "上武",
    "runner_name": "熊谷",
    "total_distance_km": 286.4,
    "latitude": 34.74992360386108,
    "longitude": 137.41312487465507,
    "is_shadow_confederation": false
  },
  {
    "rank": 14,
    "team_name": "日本大学",
    "team_short_name": "日大",
    "runner_name": "下館",
    "total_distance_km": 284.2,
    "latitude": 34.73362233805679,
    "longitude": 137.42449597257706,
    "is_shadow_confederation": false
  },
  {
    "rank": 15,
    "team_name": "山梨学院大学",
    "team_short_name": "山学",
    "runner_name": "大月",
    "total_distance_km": 267.8,
    "latitude": 34.691280477976626,
    "longitude": 137.56409260205066,
    "is_shadow_confederation": false
  },
  {
    "rank": 16,
    "team_name": "福島大学",
    "team_short_name": "福島",
    "runner_name": "津川",
    "total_distance_km": 265.4,
    "latitude": 34.69379098257754,
    "longitude": 137.58874677147,
    "is_shadow_confederation": false
  },
  {
    "rank": 17,
    "team_name": "東北大学",
    "team_short_name": "東北",
    "runner_name": "山形（山形）",
    "total_distance_km": 214.2,
    "latitude": 34.80813412965172,
    "longitude": 138.079551744515,
    "is_shadow_confederation": false
  },
  {
    "rank": 18,
    "team_name": "学連選抜",
    "team_short_name": "学連",
    "runner_name": "新潟",
    "total_distance_km": 212.9,
    "latitude": 34.816676465894105,
    "longitude": 138.0883970061246,
    "is_shadow_confederation": false
  }
]