[
  {
    "rank": 1,
    "team_name": "琉球大学",
    "team_short_name": "琉球",
    "runner_name": "名護",
    "total_distance_km": 362.9,
    "latitude": 35.123977482156945,
    "longitude": 136.78050028554506,
    "is_shadow_confederation": false
  },
  {
    "rank": 2,
    "team_name": "熊本学園大学",
    "team_short_name": "熊学",
    "runner_name": "人吉",
    "total_distance_km": 332.9,
    "latitude": 35.01208668812402,
    "longitude": 137.04392528818389,
    "is_shadow_confederation": false
  },
  {
    "rank": 3,
    "team_name": "鹿児島大学",
    "team_short_name": "鹿大",
    "runner_name": "加久藤",
    "total_distance_km": 320.1,
    "latitude": 34.95698003215342,
    "longitude": 137.16425973763538,
    "is_shadow_confederation": false
  },
  {
    "rank": 4,
    "team_name": "福岡大学",
    "team_short_name": "福岡",
    "runner_name": "黒木",
    "total_distance_km": 316.9,
    "latitude": 34.94122649538846,
    "longitude": 137.1924348841376,
    "is_shadow_confederation": false
  },
  {
    "rank": 5,
    "team_name": "四国大学",
    "team_short_name": "四国",
    "runner_name": "御荘",
    "total_distance_km": 300.7,
    "latitude": 34.84801447420531,
    "longitude": 137.3192971745505,
    "is_shadow_confederation": false
  },
  {
    "rank": 6,
    "team_name": "広島経済大学",
    "team_short_name": "広経",
    "runner_name": "府中（広島）",
    "total_distance_km": 290.3,
    "latitude": 34.77483376566921,
    "longitude": 137.38872771333274,
    "is_shadow_confederation": false
  },
  {
    "rank": 7,
    "team_name": "鳥取大学",
    "team_short_name": "鳥取",
    "runner_name": "広瀬",
    "total_distance_km": 280.3,
    "latitude": 34.72049624760682,
    "longitude": 137.45893354643536,
    "is_shadow_confederation": false
  },
  {
    "rank": 8,
    "team_name": "関西大学",
    "team_short_name": "関大",
    "runner_name": "上郡",
    "total_distance_km": 278.1,
    "latitude": 34.70818038359087,
    "longitude": 137.47732820201543,
    "is_shadow_confederation": false
  },
  {
    "rank": 9,
    "team_name": "立命館大学",
    "team_short_name": "立命",
    "runner_name": "京田辺",
    "total_distance_km": 274.1,
    "latitude": 34.68389494192961,
    "longitude": 137.50488618713015,
    "is_shadow_confederation": false
  },
  {
    "rank": 10,
    "team_name": "名古屋大学",
    "team_short_name": "名大",
    "runner_name": "大垣",
    "total_distance_km": 273.8,
    "latitude": 34.683142452267184,
    "longitude": 137.5079741501243,
    "is_shadow_confederation": false
  },
  {
    "rank": 11,
    "team_name": "三重大学",
    "team_short_name": "三重",
    "runner_name": "小俣",
    "total_distance_km": 273.1,
    "latitude": 34.680093197923235,
    "longitude": 137.5101695811398,
    "is_shadow_confederation": false
  },
  {
    "rank": 12,
    "team_name": "金沢大学",
    "team_short_name": "金沢",
    "runner_name": "七尾",
    "total_distance_km": 260.4,
    "latitude": 34.682879550240806,
    "longitude": 137.64057570069343,
    "is_shadow_confederation": false
  },
  {
    "rank": 13,
    "team_name": "上武大学",
    "team_short_name": "上武",
    "runner_name": "熊谷",
    "total_distance_km": 253.1,
    "latitude": 34.6923200140949,
    "longitude": 137.717270075604,
    "is_shadow_confederation": false
  },
  {
    "rank": 14,
    "team_name": "日本大学",
    "team_short_name": "日大",
    "runner_name": "下館",
    "total_distance_km": 250.3,
    "latitude": 34.708052,
    "longitude": 137.73368747730805,
    "is_shadow_confederation": false
  },
  {
    "rank": 15,
    "team_name": "山梨学院大学",
    "team_short_name": "山学",
    "runner_name": "大月",
    "total_distance_km": 236.4,
    "latitude": 34.731819528301436,
    "longitude": 137.87287772585276,
    "is_shadow_confederation": false
  },
  {
    "rank": 16,
    "team_name": "福島大学",
    "team_short_name": "福島",
    "runner_name": "津川",
    "total_distance_km": 225.6,
    "latitude": 34.77006597374692,
    "longitude": 137.9779027919168,
    "is_shadow_confederation": false
  },
  {
    "rank": 17,
    "team_name": "東北大学",
    "team_short_name": "東北",
    "runner_name": "山形（山形）",
    "total_distance_km": 179.8,
    "latitude": 34.948803624513694,
    "longitude": 138.35863266288246,
    "is_shadow_confederation": false
  },
  {
    "rank": 18,
    "team_name": "学連選抜",
    "team_short_name": "学連",
    "runner_name": "新潟",
    "total_distance_km": 174.3,
    "latitude": 34.97989199199255,
    "longitude": 138.40422279731726,
    "is_shadow_confederation": false
  }
]