[
  {
    "rank": 1,
    "team_name": "琉球大学",
    "team_short_name": "琉球",
    "runner_name": "西表島",
    "total_distance_km": 809.9,
    "latitude": 34.4053941260778,
    "longitude": 132.96428345598764,
    "is_shadow_confederation": false
  },
  {
    "rank": 2,
    "team_name": "鹿児島大学",
    "team_short_name": "鹿大",
    "runner_name": "鹿児島",
    "total_distance_km": 702.0,
    "latitude": 34.672615504769006,
    "longitude": 133.9579420104405,
    "is_shadow_confederation": false
  },
  {
    "rank": 3,
    "team_name": "熊本学園大学",
    "team_short_name": "熊学",
    "runner_name": "犬飼",
    "total_distance_km": 681.9,
    "latitude": 34.73788478429915,
    "longitude": 134.1524270886281,
    "is_shadow_confederation": false
  },
  {
    "rank": 4,
    "team_name": "福岡大学",
    "team_short_name": "福岡",
    "runner_name": "博多",
    "total_distance_km": 659.0,
    "latitude": 34.836897888972985,
    "longitude": 134.34391308335748,
    "is_shadow_confederation": false
  },
  {
    "rank": 5,
    "team_name": "四国大学",
    "team_short_name": "四国",
    "runner_name": "徳島",
    "total_distance_km": 626.5,
    "latitude": 34.8389556137194,
    "longitude": 134.66809298211388,
    "is_shadow_confederation": false
  },
  {
    "rank": 6,
    "team_name": "広島経済大学",
    "team_short_name": "広経",
    "runner_name": "高松（香川）",
    "total_distance_km": 606.8,
    "latitude": 34.755540370647914,
    "longitude": 134.8497426940955,
    "is_shadow_confederation": false
  },
  {
    "rank": 7,
    "team_name": "名古屋大学",
    "team_short_name": "名大",
    "runner_name": "豊田（愛知）",
    "total_distance_km": 591.3,
    "latitude": 34.65961361177671,
    "longitude": 134.9697466367802,
    "is_shadow_confederation": false
  },
  {
    "rank": 8,
    "team_name": "鳥取大学",
    "team_short_name": "鳥取",
    "runner_name": "松江",
    "total_distance_km": 590.3,
    "latitude": 34.65274596839062,
    "longitude": 134.9762630798967,
    "is_shadow_confederation": false
  },
  {
    "rank": 9,
    "team_name": "関西大学",
    "team_short_name": "関大",
    "runner_name": "豊中",
    "total_distance_km": 587.6,
    "latitude": 34.64653776348232,
    "longitude": 135.00386435498473,
    "is_shadow_confederation": false
  },
  {
    "rank": 10,
    "team_name": "三重大学",
    "team_short_name": "三重",
    "runner_name": "新宮",
    "total_distance_km": 576.2,
    "latitude": 34.64494375247727,
    "longitude": 135.11593070673072,
    "is_shadow_confederation": false
  },
  {
    "rank": 11,
    "team_name": "立命館大学",
    "team_short_name": "立命",
    "runner_name": "彦根",
    "total_distance_km": 574.0,
    "latitude": 34.656485001052054,
    "longitude": 135.13527782120622,
    "is_shadow_confederation": false
  },
  {
    "rank": 12,
    "team_name": "日本大学",
    "team_short_name": "日大",
    "runner_name": "八王子",
    "total_distance_km": 554.2,
    "latitude": 34.73604027018434,
    "longitude": 135.32301063148284,
    "is_shadow_confederation": false
  },
  {
    "rank": 12,
    "team_name": "金沢大学",
    "team_short_name": "金沢",
    "runner_name": "富山",
    "total_distance_km": 554.2,
    "latitude": 34.73604027018434,
    "longitude": 135.32301063148284,
    "is_shadow_confederation": false
  },
  {
    "rank": 14,
    "team_name": "上武大学",
    "team_short_name": "上武",
    "runner_name": "伊勢崎",
    "total_distance_km": 551.0,
    "latitude": 34.73618289013216,
    "longitude": 135.35727598515803,
    "is_shadow_confederation": false
  },
  {
    "rank": 15,
    "team_name": "山梨学院大学",
    "team_short_name": "山学",
    "runner_name": "甲府",
    "total_distance_km": 526.6,
    "latitude": 34.74245737932695,
    "longitude": 135.56902022082775,
    "is_shadow_confederation": false
  },
  {
    "rank": 16,
    "team_name": "学連選抜",
    "team_short_name": "学連",
    "runner_name": "久世",
    "total_distance_km": 493.4,
    "latitude": 34.975714245205545,
    "longitude": 135.74615007784652,
    "is_shadow_confederation": false
  },
  {
    "rank": 17,
    "team_name": "福島大学",
    "team_short_name": "福島",
    "runner_name": "福島",
    "total_distance_km": 484.4,
    "latitude": 34.99817524778753,
    "longitude": 135.79578562186754,
    "is_shadow_confederation": false
  },
  {
    "rank": 18,
    "team_name": "東北大学",
    "team_short_name": "東北",
    "runner_name": "大館",
    "total_distance_km": 404.8,
    "latitude": 34.87667523921544,
    "longitude": 136.49930209696885,
    "is_shadow_confederation": false
  }
]