[
  {
    "rank": 1,
    "team_name": "琉球大学",
    "team_short_name": "琉球",
    "runner_name": "仲筋",
    "total_distance_km": 212.0,
    "latitude": 34.82159132885372,
    "longitude": 138.0958734808967,
    "is_shadow_confederation": false
  },
  {
    "rank": 2,
    "team_name": "鹿児島大学",
    "team_short_name": "鹿大",
    "runner_name": "川内（鹿児島）",
    "total_distance_km": 158.1,
    "latitude": 35.06258523385096,
    "longitude": 138.53828033850903,
    "is_shadow_confederation": false
  },
  {
    "rank": 3,
    "team_name": "熊本学園大学",
    "team_short_name": "熊学",
    "runner_name": "岱明",
    "total_distance_km": 152.9,
    "latitude": 35.105809581394695,
    "longitude": 138.55822695294208,
    "is_shadow_confederation": false
  },
  {
    "rank": 4,
    "team_name": "福岡大学",
    "team_short_name": "福岡",
    "runner_name": "福岡",
    "total_distance_km": 140.3,
    "latitude": 35.14308973102176,
    "longitude": 138.67959998403754,
    "is_shadow_confederation": false
  },
  {
    "rank": 5,
    "team_name": "名古屋大学",
    "team_short_name": "名大",
    "runner_name": "美濃",
    "total_distance_km": 128.3,
    "latitude": 35.120252226889924,
    "longitude": 138.8042608277628,
    "is_shadow_confederation": false
  },
  {
    "rank": 6,
    "team_name": "四国大学",
    "team_short_name": "四国",
    "runner_name": "大三島",
    "total_distance_km": 125.9,
    "latitude": 35.11018933619946,
    "longitude": 138.8275451412335,
    "is_shadow_confederation": false
  },
  {
    "rank": 7,
    "team_name": "三重大学",
    "team_short_name": "三重",
    "runner_name": "五條",
    "total_distance_km": 123.0,
    "latitude": 35.09951962460201,
    "longitude": 138.85558555703219,
    "is_shadow_confederation": false
  },
  {
    "rank": 8,
    "team_name": "上武大学",
    "team_short_name": "上武",
    "runner_name": "越谷",
    "total_distance_km": 121.9,
    "latitude": 35.09993300909907,
    "longitude": 138.86759716935933,
    "is_shadow_confederation": false
  },
  {
    "rank": 9,
    "team_name": "日本大学",
    "team_short_name": "日大",
    "runner_name": "古河",
    "total_distance_km": 119.6,
    "latitude": 35.10612508544001,
    "longitude": 138.89091362225656,
    "is_shadow_confederation": false
  },
  {
    "rank": 10,
    "team_name": "関西大学",
    "team_short_name": "関大",
    "runner_name": "和田山",
    "total_distance_km": 113.4,
    "latitude": 35.13254184415347,
    "longitude": 138.94784707015623,
    "is_shadow_confederation": false
  },
  {
    "rank": 11,
    "team_name": "広島経済大学",
    "team_short_name": "広経",
    "runner_name": "三次",
    "total_distance_km": 109.1,
    "latitude": 35.14973806648697,
    "longitude": 138.98385941600355,
    "is_shadow_confederation": false
  },
  {
    "rank": 12,
    "team_name": "鳥取大学",
    "team_short_name": "鳥取",
    "runner_name": "川本",
    "total_distance_km": 108.7,
    "latitude": 35.149734906121125,
    "longitude": 138.98731041595548,
    "is_shadow_confederation": false
  },
  {
    "rank": 13,
    "team_name": "立命館大学",
    "team_short_name": "立命",
    "runner_name": "東近江",
    "total_distance_km": 104.5,
    "latitude": 35.171860551402915,
    "longitude": 139.0101705747441,
    "is_shadow_confederation": false
  },
  {
    "rank": 14,
    "team_name": "福島大学",
    "team_short_name": "福島",
    "runner_name": "梁川",
    "total_distance_km": 101.0,
    "latitude": 35.18314392326731,
    "longitude": 139.02684681508626,
    "is_shadow_confederation": false
  },
  {
    "rank": 15,
    "team_name": "金沢大学",
    "team_short_name": "金沢",
    "runner_name": "秋ヶ島",
    "total_distance_km": 82.3,
    "latitude": 35.25719089644169,
    "longitude": 139.17378960781681,
    "is_shadow_confederation": false
  },
  {
    "rank": 16,
    "team_name": "山梨学院大学",
    "team_short_name": "山学",
    "runner_name": "長野",
    "total_distance_km": 74.7,
    "latitude": 35.292469856723926,
    "longitude": 139.2425381751534,
    "is_shadow_confederation": false
  },
  {
    "rank": 17,
    "team_name": "東北大学",
    "team_short_name": "東北",
    "runner_name": "帯広",
    "total_distance_km": 64.9,
    "latitude": 35.315047843131104,
    "longitude": 139.3422798210188,
    "is_shadow_confederation": false
  },
  {
    "rank": 18,
    "team_name": "学連選抜",
    "team_short_name": "学連",
    "runner_name": "美幌",
    "total_distance_km": 13.7,
    "latitude": 35.57310128092242,
    "longitude": 139.73329903757886,
    "is_shadow_confederation": false
  },
  {
    "rank": null,
    "team_name": "区間記録連合",
    "team_short_name": "区間記録",
    "runner_name": "佐野",
    "total_distance_km": 212.0,
    "latitude": 34.82159132885372,
    "longitude": 138.0958734808967,
    "is_shadow_confederation": true
  }
]