[
  {
    "rank": 1,
    "team_name": "琉球大学",
    "team_short_name": "琉球",
    "runner_name": "盛山",
    "total_distance_km": 296.4,
    "latitude": 34.81833081980317,
    "longitude": 137.34800528607053,
    "is_shadow_confederation": false
  },
  {
    "rank": 2,
    "team_name": "熊本学園大学",
    "team_short_name": "熊学",
    "runner_name": "八代",
    "total_distance_km": 293.3,
    "latitude": 34.79599049156757,
    "longitude": 137.3683127305792,
    "is_shadow_confederation": false
  },
  {
    "rank": 3,
    "team_name": "立命館大学",
    "team_short_name": "立命",
    "runner_name": "京田辺",
    "total_distance_km": 281.4,
    "latitude": 34.72049294205062,
    "longitude": 137.44705657194828,
    "is_shadow_confederation": false
  },
  {
    "rank": 4,
    "team_name": "福岡大学",
    "team_short_name": "福岡",
    "runner_name": "黒木",
    "total_distance_km": 280.4,
    "latitude": 34.72064255875303,
    "longitude": 137.45786933268997,
    "is_shadow_confederation": false
  },
  {
    "rank": 5,
    "team_name": "鹿児島大学",
    "team_short_name": "鹿大",
    "runner_name": "加久藤",
    "total_distance_km": 273.4,
    "latitude": 34.67979782048235,
    "longitude": 137.50696355775983,
    "is_shadow_confederation": false
  },
  {
    "rank": 6,
    "team_name": "関西大学",
    "team_short_name": "関大",
    "runner_name": "上郡",
    "total_distance_km": 272.0,
    "latitude": 34.67940909214643,
    "longitude": 137.52185650982065,
    "is_shadow_confederation": false
  },
  {
    "rank": 7,
    "team_name": "金沢大学",
    "team_short_name": "金沢",
    "runner_name": "七尾",
    "total_distance_km": 270.8,
    "latitude": 34.68094129539958,
    "longitude": 137.53481850780176,
    "is_shadow_confederation": false
  },
  {
    "rank": 8,
    "team_name": "四国大学",
    "team_short_name": "四国",
    "runner_name": "御荘",
    "total_distance_km": 268.2,
    "latitude": 34.68834369376436,
    "longitude": 137.5616414885743,
    "is_shadow_confederation": false
  },
  {
    "rank": 9,
    "team_name": "名古屋大学",
    "team_short_name": "名大",
    "runner_name": "大垣",
    "total_distance_km": 268.1,
    "latitude": 34.689002466170706,
    "longitude": 137.5623282311233,
    "is_shadow_confederation": false
  },
  {
    "rank": 10,
    "team_name": "三重大学",
    "team_short_name": "三重",
    "runner_name": "小俣",
    "total_distance_km": 268.0,
    "latitude": 34.689761803439346,
    "longitude": 137.56291635476575,
    "is_shadow_confederation": false
  },
  {
    "rank": 10,
    "team_name": "広島経済大学",
    "team_short_name": "広経",
    "runner_name": "府中（広島）",
    "total_distance_km": 268.0,
    "latitude": 34.689761803439346,
    "longitude": 137.56291635476575,
    "is_shadow_confederation": false
  },
  {
    "rank": 12,
    "team_name": "鳥取大学",
    "team_short_name": "鳥取",
    "runner_name": "広瀬",
    "total_distance_km": 265.6,
    "latitude": 34.693746354608336,
    "longitude": 137.5865720016314,
    "is_shadow_confederation": false
  },
  {
    "rank": 13,
    "team_name": "山梨学院大学",
    "team_short_name": "山学",
    "runner_name": "大月",
    "total_distance_km": 258.4,
    "latitude": 34.685442163344405,
    "longitude": 137.66211202500654,
    "is_shadow_confederation": false
  },
  {
    "rank": 14,
    "team_name": "上武大学",
    "team_short_name": "上武",
    "runner_name": "熊谷",
    "total_distance_km": 252.3,
    "latitude": 34.696908152017336,
    "longitude": 137.72378813683392,
    "is_shadow_confederation": false
  },
  {
    "rank": 15,
    "team_name": "日本大学",
    "team_short_name": "日大",
    "runner_name": "下館",
    "total_distance_km": 251.4,
    "latitude": 34.70343858948948,
    "longitude": 137.72882186239815,
    "is_shadow_confederation": false
  },
  {
    "rank": 16,
    "team_name": "福島大学",
    "team_short_name": "福島",
    "runner_name": "津川",
    "total_distance_km": 238.2,
    "latitude": 34.72413917391359,
    "longitude": 137.85611191848076,
    "is_shadow_confederation": false
  },
  {
    "rank": 17,
    "team_name": "東北大学",
    "team_short_name": "東北",
    "runner_name": "山形（山形）",
    "total_distance_km": 222.1,
    "latitude": 34.77750371314067,
    "longitude": 138.01416931826313,
    "is_shadow_confederation": false
  },
  {
    "rank": 18,
    "team_name": "学連選抜",
    "team_short_name": "学連",
    "runner_name": "新潟",
    "total_distance_km": 206.8,
    "latitude": 34.837051542163806,
    "longitude": 138.12732233472605,
    "is_shadow_confederation": false
  }
]