[
  {
    "rank": 1,
    "team_name": "名古屋大学",
    "team_short_name": "名大",
    "runner_name": "大垣",
    "total_distance_km": 310.6,
    "latitude": 34.90162127187247,
    "longitude": 137.23733108151805,
    "is_shadow_confederation": false
  },
  {
    "rank": 2,
    "team_name": "四国大学",
    "team_short_name": "四国",
    "runner_name": "御荘",
    "total_distance_km": 306.1,
    "latitude": 34.8777745482176,
    "longitude": 137.27392389025866,
    "is_shadow_confederation": false
  },
  {
    "rank": 3,
    "team_name": "熊本学園大学",
    "team_short_name": "熊学",
    "runner_name": "八代",
    "total_distance_km": 304.8,
    "latitude": 34.87135737546131,
    "longitude": 137.28582054164056,
    "is_shadow_confederation": false
  },
  {
    "rank": 4,
    "team_name": "立命館大学",
    "team_short_name": "立命",
    "runner_name": "京田辺",
    "total_distance_km": 304.7,
    "latitude": 34.87088655126977,
    "longitude": 137.28675320403153,
    "is_shadow_confederation": false
  },
  {
    "rank": 5,
    "team_name": "福岡大学",
    "team_short_name": "福岡",
    "runner_name": "黒木",
    "total_distance_km": 304.1,
    "latitude": 34.868223122404586,
    "longitude": 137.2924607578642,
    "is_shadow_confederation": false
  },
  {
    "rank": 6,
    "team_name": "関西大学",
    "team_short_name": "関大",
    "runner_name": "上郡",
    "total_distance_km": 300.1,
    "latitude": 34.84334930896936,
    "longitude": 137.3226162471345,
    "is_shadow_confederation": false
  },
  {
    "rank": 7,
    "team_name": "日本大学",
    "team_short_name": "日大",
    "runner_name": "下館",
    "total_distance_km": 299.0,
    "latitude": 34.83469014151857,
    "longitude": 137.32846898035962,
    "is_shadow_confederation": false
  },
  {
    "rank": 8,
    "team_name": "広島経済大学",
    "team_short_name": "広経",
    "runner_name": "府中（広島）",
    "total_distance_km": 298.2,
    "latitude": 34.829426584610076,
    "longitude": 137.33398502498224,
    "is_shadow_confederation": false
  },
  {
    "rank": 9,
    "team_name": "琉球大学",
    "team_short_name": "琉球",
    "runner_name": "盛山",
    "total_distance_km": 297.8,
    "latitude": 34.82755373255961,
    "longitude": 137.33772151970786,
    "is_shadow_confederation": false
  },
  {
    "rank": 10,
    "team_name": "上武大学",
    "team_short_name": "上武",
    "runner_name": "熊谷",
    "total_distance_km": 297.5,
    "latitude": 34.825960884828916,
    "longitude": 137.34032679097075,
    "is_shadow_confederation": false
  },
  {
    "rank": 11,
    "team_name": "三重大学",
    "team_short_name": "三重",
    "runner_name": "小俣",
    "total_distance_km": 296.6,
    "latitude": 34.819718104353306,
    "longitude": 137.34660919605238,
    "is_shadow_confederation": false
  },
  {
    "rank": 12,
    "team_name": "鳥取大学",
    "team_short_name": "鳥取",
    "runner_name": "広瀬",
    "total_distance_km": 296.3,
    "latitude": 34.817637177528105,
    "longitude": 137.3487033310796,
    "is_shadow_confederation": false
  },
  {
    "rank": 13,
    "team_name": "金沢大学",
    "team_short_name": "金沢",
    "runner_name": "七尾",
    "total_distance_km": 293.5,
    "latitude": 34.79744725974658,
    "longitude": 137.36702667328663,
    "is_shadow_confederation": false
  },
  {
    "rank": 14,
    "team_name": "鹿児島大学",
    "team_short_name": "鹿大",
    "runner_name": "加久藤",
    "total_distance_km": 290.7,
    "latitude": 34.77765466245565,
    "longitude": 137.38600571563228,
    "is_shadow_confederation": false
  },
  {
    "rank": 15,
    "team_name": "山梨学院大学",
    "team_short_name": "山学",
    "runner_name": "大月",
    "total_distance_km": 290.2,
    "latitude": 34.77412854147259,
    "longitude": 137.38940821275787,
    "is_shadow_confederation": false
  },
  {
    "rank": 16,
    "team_name": "福島大学",
    "team_short_name": "福島",
    "runner_name": "津川",
    "total_distance_km": 279.1,
    "latitude": 34.714503671062026,
    "longitude": 137.46960012155282,
    "is_shadow_confederation": false
  },
  {
    "rank": 17,
    "team_name": "東北大学",
    "team_short_name": "東北",
    "runner_name": "高畠",
    "total_distance_km": 249.4,
    "latitude": 34.708052,
    "longitude": 137.74351160156525,
    "is_shadow_confederation": false
  },
  {
    "rank": 18,
    "team_name": "学連選抜",
    "team_short_name": "学連",
    "runner_name": "大村",
    "total_distance_km": 247.7,
    "latitude": 34.713668272002465,
    "longitude": 137.7605970130399,
    "is_shadow_confederation": false
  },
  {
    "rank": null,
    "team_name": "区間記録連合",
    "team_short_name": "区間記録",
    "runner_name": "伊勢崎",
    "total_distance_km": 310.6,
    "latitude": 34.90162127187247,
    "longitude": 137.23733108151805,
    "is_shadow_confederation": true
  }
]