[
  {
    "rank": 1,
    "team_name": "琉球大学",
    "team_short_name": "琉球",
    "runner_name": "北原",
    "total_distance_km": 30.2,
    "latitude": 35.462155830339206,
    "longitude": 139.62400658220406,
    "is_shadow_confederation": false
  },
  {
    "rank": 2,
    "team_name": "鹿児島大学",
    "team_short_name": "鹿大",
    "runner_name": "東市来",
    "total_distance_km": 28.5,
    "latitude": 35.473240523346405,
    "longitude": 139.63307657317927,
    "is_shadow_confederation": false
  },
  {
    "rank": 3,
    "team_name": "熊本学園大学",
    "team_short_name": "熊学",
    "runner_name": "甲佐",
    "total_distance_km": 27.7,
    "latitude": 35.478953245941156,
    "longitude": 139.63845131273126,
    "is_shadow_confederation": false
  },
  {
    "rank": 4,
    "team_name": "福岡大学",
    "team_short_name": "福岡",
    "runner_name": "久留米",
    "total_distance_km": 27.4,
    "latitude": 35.481019466019724,
    "longitude": 139.64057020970924,
    "is_shadow_confederation": false
  },
  {
    "rank": 5,
    "team_name": "名古屋大学",
    "team_short_name": "名大",
    "runner_name": "美濃加茂",
    "total_distance_km": 27.0,
    "latitude": 35.48318364394282,
    "longitude": 139.64409547302495,
    "is_shadow_confederation": false
  },
  {
    "rank": 6,
    "team_name": "立命館大学",
    "team_short_name": "立命",
    "runner_name": "東近江",
    "total_distance_km": 26.3,
    "latitude": 35.48531031413867,
    "longitude": 139.65123043308913,
    "is_shadow_confederation": false
  },
  {
    "rank": 7,
    "team_name": "三重大学",
    "team_short_name": "三重",
    "runner_name": "粥見",
    "total_distance_km": 26.2,
    "latitude": 35.48552804261049,
    "longitude": 139.65229977400298,
    "is_shadow_confederation": false
  },
  {
    "rank": 8,
    "team_name": "四国大学",
    "team_short_name": "四国",
    "runner_name": "穴吹",
    "total_distance_km": 26.0,
    "latitude": 35.48596349955412,
    "longitude": 139.65443845583073,
    "is_shadow_confederation": false
  },
  {
    "rank": 9,
    "team_name": "関西大学",
    "team_short_name": "関大",
    "runner_name": "福崎",
    "total_distance_km": 25.7,
    "latitude": 35.48713965865893,
    "longitude": 139.65730443780774,
    "is_shadow_confederation": false
  },
  {
    "rank": 10,
    "team_name": "広島経済大学",
    "team_short_name": "広経",
    "runner_name": "三次",
    "total_distance_km": 25.1,
    "latitude": 35.49078027157325,
    "longitude": 139.66219381768013,
    "is_shadow_confederation": false
  },
  {
    "rank": 11,
    "team_name": "鳥取大学",
    "team_short_name": "鳥取",
    "runner_name": "川本",
    "total_distance_km": 24.3,
    "latitude": 35.49520474249155,
    "longitude": 139.66906388815931,
    "is_shadow_confederation": false
  },
  {
    "rank": 12,
    "team_name": "上武大学",
    "team_short_name": "上武",
    "runner_name": "佐野",
    "total_distance_km": 23.7,
    "latitude": 35.49910187089502,
    "longitude": 139.6736485602611,
    "is_shadow_confederation": false
  },
  {
    "rank": 13,
    "team_name": "金沢大学",
    "team_short_name": "金沢",
    "runner_name": "秋ヶ島",
    "total_distance_km": 22.6,
    "latitude": 35.50726365110624,
    "longitude": 139.68052496323168,
    "is_shadow_confederation": false
  },
  {
    "rank": 14,
    "team_name": "日本大学",
    "team_short_name": "日大",
    "runner_name": "大子",
    "total_distance_km": 22.3,
    "latitude": 35.50947575964131,
    "longitude": 139.6824266003934,
    "is_shadow_confederation": false
  },
  {
    "rank": 15,
    "team_name": "山梨学院大学",
    "team_short_name": "山学",
    "runner_name": "長野",
    "total_distance_km": 20.8,
    "latitude": 35.520749039835174,
    "longitude": 139.69138413816668,
    "is_shadow_confederation": false
  },
  {
    "rank": 16,
    "team_name": "福島大学",
    "team_short_name": "福島",
    "runner_name": "梁川",
    "total_distance_km": 18.8,
    "latitude": 35.5329978190983,
    "longitude": 139.7068990647243,
    "is_shadow_confederation": false
  },
  {
    "rank": 17,
    "team_name": "東北大学",
    "team_short_name": "東北",
    "runner_name": "帯広",
    "total_distance_km": 14.6,
    "latitude": 35.56615862260207,
    "longitude": 139.7281790063268,
    "is_shadow_confederation": false
  },
  {
    "rank": 18,
    "team_name": "学連選抜",
    "team_short_name": "学連",
    "runner_name": "美幌",
    "total_distance_km": 11.7,
    "latitude": 35.590729243659,
    "longitude": 139.73602568918113,
    "is_shadow_confederation": false
  }
]