[
  {
    "rank": 1,
    "team_name": "琉球大学",
    "team_short_name": "琉球",
    "runner_name": "波照間",
    "total_distance_km": 551.4,
    "latitude": 34.73688857416041,
    "longitude": 135.35299678165427,
    "is_shadow_confederation": false
  },
  {
    "rank": 2,
    "team_name": "熊本学園大学",
    "team_short_name": "熊学",
    "runner_name": "熊本",
    "total_distance_km": 521.5,
    "latitude": 34.77339668966089,
    "longitude": 135.6098537408494,
    "is_shadow_confederation": false
  },
  {
    "rank": 3,
    "team_name": "福岡大学",
    "team_short_name": "福岡",
    "runner_name": "前原",
    "total_distance_km": 505.7,
    "latitude": 34.86863218298617,
    "longitude": 135.72771695881897,
    "is_shadow_confederation": false
  },
  {
    "rank": 4,
    "team_name": "立命館大学",
    "team_short_name": "立命",
    "runner_name": "舞鶴",
    "total_distance_km": 497.8,
    "latitude": 34.936070453046305,
    "longitude": 135.74507612527384,
    "is_shadow_confederation": false
  },
  {
    "rank": 5,
    "team_name": "鹿児島大学",
    "team_short_name": "鹿大",
    "runner_name": "西都",
    "total_distance_km": 496.3,
    "latitude": 34.94958713760378,
    "longitude": 135.74548454064225,
    "is_shadow_confederation": false
  },
  {
    "rank": 6,
    "team_name": "名古屋大学",
    "team_short_name": "名大",
    "runner_name": "多治見",
    "total_distance_km": 495.3,
    "latitude": 34.9585982606421,
    "longitude": 135.7457568175545,
    "is_shadow_confederation": false
  },
  {
    "rank": 7,
    "team_name": "関西大学",
    "team_short_name": "関大",
    "runner_name": "枚方",
    "total_distance_km": 493.4,
    "latitude": 34.975714245205545,
    "longitude": 135.74615007784652,
    "is_shadow_confederation": false
  },
  {
    "rank": 8,
    "team_name": "広島経済大学",
    "team_short_name": "広経",
    "runner_name": "高梁",
    "total_distance_km": 490.8,
    "latitude": 34.99301462175654,
    "longitude": 135.7527011961732,
    "is_shadow_confederation": false
  },
  {
    "rank": 8,
    "team_name": "四国大学",
    "team_short_name": "四国",
    "runner_name": "大洲",
    "total_distance_km": 490.8,
    "latitude": 34.99301462175654,
    "longitude": 135.7527011961732,
    "is_shadow_confederation": false
  },
  {
    "rank": 10,
    "team_name": "鳥取大学",
    "team_short_name": "鳥取",
    "runner_name": "境",
    "total_distance_km": 489.1,
    "latitude": 34.99667104536787,
    "longitude": 135.76658221287587,
    "is_shadow_confederation": false
  },
  {
    "rank": 11,
    "team_name": "上武大学",
    "team_short_name": "上武",
    "runner_name": "桐生",
    "total_distance_km": 483.9,
    "latitude": 34.99640577699887,
    "longitude": 135.8007461733991,
    "is_shadow_confederation": false
  },
  {
    "rank": 12,
    "team_name": "金沢大学",
    "team_short_name": "金沢",
    "runner_name": "福井",
    "total_distance_km": 482.7,
    "latitude": 34.98984529761744,
    "longitude": 135.81083542318666,
    "is_shadow_confederation": false
  },
  {
    "rank": 13,
    "team_name": "山梨学院大学",
    "team_short_name": "山学",
    "runner_name": "甲府",
    "total_distance_km": 482.5,
    "latitude": 34.989815490077184,
    "longitude": 135.8130257149891,
    "is_shadow_confederation": false
  },
  {
    "rank": 14,
    "team_name": "三重大学",
    "team_short_name": "三重",
    "runner_name": "奈良",
    "total_distance_km": 482.1,
    "latitude": 34.98975587499667,
    "longitude": 135.81740629859397,
    "is_shadow_confederation": false
  },
  {
    "rank": 15,
    "team_name": "日本大学",
    "team_short_name": "日大",
    "runner_name": "牛久",
    "total_distance_km": 468.0,
    "latitude": 34.994323828275576,
    "longitude": 135.94078522892198,
    "is_shadow_confederation": false
  },
  {
    "rank": 16,
    "team_name": "福島大学",
    "team_short_name": "福島",
    "runner_name": "福島",
    "total_distance_km": 444.4,
    "latitude": 34.97809547669999,
    "longitude": 136.16430947967453,
    "is_shadow_confederation": false
  },
  {
    "rank": 17,
    "team_name": "東北大学",
    "team_short_name": "東北",
    "runner_name": "一関",
    "total_distance_km": 443.8,
    "latitude": 34.975711826617264,
    "longitude": 136.17015511635714,
    "is_shadow_confederation": false
  },
  {
    "rank": 18,
    "team_name": "学連選抜",
    "team_short_name": "学連",
    "runner_name": "久世",
    "total_distance_km": 423.2,
    "latitude": 34.889267518050836,
    "longitude": 136.3474319188996,
    "is_shadow_confederation": false
  }
]