[
  {
    "rank": 1,
    "team_name": "琉球大学",
    "team_short_name": "琉球",
    "runner_name": "ゴール",
    "total_distance_km": 1057.8,
    "latitude": 33.950916,
    "longitude": 130.924104,
    "is_shadow_confederation": false
  },
  {
    "rank": 2,
    "team_name": "鹿児島大学",
    "team_short_name": "鹿大",
    "runner_name": "喜入",
    "total_distance_km": 950.9,
    "latitude": 34.041146415662205,
    "longitude": 131.81838071844027,
    "is_shadow_confederation": false
  },
  {
    "rank": 3,
    "team_name": "熊本学園大学",
    "team_short_name": "熊学",
    "runner_name": "菊池",
    "total_distance_km": 903.2,
    "latitude": 34.190899450276014,
    "longitude": 132.2299020375787,
    "is_shadow_confederation": false
  },
  {
    "rank": 4,
    "team_name": "福岡大学",
    "team_short_name": "福岡",
    "runner_name": "佐賀（佐賀）",
    "total_distance_km": 890.4,
    "latitude": 34.285910388508,
    "longitude": 132.27017391470045,
    "is_shadow_confederation": false
  },
  {
    "rank": 5,
    "team_name": "四国大学",
    "team_short_name": "四国",
    "runner_name": "西条",
    "total_distance_km": 858.5,
    "latitude": 34.37173460782899,
    "longitude": 132.5399585672796,
    "is_shadow_confederation": false
  },
  {
    "rank": 6,
    "team_name": "広島経済大学",
    "team_short_name": "広経",
    "runner_name": "引田",
    "total_distance_km": 837.2,
    "latitude": 34.426894628294555,
    "longitude": 132.70988141838882,
    "is_shadow_confederation": false
  },
  {
    "rank": 7,
    "team_name": "関西大学",
    "team_short_name": "関大",
    "runner_name": "郡家",
    "total_distance_km": 823.8,
    "latitude": 34.408118029926555,
    "longitude": 132.83906649623626,
    "is_shadow_confederation": false
  },
  {
    "rank": 8,
    "team_name": "名古屋大学",
    "team_short_name": "名大",
    "runner_name": "大府",
    "total_distance_km": 817.4,
    "latitude": 34.38838453542816,
    "longitude": 132.8994016543334,
    "is_shadow_confederation": false
  },
  {
    "rank": 9,
    "team_name": "鳥取大学",
    "team_short_name": "鳥取",
    "runner_name": "玖珂",
    "total_distance_km": 814.9,
    "latitude": 34.398498845621,
    "longitude": 132.92241584232914,
    "is_shadow_confederation": false
  },
  {
    "rank": 10,
    "team_name": "三重大学",
    "team_short_name": "三重",
    "runner_name": "和歌山",
    "total_distance_km": 807.9,
    "latitude": 34.40600897279863,
    "longitude": 132.98527048895298,
    "is_shadow_confederation": false
  },
  {
    "rank": 11,
    "team_name": "立命館大学",
    "team_short_name": "立命",
    "runner_name": "京都",
    "total_distance_km": 775.9,
    "latitude": 34.4534971498422,
    "longitude": 133.25899634246795,
    "is_shadow_confederation": false
  },
  {
    "rank": 12,
    "team_name": "上武大学",
    "team_short_name": "上武",
    "runner_name": "前橋",
    "total_distance_km": 773.4,
    "latitude": 34.461399827401,
    "longitude": 133.28408592217883,
    "is_shadow_confederation": false
  },
  {
    "rank": 13,
    "team_name": "日本大学",
    "team_short_name": "日大",
    "runner_name": "府中（東京）",
    "total_distance_km": 769.2,
    "latitude": 34.48021312753137,
    "longitude": 133.32191605097634,
    "is_shadow_confederation": false
  },
  {
    "rank": 14,
    "team_name": "金沢大学",
    "team_short_name": "金沢",
    "runner_name": "小松",
    "total_distance_km": 764.9,
    "latitude": 34.485632092888636,
    "longitude": 133.3653745507051,
    "is_shadow_confederation": false
  },
  {
    "rank": 15,
    "team_name": "山梨学院大学",
    "team_short_name": "山学",
    "runner_name": "上田",
    "total_distance_km": 760.8,
    "latitude": 34.493313869218156,
    "longitude": 133.4083282507179,
    "is_shadow_confederation": false
  },
  {
    "rank": 16,
    "team_name": "学連選抜",
    "team_short_name": "学連",
    "runner_name": "加世田",
    "total_distance_km": 728.1,
    "latitude": 34.577061547386364,
    "longitude": 133.7159358531255,
    "is_shadow_confederation": false
  },
  {
    "rank": 17,
    "team_name": "福島大学",
    "team_short_name": "福島",
    "runner_name": "寺泊",
    "total_distance_km": 673.6,
    "latitude": 34.768828923793166,
    "longitude": 134.23252181815982,
    "is_shadow_confederation": false
  },
  {
    "rank": 18,
    "team_name": "東北大学",
    "team_short_name": "東北",
    "runner_name": "丸森",
    "total_distance_km": 581.7,
    "latitude": 34.628571243740645,
    "longitude": 135.06081440048396,
    "is_shadow_confederation": false
  }
]