[
  {
    "rank": 1,
    "team_name": "福岡大学",
    "team_short_name": "福岡",
    "runner_name": "久留米",
    "total_distance_km": 58.3,
    "latitude": 35.318261160910076,
    "longitude": 139.41258370131547,
    "is_shadow_confederation": false
  },
  {
    "rank": 2,
    "team_name": "熊本学園大学",
    "team_short_name": "熊学",
    "runner_name": "甲佐",
    "total_distance_km": 57.1,
    "latitude": 35.31959998951573,
    "longitude": 139.42546000584701,
    "is_shadow_confederation": false
  },
  {
    "rank": 3,
    "team_name": "金沢大学",
    "team_short_name": "金沢",
    "runner_name": "秋ヶ島",
    "total_distance_km": 56.3,
    "latitude": 35.32085817282958,
    "longitude": 139.43385972499448,
    "is_shadow_confederation": false
  },
  {
    "rank": 4,
    "team_name": "鹿児島大学",
    "team_short_name": "鹿大",
    "runner_name": "東市来",
    "total_distance_km": 55.8,
    "latitude": 35.323643866092965,
    "longitude": 139.43795675948348,
    "is_shadow_confederation": false
  },
  {
    "rank": 5,
    "team_name": "福島大学",
    "team_short_name": "福島",
    "runner_name": "梁川",
    "total_distance_km": 54.9,
    "latitude": 35.3263944544208,
    "longitude": 139.44718338841417,
    "is_shadow_confederation": false
  },
  {
    "rank": 6,
    "team_name": "上武大学",
    "team_short_name": "上武",
    "runner_name": "佐野",
    "total_distance_km": 54.8,
    "latitude": 35.32657169000045,
    "longitude": 139.44826173747464,
    "is_shadow_confederation": false
  },
  {
    "rank": 7,
    "team_name": "立命館大学",
    "team_short_name": "立命",
    "runner_name": "東近江",
    "total_distance_km": 54.3,
    "latitude": 35.327534068137645,
    "longitude": 139.45361312082113,
    "is_shadow_confederation": false
  },
  {
    "rank": 8,
    "team_name": "日本大学",
    "team_short_name": "日大",
    "runner_name": "大子",
    "total_distance_km": 53.8,
    "latitude": 35.33015759150245,
    "longitude": 139.45808462411566,
    "is_shadow_confederation": false
  },
  {
    "rank": 9,
    "team_name": "鳥取大学",
    "team_short_name": "鳥取",
    "runner_name": "川本",
    "total_distance_km": 53.2,
    "latitude": 35.333305819540215,
    "longitude": 139.46345042806908,
    "is_shadow_confederation": false
  },
  {
    "rank": 10,
    "team_name": "琉球大学",
    "team_short_name": "琉球",
    "runner_name": "北原",
    "total_distance_km": 53.0,
    "latitude": 35.33435522888614,
    "longitude": 139.46523902938688,
    "is_shadow_confederation": false
  },
  {
    "rank": 11,
    "team_name": "関西大学",
    "team_short_name": "関大",
    "runner_name": "福崎",
    "total_distance_km": 52.9,
    "latitude": 35.3348799335591,
    "longitude": 139.46613333004578,
    "is_shadow_confederation": false
  },
  {
    "rank": 12,
    "team_name": "四国大学",
    "team_short_name": "四国",
    "runner_name": "穴吹",
    "total_distance_km": 52.1,
    "latitude": 35.33605813397037,
    "longitude": 139.47412225765882,
    "is_shadow_confederation": false
  },
  {
    "rank": 13,
    "team_name": "名古屋大学",
    "team_short_name": "名大",
    "runner_name": "美濃加茂",
    "total_distance_km": 51.7,
    "latitude": 35.338690352064674,
    "longitude": 139.4770089922927,
    "is_shadow_confederation": false
  },
  {
    "rank": 14,
    "team_name": "広島経済大学",
    "team_short_name": "広経",
    "runner_name": "三次",
    "total_distance_km": 51.4,
    "latitude": 35.34083298252227,
    "longitude": 139.47879520927395,
    "is_shadow_confederation": false
  },
  {
    "rank": 15,
    "team_name": "山梨学院大学",
    "team_short_name": "山学",
    "runner_name": "長野",
    "total_distance_km": 50.1,
    "latitude": 35.34834198123936,
    "longitude": 139.48937418106362,
    "is_shadow_confederation": false
  },
  {
    "rank": 16,
    "team_name": "三重大学",
    "team_short_name": "三重",
    "runner_name": "粥見",
    "total_distance_km": 48.8,
    "latitude": 35.35931227617285,
    "longitude": 139.49392059540392,
    "is_shadow_confederation": false
  },
  {
    "rank": 17,
    "team_name": "東北大学",
    "team_short_name": "東北",
    "runner_name": "帯広",
    "total_distance_km": 33.9,
    "latitude": 35.44452653015909,
    "longitude": 139.59304738863284,
    "is_shadow_confederation": false
  },
  {
    "rank": 18,
    "team_name": "学連選抜",
    "team_short_name": "学連",
    "runner_name": "美幌",
    "total_distance_km": 22.1,
    "latitude": 35.51095049866469,
    "longitude": 139.6836943585012,
    "is_shadow_confederation": false
  }
]