[
  {
    "rank": 1,
    "team_name": "熊本学園大学",
    "team_short_name": "熊学",
    "runner_name": "岱明",
    "total_distance_km": 143.8,
    "latitude": 35.13186559096231,
    "longitude": 138.64370953033426,
    "is_shadow_confederation": false
  },
  {
    "rank": 2,
    "team_name": "琉球大学",
    "team_short_name": "琉球",
    "runner_name": "仲筋",
    "total_distance_km": 142.6,
    "latitude": 35.13579986136659,
    "longitude": 138.65597386746393,
    "is_shadow_confederation": false
  },
  {
    "rank": 3,
    "team_name": "福岡大学",
    "team_short_name": "福岡",
    "runner_name": "福岡",
    "total_distance_km": 142.1,
    "latitude": 35.137384615639455,
    "longitude": 138.66110997976253,
    "is_shadow_confederation": false
  },
  {
    "rank": 4,
    "team_name": "立命館大学",
    "team_short_name": "立命",
    "runner_name": "福知山",
    "total_distance_km": 138.7,
    "latitude": 35.144862301441954,
    "longitude": 138.69556299494664,
    "is_shadow_confederation": false
  },
  {
    "rank": 5,
    "team_name": "鹿児島大学",
    "team_short_name": "鹿大",
    "runner_name": "川内（鹿児島）",
    "total_distance_km": 137.5,
    "latitude": 35.1426333305764,
    "longitude": 138.70746290214956,
    "is_shadow_confederation": false
  },
  {
    "rank": 6,
    "team_name": "三重大学",
    "team_short_name": "三重",
    "runner_name": "五條",
    "total_distance_km": 136.2,
    "latitude": 35.14007005819721,
    "longitude": 138.7212920857706,
    "is_shadow_confederation": false
  },
  {
    "rank": 7,
    "team_name": "四国大学",
    "team_short_name": "四国",
    "runner_name": "大三島",
    "total_distance_km": 133.8,
    "latitude": 35.13495553348117,
    "longitude": 138.74681077360412,
    "is_shadow_confederation": false
  },
  {
    "rank": 8,
    "team_name": "名古屋大学",
    "team_short_name": "名大",
    "runner_name": "美濃",
    "total_distance_km": 133.3,
    "latitude": 35.133724098654874,
    "longitude": 138.75208813912207,
    "is_shadow_confederation": false
  },
  {
    "rank": 9,
    "team_name": "関西大学",
    "team_short_name": "関大",
    "runner_name": "和田山",
    "total_distance_km": 133.1,
    "latitude": 35.13323152472436,
    "longitude": 138.75419908532922,
    "is_shadow_confederation": false
  },
  {
    "rank": 10,
    "team_name": "広島経済大学",
    "team_short_name": "広経",
    "runner_name": "加計",
    "total_distance_km": 130.9,
    "latitude": 35.12825295217045,
    "longitude": 138.7775496574474,
    "is_shadow_confederation": false
  },
  {
    "rank": 11,
    "team_name": "鳥取大学",
    "team_short_name": "鳥取",
    "runner_name": "鳥取",
    "total_distance_km": 130.7,
    "latitude": 35.12775076351916,
    "longitude": 138.7796571055675,
    "is_shadow_confederation": false
  },
  {
    "rank": 12,
    "team_name": "金沢大学",
    "team_short_name": "金沢",
    "runner_name": "小浜",
    "total_distance_km": 130.4,
    "latitude": 35.126930972303086,
    "longitude": 138.7827842940146,
    "is_shadow_confederation": false
  },
  {
    "rank": 13,
    "team_name": "山梨学院大学",
    "team_short_name": "山学",
    "runner_name": "南信濃",
    "total_distance_km": 124.3,
    "latitude": 35.10166830490772,
    "longitude": 138.84157563848166,
    "is_shadow_confederation": false
  },
  {
    "rank": 14,
    "team_name": "上武大学",
    "team_short_name": "上武",
    "runner_name": "越谷",
    "total_distance_km": 122.3,
    "latitude": 35.099520895038054,
    "longitude": 138.86323885022753,
    "is_shadow_confederation": false
  },
  {
    "rank": 15,
    "team_name": "日本大学",
    "team_short_name": "日大",
    "runner_name": "古河",
    "total_distance_km": 119.6,
    "latitude": 35.10612508544001,
    "longitude": 138.89091362225656,
    "is_shadow_confederation": false
  },
  {
    "rank": 16,
    "team_name": "福島大学",
    "team_short_name": "福島",
    "runner_name": "梁川",
    "total_distance_km": 112.6,
    "latitude": 35.13626136329264,
    "longitude": 138.95446535238824,
    "is_shadow_confederation": false
  },
  {
    "rank": 17,
    "team_name": "東北大学",
    "team_short_name": "東北",
    "runner_name": "帯広",
    "total_distance_km": 98.0,
    "latitude": 35.196685045282806,
    "longitude": 139.05252468056634,
    "is_shadow_confederation": false
  },
  {
    "rank": 18,
    "team_name": "学連選抜",
    "team_short_name": "学連",
    "runner_name": "美幌",
    "total_distance_km": 80.2,
    "latitude": 35.267865467544794,
    "longitude": 139.1922339430796,
    "is_shadow_confederation": false
  }
]