[
  {
    "rank": 1,
    "team_name": "琉球大学",
    "team_short_name": "琉球",
    "runner_name": "久米島",
    "total_distance_km": 559.6,
    "latitude": 34.720426829051334,
    "longitude": 135.26726434071227,
    "is_shadow_confederation": false
  },
  {
    "rank": 2,
    "team_name": "鹿児島大学",
    "team_short_name": "鹿大",
    "runner_name": "西都",
    "total_distance_km": 439.0,
    "latitude": 34.95562844645062,
    "longitude": 136.21468648615343,
    "is_shadow_confederation": false
  },
  {
    "rank": 3,
    "team_name": "熊本学園大学",
    "team_short_name": "熊学",
    "runner_name": "熊本",
    "total_distance_km": 432.3,
    "latitude": 34.936849744978396,
    "longitude": 136.2825153777842,
    "is_shadow_confederation": false
  },
  {
    "rank": 4,
    "team_name": "福岡大学",
    "team_short_name": "福岡",
    "runner_name": "朝倉",
    "total_distance_km": 406.9,
    "latitude": 34.86191679993631,
    "longitude": 136.48606691990912,
    "is_shadow_confederation": false
  },
  {
    "rank": 5,
    "team_name": "名古屋大学",
    "team_short_name": "名大",
    "runner_name": "愛西",
    "total_distance_km": 379.4,
    "latitude": 35.02950579686886,
    "longitude": 136.67173866685226,
    "is_shadow_confederation": false
  },
  {
    "rank": 6,
    "team_name": "四国大学",
    "team_short_name": "四国",
    "runner_name": "松山",
    "total_distance_km": 373.0,
    "latitude": 35.08114056187984,
    "longitude": 136.69127772307473,
    "is_shadow_confederation": false
  },
  {
    "rank": 7,
    "team_name": "上武大学",
    "team_short_name": "上武",
    "runner_name": "寄居",
    "total_distance_km": 361.3,
    "latitude": 35.125370348228444,
    "longitude": 136.79796421377458,
    "is_shadow_confederation": false
  },
  {
    "rank": 8,
    "team_name": "広島経済大学",
    "team_short_name": "広経",
    "runner_name": "大竹",
    "total_distance_km": 360.2,
    "latitude": 35.126216924466995,
    "longitude": 136.80998832984648,
    "is_shadow_confederation": false
  },
  {
    "rank": 9,
    "team_name": "日本大学",
    "team_short_name": "日大",
    "runner_name": "小田原",
    "total_distance_km": 359.1,
    "latitude": 35.1262895903189,
    "longitude": 136.82204600069406,
    "is_shadow_confederation": false
  },
  {
    "rank": 10,
    "team_name": "三重大学",
    "team_short_name": "三重",
    "runner_name": "風屋",
    "total_distance_km": 358.0,
    "latitude": 35.124189696327115,
    "longitude": 136.83362588437282,
    "is_shadow_confederation": false
  },
  {
    "rank": 11,
    "team_name": "鳥取大学",
    "team_short_name": "鳥取",
    "runner_name": "防府",
    "total_distance_km": 353.3,
    "latitude": 35.12387895319547,
    "longitude": 136.8849303398183,
    "is_shadow_confederation": false
  },
  {
    "rank": 12,
    "team_name": "関西大学",
    "team_short_name": "関大",
    "runner_name": "柏原",
    "total_distance_km": 346.3,
    "latitude": 35.08686615546198,
    "longitude": 136.93333089477315,
    "is_shadow_confederation": false
  },
  {
    "rank": 13,
    "team_name": "立命館大学",
    "team_short_name": "立命",
    "runner_name": "米原",
    "total_distance_km": 341.9,
    "latitude": 35.064373516820396,
    "longitude": 136.9720000996047,
    "is_shadow_confederation": false
  },
  {
    "rank": 14,
    "team_name": "山梨学院大学",
    "team_short_name": "山学",
    "runner_name": "大月",
    "total_distance_km": 308.1,
    "latitude": 34.89169563162805,
    "longitude": 137.26145069308905,
    "is_shadow_confederation": false
  },
  {
    "rank": 15,
    "team_name": "福島大学",
    "team_short_name": "福島",
    "runner_name": "津川",
    "total_distance_km": 305.2,
    "latitude": 34.873313289193476,
    "longitude": 137.28214573043144,
    "is_shadow_confederation": false
  },
  {
    "rank": 16,
    "team_name": "金沢大学",
    "team_short_name": "金沢",
    "runner_name": "七尾",
    "total_distance_km": 285.1,
    "latitude": 34.74038703572259,
    "longitude": 137.42039700580648,
    "is_shadow_confederation": false
  },
  {
    "rank": 17,
    "team_name": "東北大学",
    "team_short_name": "東北",
    "runner_name": "高畠",
    "total_distance_km": 227.8,
    "latitude": 34.762894967229514,
    "longitude": 137.95792525713912,
    "is_shadow_confederation": false
  },
  {
    "rank": 18,
    "team_name": "学連選抜",
    "team_short_name": "学連",
    "runner_name": "新潟",
    "total_distance_km": 131.0,
    "latitude": 35.12850404649609,
    "longitude": 138.77649593338734,
    "is_shadow_confederation": false
  },
  {
    "rank": null,
    "team_name": "区間記録連合",
    "team_short_name": "区間記録",
    "runner_name": "勝沼",
    "total_distance_km": 575.9,
    "latitude": 34.64685825978711,
    "longitude": 135.11816612082072,
    "is_shadow_confederation": true
  }
]