[
  {
    "rank": 1,
    "team_name": "琉球大学",
    "team_short_name": "琉球",
    "runner_name": "名護",
    "total_distance_km": 364.4,
    "latitude": 35.12077243382409,
    "longitude": 136.7645330656597,
    "current_leg": 4,
    "is_shadow_confederation": false
  },
  {
    "rank": 2,
    "team_name": "名古屋大学",
    "team_short_name": "名大",
    "runner_name": "大垣",
    "total_distance_km": 332.3,
    "latitude": 35.008966570383734,
    "longitude": 137.04928753040213,
    "current_leg": 4,
    "is_shadow_confederation": false
  },
  {
    "rank": 3,
    "team_name": "鹿児島大学",
    "team_short_name": "鹿大",
    "runner_name": "加久藤",
    "total_distance_km": 330.2,
    "latitude": 34.997530402933386,
    "longitude": 137.06705248584228,
    "current_leg": 4,
    "is_shadow_confederation": false
  },
  {
    "rank": 4,
    "team_name": "熊本学園大学",
    "team_short_name": "熊学",
    "runner_name": "八代",
    "total_distance_km": 320.0,
    "latitude": 34.95668267855415,
    "longitude": 137.16529331008584,
    "current_leg": 4,
    "is_shadow_confederation": false
  },
  {
    "rank": 5,
    "team_name": "立命館大学",
    "team_short_name": "立命",
    "runner_name": "京田辺",
    "total_distance_km": 319.7,
    "latitude": 34.95580466380111,
    "longitude": 137.16839985949468,
    "current_leg": 4,
    "is_shadow_confederation": false
  },
  {
    "rank": 6,
    "team_name": "福岡大学",
    "team_short_name": "福岡",
    "runner_name": "黒木",
    "total_distance_km": 319.5,
    "latitude": 34.95522507889159,
    "longitude": 137.17047328332038,
    "current_leg": 4,
    "is_shadow_confederation": false
  },
  {
    "rank": 7,
    "team_name": "鳥取大学",
    "team_short_name": "鳥取",
    "runner_name": "広瀬",
    "total_distance_km": 318.6,
    "latitude": 34.95145039472363,
    "longitude": 137.17906127457334,
    "current_leg": 4,
    "is_shadow_confederation": false
  },
  {
    "rank": 8,
    "team_name": "関西大学",
    "team_short_name": "関大",
    "runner_name": "上郡",
    "total_distance_km": 316.7,
    "latitude": 34.93968927865748,
    "longitude": 137.19357860680321,
    "current_leg": 4,
    "is_shadow_confederation": false
  },
  {
    "rank": 9,
    "team_name": "金沢大学",
    "team_short_name": "金沢",
    "runner_name": "七尾",
    "total_distance_km": 312.9,
    "latitude": 34.91435292967525,
    "longitude": 137.2185882019947,
    "current_leg": 4,
    "is_shadow_confederation": false
  },
  {
    "rank": 10,
    "team_name": "四国大学",
    "team_short_name": "四国",
    "runner_name": "御荘",
    "total_distance_km": 311.2,
    "latitude": 34.90579190775581,
    "longitude": 137.2333455503364,
    "current_leg": 4,
    "is_shadow_confederation": false
  },
  {
    "rank": 11,
    "team_name": "三重大学",
    "team_short_name": "三重",
    "runner_name": "小俣",
    "total_distance_km": 310.3,
    "latitude": 34.89998230111816,
    "longitude": 137.239941853672,
    "current_leg": 4,
    "is_shadow_confederation": false
  },
  {
    "rank": 12,
    "team_name": "上武大学",
    "team_short_name": "上武",
    "runner_name": "熊谷",
    "total_distance_km": 309.8,
    "latitude": 34.89832161733107,
    "longitude": 137.24497581634932,
    "current_leg": 3,
    "is_shadow_confederation": false
  },
  {
    "rank": 13,
    "team_name": "日本大学",
    "team_short_name": "日大",
    "runner_name": "下館",
    "total_distance_km": 308.3,
    "latitude": 34.89274263020107,
    "longitude": 137.25967125916705,
    "current_leg": 3,
    "is_shadow_confederation": false
  },
  {
    "rank": 14,
    "team_name": "山梨学院大学",
    "team_short_name": "山学",
    "runner_name": "大月",
    "total_distance_km": 305.1,
    "latitude": 34.872817593746355,
    "longitude": 137.2830592682284,
    "current_leg": 3,
    "is_shadow_confederation": false
  },
  {
    "rank": 15,
    "team_name": "広島経済大学",
    "team_short_name": "広経",
    "runner_name": "府中（広島）",
    "total_distance_km": 300.4,
    "latitude": 34.84568189158733,
    "longitude": 137.32095671084252,
    "current_leg": 3,
    "is_shadow_confederation": false
  },
  {
    "rank": 16,
    "team_name": "東北大学",
    "team_short_name": "東北",
    "runner_name": "高畠",
    "total_distance_km": 293.5,
    "latitude": 34.79744725974658,
    "longitude": 137.36702667328663,
    "current_leg": 3,
    "is_shadow_confederation": false
  },
  {
    "rank": 17,
    "team_name": "福島大学",
    "team_short_name": "福島",
    "runner_name": "津川",
    "total_distance_km": 291.2,
    "latitude": 34.781180783438714,
    "longitude": 137.3826032185067,
    "current_leg": 3,
    "is_shadow_confederation": false
  },
  {
    "rank": 18,
    "team_name": "学連選抜",
    "team_short_name": "学連",
    "runner_name": "大村",
    "total_distance_km": 282.3,
    "latitude": 34.72302229405883,
    "longitude": 137.43772063072146,
    "current_leg": 3,
    "is_shadow_confederation": false
  },
  {
    "rank": null,
    "team_name": "区間記録連合",
    "team_short_name": "区間記録",
    "runner_name": "風屋",
    "total_distance_km": 405.7,
    "latitude": 34.871360832002345,
    "longitude": 136.49234364375002,
    "current_leg": 5,
    "is_shadow_confederation": true
  }
]