[
  {
    "rank": 1,
    "team_name": "四国大学",
    "team_short_name": "四国",
    "runner_name": "大三島",
    "total_distance_km": 171.1,
    "latitude": 34.99867615018987,
    "longitude": 138.43051213961638,
    "is_shadow_confederation": false
  },
  {
    "rank": 2,
    "team_name": "名古屋大学",
    "team_short_name": "名大",
    "runner_name": "美濃",
    "total_distance_km": 169.0,
    "latitude": 35.010302589754595,
    "longitude": 138.4486654138449,
    "is_shadow_confederation": false
  },
  {
    "rank": 3,
    "team_name": "立命館大学",
    "team_short_name": "立命",
    "runner_name": "福知山",
    "total_distance_km": 168.8,
    "latitude": 35.01140986971314,
    "longitude": 138.45039429710476,
    "is_shadow_confederation": false
  },
  {
    "rank": 4,
    "team_name": "金沢大学",
    "team_short_name": "金沢",
    "runner_name": "小浜",
    "total_distance_km": 168.7,
    "latitude": 35.011963509692414,
    "longitude": 138.45125873873468,
    "is_shadow_confederation": false
  },
  {
    "rank": 5,
    "team_name": "福岡大学",
    "team_short_name": "福岡",
    "runner_name": "福岡",
    "total_distance_km": 167.6,
    "latitude": 35.01623135363531,
    "longitude": 138.461971397247,
    "is_shadow_confederation": false
  },
  {
    "rank": 6,
    "team_name": "関西大学",
    "team_short_name": "関大",
    "runner_name": "和田山",
    "total_distance_km": 167.3,
    "latitude": 35.016717605565624,
    "longitude": 138.46520479829974,
    "is_shadow_confederation": false
  },
  {
    "rank": 7,
    "team_name": "日本大学",
    "team_short_name": "日大",
    "runner_name": "古河",
    "total_distance_km": 166.9,
    "latitude": 35.01736594147271,
    "longitude": 138.4695159997034,
    "is_shadow_confederation": false
  },
  {
    "rank": 8,
    "team_name": "上武大学",
    "team_short_name": "上武",
    "runner_name": "越谷",
    "total_distance_km": 166.7,
    "latitude": 35.017690109426255,
    "longitude": 138.47167160040522,
    "is_shadow_confederation": false
  },
  {
    "rank": 9,
    "team_name": "熊本学園大学",
    "team_short_name": "熊学",
    "runner_name": "岱明",
    "total_distance_km": 166.3,
    "latitude": 35.018943514983036,
    "longitude": 138.47549769600514,
    "is_shadow_confederation": false
  },
  {
    "rank": 10,
    "team_name": "琉球大学",
    "team_short_name": "琉球",
    "runner_name": "仲筋",
    "total_distance_km": 165.5,
    "latitude": 35.02393990278337,
    "longitude": 138.48094549257246,
    "is_shadow_confederation": false
  },
  {
    "rank": 11,
    "team_name": "鳥取大学",
    "team_short_name": "鳥取",
    "runner_name": "鳥取",
    "total_distance_km": 164.9,
    "latitude": 35.023794422916794,
    "longitude": 138.4872226613922,
    "is_shadow_confederation": false
  },
  {
    "rank": 12,
    "team_name": "広島経済大学",
    "team_short_name": "広経",
    "runner_name": "加計",
    "total_distance_km": 164.7,
    "latitude": 35.02558373064452,
    "longitude": 138.48738499759773,
    "is_shadow_confederation": false
  },
  {
    "rank": 13,
    "team_name": "三重大学",
    "team_short_name": "三重",
    "runner_name": "五條",
    "total_distance_km": 162.2,
    "latitude": 35.04414758616651,
    "longitude": 138.50122472903863,
    "is_shadow_confederation": false
  },
  {
    "rank": 14,
    "team_name": "鹿児島大学",
    "team_short_name": "鹿大",
    "runner_name": "川内（鹿児島）",
    "total_distance_km": 161.3,
    "latitude": 35.04661951525662,
    "longitude": 138.5103643909131,
    "is_shadow_confederation": false
  },
  {
    "rank": 15,
    "team_name": "福島大学",
    "team_short_name": "福島",
    "runner_name": "石川",
    "total_distance_km": 160.7,
    "latitude": 35.04793425133778,
    "longitude": 138.51638960104287,
    "is_shadow_confederation": false
  },
  {
    "rank": 16,
    "team_name": "山梨学院大学",
    "team_short_name": "山学",
    "runner_name": "南信濃",
    "total_distance_km": 159.2,
    "latitude": 35.0553159026638,
    "longitude": 138.5300973533339,
    "is_shadow_confederation": false
  },
  {
    "rank": 17,
    "team_name": "東北大学",
    "team_short_name": "東北",
    "runner_name": "山形（山形）",
    "total_distance_km": 130.8,
    "latitude": 35.12800185784481,
    "longitude": 138.77860338150745,
    "is_shadow_confederation": false
  },
  {
    "rank": 18,
    "team_name": "学連選抜",
    "team_short_name": "学連",
    "runner_name": "美幌",
    "total_distance_km": 123.9,
    "latitude": 35.10098896448105,
    "longitude": 138.84587786001862,
    "is_shadow_confederation": false
  },
  {
    "rank": null,
    "team_name": "区間記録連合",
    "team_short_name": "区間記録",
    "runner_name": "佐野",
    "total_distance_km": 189.9,
    "latitude": 34.90265173271804,
    "longitude": 138.28484853028857,
    "is_shadow_confederation": true
  }
]