[
  {
    "rank": 1,
    "team_name": "琉球大学",
    "team_short_name": "琉球",
    "runner_name": "西表島",
    "total_distance_km": 779.0,
    "latitude": 34.438867112440484,
    "longitude": 133.23138489476122,
    "is_shadow_confederation": false
  },
  {
    "rank": 2,
    "team_name": "鹿児島大学",
    "team_short_name": "鹿大",
    "runner_name": "鹿児島",
    "total_distance_km": 672.6,
    "latitude": 34.774532329767275,
    "longitude": 134.24077414280222,
    "is_shadow_confederation": false
  },
  {
    "rank": 3,
    "team_name": "熊本学園大学",
    "team_short_name": "熊学",
    "runner_name": "大分",
    "total_distance_km": 654.8,
    "latitude": 34.82835982201085,
    "longitude": 134.385365232769,
    "is_shadow_confederation": false
  },
  {
    "rank": 4,
    "team_name": "福岡大学",
    "team_short_name": "福岡",
    "runner_name": "博多",
    "total_distance_km": 628.9,
    "latitude": 34.84475210906656,
    "longitude": 134.6433576633749,
    "is_shadow_confederation": false
  },
  {
    "rank": 5,
    "team_name": "四国大学",
    "team_short_name": "四国",
    "runner_name": "徳島",
    "total_distance_km": 603.0,
    "latitude": 34.73107210917209,
    "longitude": 134.87835584306512,
    "is_shadow_confederation": false
  },
  {
    "rank": 6,
    "team_name": "広島経済大学",
    "team_short_name": "広経",
    "runner_name": "高松（香川）",
    "total_distance_km": 583.1,
    "latitude": 34.62807164142395,
    "longitude": 135.04556226162336,
    "is_shadow_confederation": false
  },
  {
    "rank": 7,
    "team_name": "鳥取大学",
    "team_short_name": "鳥取",
    "runner_name": "松江",
    "total_distance_km": 569.1,
    "latitude": 34.68183002557242,
    "longitude": 135.17828056897906,
    "is_shadow_confederation": false
  },
  {
    "rank": 8,
    "team_name": "名古屋大学",
    "team_short_name": "名大",
    "runner_name": "豊田（愛知）",
    "total_distance_km": 568.9,
    "latitude": 34.68337987003755,
    "longitude": 135.1792695160856,
    "is_shadow_confederation": false
  },
  {
    "rank": 9,
    "team_name": "関西大学",
    "team_short_name": "関大",
    "runner_name": "豊中",
    "total_distance_km": 565.0,
    "latitude": 34.701924224063674,
    "longitude": 135.2146979377158,
    "is_shadow_confederation": false
  },
  {
    "rank": 10,
    "team_name": "立命館大学",
    "team_short_name": "立命",
    "runner_name": "彦根",
    "total_distance_km": 554.5,
    "latitude": 34.73522770791169,
    "longitude": 135.3198861717319,
    "is_shadow_confederation": false
  },
  {
    "rank": 10,
    "team_name": "三重大学",
    "team_short_name": "三重",
    "runner_name": "新宮",
    "total_distance_km": 554.5,
    "latitude": 34.73522770791169,
    "longitude": 135.3198861717319,
    "is_shadow_confederation": false
  },
  {
    "rank": 12,
    "team_name": "日本大学",
    "team_short_name": "日大",
    "runner_name": "八王子",
    "total_distance_km": 536.9,
    "latitude": 34.69811985171501,
    "longitude": 135.49389384531113,
    "is_shadow_confederation": false
  },
  {
    "rank": 13,
    "team_name": "上武大学",
    "team_short_name": "上武",
    "runner_name": "桐生",
    "total_distance_km": 533.5,
    "latitude": 34.69812894271542,
    "longitude": 135.53056289591262,
    "is_shadow_confederation": false
  },
  {
    "rank": 14,
    "team_name": "金沢大学",
    "team_short_name": "金沢",
    "runner_name": "福井",
    "total_distance_km": 531.4,
    "latitude": 34.706182045388154,
    "longitude": 135.54620195197265,
    "is_shadow_confederation": false
  },
  {
    "rank": 15,
    "team_name": "山梨学院大学",
    "team_short_name": "山学",
    "runner_name": "甲府",
    "total_distance_km": 506.7,
    "latitude": 34.86262248285666,
    "longitude": 135.71975572346568,
    "is_shadow_confederation": false
  },
  {
    "rank": 16,
    "team_name": "福島大学",
    "team_short_name": "福島",
    "runner_name": "福島",
    "total_distance_km": 469.2,
    "latitude": 34.98749548671669,
    "longitude": 135.9306666223427,
    "is_shadow_confederation": false
  },
  {
    "rank": 17,
    "team_name": "学連選抜",
    "team_short_name": "学連",
    "runner_name": "久世",
    "total_distance_km": 465.3,
    "latitude": 35.011698038068324,
    "longitude": 135.96139801292335,
    "is_shadow_confederation": false
  },
  {
    "rank": 18,
    "team_name": "東北大学",
    "team_short_name": "東北",
    "runner_name": "大館",
    "total_distance_km": 392.5,
    "latitude": 34.93451530813792,
    "longitude": 136.59629082478193,
    "is_shadow_confederation": false
  }
]