[
  {
    "rank": 1,
    "team_name": "琉球大学",
    "team_short_name": "琉球",
    "runner_name": "ゴール",
    "total_distance_km": 1057.8,
    "latitude": 33.950916,
    "longitude": 130.924104,
    "is_shadow_confederation": false
  },
  {
    "rank": 2,
    "team_name": "鹿児島大学",
    "team_short_name": "鹿大",
    "runner_name": "ゴール",
    "total_distance_km": 1056.2,
    "latitude": 33.95222710186592,
    "longitude": 130.9325647285639,
    "is_shadow_confederation": false
  },
  {
    "rank": 3,
    "team_name": "熊本学園大学",
    "team_short_name": "熊学",
    "runner_name": "ゴール",
    "total_distance_km": 1071.9,
    "latitude": 33.950916,
    "longitude": 130.924104,
    "is_shadow_confederation": false
  },
  {
    "rank": 4,
    "team_name": "福岡大学",
    "team_short_name": "福岡",
    "runner_name": "ゴール",
    "total_distance_km": 1073.5,
    "latitude": 33.950916,
    "longitude": 130.924104,
    "is_shadow_confederation": false
  },
  {
    "rank": 5,
    "team_name": "四国大学",
    "team_short_name": "四国",
    "runner_name": "ゴール",
    "total_distance_km": 1062.7,
    "latitude": 33.950916,
    "longitude": 130.924104,
    "is_shadow_confederation": false
  },
  {
    "rank": 6,
    "team_name": "広島経済大学",
    "team_short_name": "広経",
    "runner_name": "ゴール",
    "total_distance_km": 1055.6,
    "latitude": 33.952056066892375,
    "longitude": 130.9387977096387,
    "is_shadow_confederation": false
  },
  {
    "rank": 7,
    "team_name": "関西大学",
    "team_short_name": "関大",
    "runner_name": "大阪",
    "total_distance_km": 1058.2,
    "latitude": 33.950916,
    "longitude": 130.924104,
    "is_shadow_confederation": false
  },
  {
    "rank": 8,
    "team_name": "鳥取大学",
    "team_short_name": "鳥取",
    "runner_name": "山口（山口）",
    "total_distance_km": 1055.3,
    "latitude": 33.9544380805204,
    "longitude": 130.9403348987034,
    "is_shadow_confederation": false
  },
  {
    "rank": 9,
    "team_name": "名古屋大学",
    "team_short_name": "名大",
    "runner_name": "岐阜",
    "total_distance_km": 1047.1,
    "latitude": 34.00599851501411,
    "longitude": 130.9940162875649,
    "is_shadow_confederation": false
  },
  {
    "rank": 10,
    "team_name": "三重大学",
    "team_short_name": "三重",
    "runner_name": "桑名",
    "total_distance_km": 1043.1,
    "latitude": 34.03778555304369,
    "longitude": 131.01115065885634,
    "is_shadow_confederation": false
  },
  {
    "rank": 11,
    "team_name": "日本大学",
    "team_short_name": "日大",
    "runner_name": "青梅",
    "total_distance_km": 1012.8,
    "latitude": 34.04066549825044,
    "longitude": 131.27645237311864,
    "is_shadow_confederation": false
  },
  {
    "rank": 12,
    "team_name": "上武大学",
    "team_short_name": "上武",
    "runner_name": "鳩山",
    "total_distance_km": 1012.1,
    "latitude": 34.04535748047848,
    "longitude": 131.28052392305705,
    "is_shadow_confederation": false
  },
  {
    "rank": 13,
    "team_name": "立命館大学",
    "team_short_name": "立命",
    "runner_name": "大津（滋賀）",
    "total_distance_km": 1003.8,
    "latitude": 34.05561765760929,
    "longitude": 131.35358980200124,
    "is_shadow_confederation": false
  },
  {
    "rank": 14,
    "team_name": "金沢大学",
    "team_short_name": "金沢",
    "runner_name": "加賀中津原",
    "total_distance_km": 973.2,
    "latitude": 34.042637257079285,
    "longitude": 131.62569621898828,
    "is_shadow_confederation": false
  },
  {
    "rank": 15,
    "team_name": "山梨学院大学",
    "team_short_name": "山学",
    "runner_name": "勝沼",
    "total_distance_km": 965.8,
    "latitude": 34.07492153770136,
    "longitude": 131.68948495039035,
    "is_shadow_confederation": false
  },
  {
    "rank": 16,
    "team_name": "学連選抜",
    "team_short_name": "学連",
    "runner_name": "恵那",
    "total_distance_km": 953.7,
    "latitude": 34.05972654141991,
    "longitude": 131.80061414895738,
    "is_shadow_confederation": false
  },
  {
    "rank": 17,
    "team_name": "福島大学",
    "team_short_name": "福島",
    "runner_name": "喜多方",
    "total_distance_km": 836.7,
    "latitude": 34.42435513254137,
    "longitude": 132.71437521278128,
    "is_shadow_confederation": false
  },
  {
    "rank": 18,
    "team_name": "東北大学",
    "team_short_name": "東北",
    "runner_name": "東根",
    "total_distance_km": 755.7,
    "latitude": 34.50427605487046,
    "longitude": 133.45660068169823,
    "is_shadow_confederation": false
  }
]