[
  {
    "rank": 1,
    "team_name": "琉球大学",
    "team_short_name": "琉球",
    "runner_name": "波照間",
    "total_distance_km": 485.3,
    "latitude": 35.00459117479634,
    "longitude": 135.79098516961793,
    "is_shadow_confederation": false
  },
  {
    "rank": 2,
    "team_name": "熊本学園大学",
    "team_short_name": "熊学",
    "runner_name": "熊本",
    "total_distance_km": 471.3,
    "latitude": 34.97825236291603,
    "longitude": 135.91125702097438,
    "is_shadow_confederation": false
  },
  {
    "rank": 3,
    "team_name": "福岡大学",
    "team_short_name": "福岡",
    "runner_name": "前原",
    "total_distance_km": 455.1,
    "latitude": 35.015427546638755,
    "longitude": 136.06136388234262,
    "is_shadow_confederation": false
  },
  {
    "rank": 4,
    "team_name": "鹿児島大学",
    "team_short_name": "鹿大",
    "runner_name": "西都",
    "total_distance_km": 449.6,
    "latitude": 34.9867434439819,
    "longitude": 136.11042922332368,
    "is_shadow_confederation": false
  },
  {
    "rank": 5,
    "team_name": "立命館大学",
    "team_short_name": "立命",
    "runner_name": "舞鶴",
    "total_distance_km": 448.6,
    "latitude": 34.98572457823935,
    "longitude": 136.11981443300243,
    "is_shadow_confederation": false
  },
  {
    "rank": 6,
    "team_name": "関西大学",
    "team_short_name": "関大",
    "runner_name": "枚方",
    "total_distance_km": 445.5,
    "latitude": 34.98104817956371,
    "longitude": 136.15280969538875,
    "is_shadow_confederation": false
  },
  {
    "rank": 7,
    "team_name": "名古屋大学",
    "team_short_name": "名大",
    "runner_name": "多治見",
    "total_distance_km": 445.1,
    "latitude": 34.98000526925136,
    "longitude": 136.1570031457204,
    "is_shadow_confederation": false
  },
  {
    "rank": 8,
    "team_name": "四国大学",
    "team_short_name": "四国",
    "runner_name": "大洲",
    "total_distance_km": 444.6,
    "latitude": 34.978645448330155,
    "longitude": 136.1622235969349,
    "is_shadow_confederation": false
  },
  {
    "rank": 9,
    "team_name": "広島経済大学",
    "team_short_name": "広経",
    "runner_name": "高梁",
    "total_distance_km": 444.2,
    "latitude": 34.97754550506982,
    "longitude": 136.16639536241416,
    "is_shadow_confederation": false
  },
  {
    "rank": 10,
    "team_name": "鳥取大学",
    "team_short_name": "鳥取",
    "runner_name": "境",
    "total_distance_km": 439.8,
    "latitude": 34.95789798211657,
    "longitude": 136.2064034391436,
    "is_shadow_confederation": false
  },
  {
    "rank": 11,
    "team_name": "上武大学",
    "team_short_name": "上武",
    "runner_name": "桐生",
    "total_distance_km": 436.1,
    "latitude": 34.944933683904274,
    "longitude": 136.2431783696799,
    "is_shadow_confederation": false
  },
  {
    "rank": 12,
    "team_name": "三重大学",
    "team_short_name": "三重",
    "runner_name": "奈良",
    "total_distance_km": 434.0,
    "latitude": 34.93823546734179,
    "longitude": 136.26434756946315,
    "is_shadow_confederation": false
  },
  {
    "rank": 13,
    "team_name": "金沢大学",
    "team_short_name": "金沢",
    "runner_name": "福井",
    "total_distance_km": 431.8,
    "latitude": 34.934941903408514,
    "longitude": 136.2873326556459,
    "is_shadow_confederation": false
  },
  {
    "rank": 14,
    "team_name": "山梨学院大学",
    "team_short_name": "山学",
    "runner_name": "甲府",
    "total_distance_km": 428.1,
    "latitude": 34.915271440750914,
    "longitude": 136.31899933865262,
    "is_shadow_confederation": false
  },
  {
    "rank": 15,
    "team_name": "日本大学",
    "team_short_name": "日大",
    "runner_name": "牛久",
    "total_distance_km": 427.7,
    "latitude": 34.912407308201054,
    "longitude": 136.32159914152012,
    "is_shadow_confederation": false
  },
  {
    "rank": 16,
    "team_name": "福島大学",
    "team_short_name": "福島",
    "runner_name": "長岡",
    "total_distance_km": 406.3,
    "latitude": 34.86648563361647,
    "longitude": 136.48950685124245,
    "is_shadow_confederation": false
  },
  {
    "rank": 17,
    "team_name": "東北大学",
    "team_short_name": "東北",
    "runner_name": "大館",
    "total_distance_km": 395.0,
    "latitude": 34.91809607780605,
    "longitude": 136.57884787605977,
    "is_shadow_confederation": false
  },
  {
    "rank": 18,
    "team_name": "学連選抜",
    "team_short_name": "学連",
    "runner_name": "上",
    "total_distance_km": 383.3,
    "latitude": 35.000651124488975,
    "longitude": 136.6526622502508,
    "is_shadow_confederation": false
  }
]