[
  {
    "rank": 1,
    "team_name": "琉球大学",
    "team_short_name": "琉球",
    "runner_name": "盛山",
    "total_distance_km": 249.3,
    "latitude": 34.7080712114296,
    "longitude": 137.74459976667865,
    "is_shadow_confederation": false
  },
  {
    "rank": 2,
    "team_name": "熊本学園大学",
    "team_short_name": "熊学",
    "runner_name": "八代",
    "total_distance_km": 239.0,
    "latitude": 34.72464816986833,
    "longitude": 137.84748662035062,
    "is_shadow_confederation": false
  },
  {
    "rank": 3,
    "team_name": "鹿児島大学",
    "team_short_name": "鹿大",
    "runner_name": "加久藤",
    "total_distance_km": 235.1,
    "latitude": 34.73779572381646,
    "longitude": 137.88508813232514,
    "is_shadow_confederation": false
  },
  {
    "rank": 4,
    "team_name": "福岡大学",
    "team_short_name": "福岡",
    "runner_name": "福岡",
    "total_distance_km": 227.8,
    "latitude": 34.762894967229514,
    "longitude": 137.95792525713912,
    "is_shadow_confederation": false
  },
  {
    "rank": 5,
    "team_name": "四国大学",
    "team_short_name": "四国",
    "runner_name": "大三島",
    "total_distance_km": 209.4,
    "latitude": 34.82311893769684,
    "longitude": 138.12056904200153,
    "is_shadow_confederation": false
  },
  {
    "rank": 6,
    "team_name": "広島経済大学",
    "team_short_name": "広経",
    "runner_name": "加計",
    "total_distance_km": 205.8,
    "latitude": 34.839766175213185,
    "longitude": 138.13760768529195,
    "is_shadow_confederation": false
  },
  {
    "rank": 7,
    "team_name": "関西大学",
    "team_short_name": "関大",
    "runner_name": "和田山",
    "total_distance_km": 199.7,
    "latitude": 34.85375770418336,
    "longitude": 138.20072923441376,
    "is_shadow_confederation": false
  },
  {
    "rank": 8,
    "team_name": "鳥取大学",
    "team_short_name": "鳥取",
    "runner_name": "鳥取",
    "total_distance_km": 199.2,
    "latitude": 34.85542756216799,
    "longitude": 138.2058075319925,
    "is_shadow_confederation": false
  },
  {
    "rank": 9,
    "team_name": "立命館大学",
    "team_short_name": "立命",
    "runner_name": "福知山",
    "total_distance_km": 198.7,
    "latitude": 34.85910988097924,
    "longitude": 138.20868493116552,
    "is_shadow_confederation": false
  },
  {
    "rank": 10,
    "team_name": "三重大学",
    "team_short_name": "三重",
    "runner_name": "五條",
    "total_distance_km": 197.9,
    "latitude": 34.86549642726971,
    "longitude": 138.212747599464,
    "is_shadow_confederation": false
  },
  {
    "rank": 11,
    "team_name": "名古屋大学",
    "team_short_name": "名大",
    "runner_name": "美濃",
    "total_distance_km": 193.0,
    "latitude": 34.889242573635435,
    "longitude": 138.25569748377416,
    "is_shadow_confederation": false
  },
  {
    "rank": 12,
    "team_name": "金沢大学",
    "team_short_name": "金沢",
    "runner_name": "小浜",
    "total_distance_km": 187.1,
    "latitude": 34.92399268508156,
    "longitude": 138.29672696255847,
    "is_shadow_confederation": false
  },
  {
    "rank": 13,
    "team_name": "上武大学",
    "team_short_name": "上武",
    "runner_name": "越谷",
    "total_distance_km": 182.0,
    "latitude": 34.95114064974302,
    "longitude": 138.33537360487665,
    "is_shadow_confederation": false
  },
  {
    "rank": 14,
    "team_name": "日本大学",
    "team_short_name": "日大",
    "runner_name": "古河",
    "total_distance_km": 175.3,
    "latitude": 34.97547172052825,
    "longitude": 138.3946786531256,
    "is_shadow_confederation": false
  },
  {
    "rank": 15,
    "team_name": "山梨学院大学",
    "team_short_name": "山学",
    "runner_name": "南信濃",
    "total_distance_km": 169.5,
    "latitude": 35.00753438985823,
    "longitude": 138.44434320569525,
    "is_shadow_confederation": false
  },
  {
    "rank": 16,
    "team_name": "福島大学",
    "team_short_name": "福島",
    "runner_name": "石川",
    "total_distance_km": 161.2,
    "latitude": 35.04686128111264,
    "longitude": 138.51142028204785,
    "is_shadow_confederation": false
  },
  {
    "rank": 17,
    "team_name": "東北大学",
    "team_short_name": "東北",
    "runner_name": "山形（山形）",
    "total_distance_km": 118.0,
    "latitude": 35.11513347485743,
    "longitude": 138.90400335687335,
    "is_shadow_confederation": false
  },
  {
    "rank": 18,
    "team_name": "学連選抜",
    "team_short_name": "学連",
    "runner_name": "美幌",
    "total_distance_km": 104.3,
    "latitude": 35.17186005659459,
    "longitude": 139.00797511018357,
    "is_shadow_confederation": false
  }
]