[
  {
    "rank": 1,
    "team_name": "琉球大学",
    "team_short_name": "琉球",
    "runner_name": "北原",
    "total_distance_km": 20.2,
    "latitude": 35.523784979191845,
    "longitude": 139.69685836158726,
    "is_shadow_confederation": false
  },
  {
    "rank": 2,
    "team_name": "鹿児島大学",
    "team_short_name": "鹿大",
    "runner_name": "東市来",
    "total_distance_km": 13.6,
    "latitude": 35.57396797626799,
    "longitude": 139.7336017931206,
    "is_shadow_confederation": false
  },
  {
    "rank": 3,
    "team_name": "熊本学園大学",
    "team_short_name": "熊学",
    "runner_name": "甲佐",
    "total_distance_km": 12.5,
    "latitude": 35.5835472598867,
    "longitude": 139.73627554858814,
    "is_shadow_confederation": false
  },
  {
    "rank": 4,
    "team_name": "福岡大学",
    "team_short_name": "福岡",
    "runner_name": "久留米",
    "total_distance_km": 11.1,
    "latitude": 35.59601377893066,
    "longitude": 139.73707708536222,
    "is_shadow_confederation": false
  },
  {
    "rank": 5,
    "team_name": "日本大学",
    "team_short_name": "日大",
    "runner_name": "大子",
    "total_distance_km": 10.2,
    "latitude": 35.60354653873343,
    "longitude": 139.74071752841226,
    "is_shadow_confederation": false
  },
  {
    "rank": 6,
    "team_name": "上武大学",
    "team_short_name": "上武",
    "runner_name": "佐野",
    "total_distance_km": 9.7,
    "latitude": 35.6074448189659,
    "longitude": 139.74300966103604,
    "is_shadow_confederation": false
  },
  {
    "rank": 7,
    "team_name": "三重大学",
    "team_short_name": "三重",
    "runner_name": "粥見",
    "total_distance_km": 8.5,
    "latitude": 35.61809578085859,
    "longitude": 139.7409497004762,
    "is_shadow_confederation": false
  },
  {
    "rank": 8,
    "team_name": "関西大学",
    "team_short_name": "関大",
    "runner_name": "福崎",
    "total_distance_km": 8.4,
    "latitude": 35.618940817271024,
    "longitude": 139.74057766068051,
    "is_shadow_confederation": false
  },
  {
    "rank": 9,
    "team_name": "四国大学",
    "team_short_name": "四国",
    "runner_name": "穴吹",
    "total_distance_km": 8.3,
    "latitude": 35.61978131452107,
    "longitude": 139.7401791265636,
    "is_shadow_confederation": false
  },
  {
    "rank": 10,
    "team_name": "名古屋大学",
    "team_short_name": "名大",
    "runner_name": "美濃加茂",
    "total_distance_km": 8.1,
    "latitude": 35.62146230902115,
    "longitude": 139.73938205832977,
    "is_shadow_confederation": false
  },
  {
    "rank": 11,
    "team_name": "立命館大学",
    "team_short_name": "立命",
    "runner_name": "東近江",
    "total_distance_km": 7.5,
    "latitude": 35.626674263401064,
    "longitude": 139.73775751746763,
    "is_shadow_confederation": false
  },
  {
    "rank": 12,
    "team_name": "広島経済大学",
    "team_short_name": "広経",
    "runner_name": "三次",
    "total_distance_km": 7.3,
    "latitude": 35.62846498405233,
    "longitude": 139.7375997673827,
    "is_shadow_confederation": false
  },
  {
    "rank": 13,
    "team_name": "鳥取大学",
    "team_short_name": "鳥取",
    "runner_name": "川本",
    "total_distance_km": 7.1,
    "latitude": 35.63026714673835,
    "longitude": 139.73764720239322,
    "is_shadow_confederation": false
  },
  {
    "rank": 14,
    "team_name": "福島大学",
    "team_short_name": "福島",
    "runner_name": "梁川",
    "total_distance_km": 6.9,
    "latitude": 35.63206930942437,
    "longitude": 139.73769463740373,
    "is_shadow_confederation": false
  },
  {
    "rank": 15,
    "team_name": "東北大学",
    "team_short_name": "東北",
    "runner_name": "帯広",
    "total_distance_km": 4.4,
    "latitude": 35.65339740326274,
    "longitude": 139.74519086002607,
    "is_shadow_confederation": false
  },
  {
    "rank": 16,
    "team_name": "金沢大学",
    "team_short_name": "金沢",
    "runner_name": "秋ヶ島",
    "total_distance_km": 3.5,
    "latitude": 35.660157417763976,
    "longitude": 139.7491935555789,
    "is_shadow_confederation": false
  },
  {
    "rank": 17,
    "team_name": "山梨学院大学",
    "team_short_name": "山学",
    "runner_name": "長野",
    "total_distance_km": 3.1,
    "latitude": 35.66375009603134,
    "longitude": 139.74955512716676,
    "is_shadow_confederation": false
  },
  {
    "rank": 18,
    "team_name": "学連選抜",
    "team_short_name": "学連",
    "runner_name": "美幌",
    "total_distance_km": 1.6,
    "latitude": 35.676199280778675,
    "longitude": 139.75560015204684,
    "is_shadow_confederation": false
  }
]