[
  {
    "rank": 1,
    "team_name": "琉球大学",
    "team_short_name": "琉球",
    "runner_name": "盛山",
    "total_distance_km": 333.1,
    "latitude": 35.013087614505245,
    "longitude": 137.04210284833428,
    "current_leg": 4,
    "is_shadow_confederation": false
  },
  {
    "rank": 2,
    "team_name": "名古屋大学",
    "team_short_name": "名大",
    "runner_name": "大垣",
    "total_distance_km": 298.0,
    "latitude": 34.82849015858484,
    "longitude": 137.33585327234505,
    "current_leg": 3,
    "is_shadow_confederation": false
  },
  {
    "rank": 3,
    "team_name": "鹿児島大学",
    "team_short_name": "鹿大",
    "runner_name": "加久藤",
    "total_distance_km": 296.2,
    "latitude": 34.81694353525304,
    "longitude": 137.34940137608865,
    "current_leg": 3,
    "is_shadow_confederation": false
  },
  {
    "rank": 4,
    "team_name": "熊本学園大学",
    "team_short_name": "熊学",
    "runner_name": "八代",
    "total_distance_km": 290.1,
    "latitude": 34.77341601149288,
    "longitude": 137.3900683937808,
    "current_leg": 3,
    "is_shadow_confederation": false
  },
  {
    "rank": 5,
    "team_name": "鳥取大学",
    "team_short_name": "鳥取",
    "runner_name": "広瀬",
    "total_distance_km": 286.9,
    "latitude": 34.754166539882185,
    "longitude": 137.41131816108486,
    "current_leg": 3,
    "is_shadow_confederation": false
  },
  {
    "rank": 6,
    "team_name": "福岡大学",
    "team_short_name": "福岡",
    "runner_name": "黒木",
    "total_distance_km": 286.5,
    "latitude": 34.75079887751449,
    "longitude": 137.41286374715253,
    "current_leg": 3,
    "is_shadow_confederation": false
  },
  {
    "rank": 7,
    "team_name": "金沢大学",
    "team_short_name": "金沢",
    "runner_name": "七尾",
    "total_distance_km": 285.8,
    "latitude": 34.744769894097004,
    "longitude": 137.41489779143325,
    "current_leg": 3,
    "is_shadow_confederation": false
  },
  {
    "rank": 8,
    "team_name": "日本大学",
    "team_short_name": "日大",
    "runner_name": "下館",
    "total_distance_km": 284.4,
    "latitude": 34.73542044637045,
    "longitude": 137.4243377567342,
    "current_leg": 3,
    "is_shadow_confederation": false
  },
  {
    "rank": 8,
    "team_name": "上武大学",
    "team_short_name": "上武",
    "runner_name": "熊谷",
    "total_distance_km": 284.4,
    "latitude": 34.73542044637045,
    "longitude": 137.4243377567342,
    "current_leg": 3,
    "is_shadow_confederation": false
  },
  {
    "rank": 10,
    "team_name": "立命館大学",
    "team_short_name": "立命",
    "runner_name": "京田辺",
    "total_distance_km": 284.2,
    "latitude": 34.73362233805679,
    "longitude": 137.42449597257706,
    "current_leg": 3,
    "is_shadow_confederation": false
  },
  {
    "rank": 11,
    "team_name": "関西大学",
    "team_short_name": "関大",
    "runner_name": "上郡",
    "total_distance_km": 281.6,
    "latitude": 34.72105471088035,
    "longitude": 137.44498178775268,
    "current_leg": 3,
    "is_shadow_confederation": false
  },
  {
    "rank": 12,
    "team_name": "三重大学",
    "team_short_name": "三重",
    "runner_name": "小俣",
    "total_distance_km": 280.7,
    "latitude": 34.72044513754602,
    "longitude": 137.45460287819262,
    "current_leg": 3,
    "is_shadow_confederation": false
  },
  {
    "rank": 13,
    "team_name": "山梨学院大学",
    "team_short_name": "山学",
    "runner_name": "大月",
    "total_distance_km": 280.5,
    "latitude": 34.72057675168403,
    "longitude": 137.45678051452418,
    "current_leg": 3,
    "is_shadow_confederation": false
  },
  {
    "rank": 14,
    "team_name": "四国大学",
    "team_short_name": "四国",
    "runner_name": "御荘",
    "total_distance_km": 277.8,
    "latitude": 34.70582804834303,
    "longitude": 137.478863796128,
    "current_leg": 3,
    "is_shadow_confederation": false
  },
  {
    "rank": 15,
    "team_name": "広島経済大学",
    "team_short_name": "広経",
    "runner_name": "府中（広島）",
    "total_distance_km": 266.3,
    "latitude": 34.69403464475363,
    "longitude": 137.5789500894621,
    "current_leg": 3,
    "is_shadow_confederation": false
  },
  {
    "rank": 16,
    "team_name": "東北大学",
    "team_short_name": "東北",
    "runner_name": "高畠",
    "total_distance_km": 263.1,
    "latitude": 34.68622427029146,
    "longitude": 137.61174602399947,
    "current_leg": 3,
    "is_shadow_confederation": false
  },
  {
    "rank": 17,
    "team_name": "福島大学",
    "team_short_name": "福島",
    "runner_name": "津川",
    "total_distance_km": 259.8,
    "latitude": 34.6832893507245,
    "longitude": 137.64705998744577,
    "current_leg": 3,
    "is_shadow_confederation": false
  },
  {
    "rank": 18,
    "team_name": "学連選抜",
    "team_short_name": "学連",
    "runner_name": "大村",
    "total_distance_km": 253.1,
    "latitude": 34.6923200140949,
    "longitude": 137.717270075604,
    "current_leg": 3,
    "is_shadow_confederation": false
  },
  {
    "rank": null,
    "team_name": "区間記録連合",
    "team_short_name": "区間記録",
    "runner_name": "風屋",
    "total_distance_km": 366.5,
    "latitude": 35.11559378438083,
    "longitude": 136.74237485368104,
    "current_leg": 4,
    "is_shadow_confederation": true
  }
]