[
  {
    "rank": 1,
    "team_name": "琉球大学",
    "team_short_name": "琉球",
    "runner_name": "北原",
    "total_distance_km": 80.7,
    "latitude": 35.26605991084717,
    "longitude": 139.187213543594,
    "is_shadow_confederation": false
  },
  {
    "rank": 2,
    "team_name": "鹿児島大学",
    "team_short_name": "鹿大",
    "runner_name": "東市来",
    "total_distance_km": 59.7,
    "latitude": 35.31819919255683,
    "longitude": 139.39729063709538,
    "is_shadow_confederation": false
  },
  {
    "rank": 3,
    "team_name": "熊本学園大学",
    "team_short_name": "熊学",
    "runner_name": "甲佐",
    "total_distance_km": 55.6,
    "latitude": 35.32447604993152,
    "longitude": 139.43990792498067,
    "is_shadow_confederation": false
  },
  {
    "rank": 4,
    "team_name": "福岡大学",
    "team_short_name": "福岡",
    "runner_name": "久留米",
    "total_distance_km": 52.6,
    "latitude": 35.33479866401677,
    "longitude": 139.46932409605182,
    "is_shadow_confederation": false
  },
  {
    "rank": 5,
    "team_name": "四国大学",
    "team_short_name": "四国",
    "runner_name": "穴吹",
    "total_distance_km": 44.5,
    "latitude": 35.38973588049431,
    "longitude": 139.52093847565834,
    "is_shadow_confederation": false
  },
  {
    "rank": 6,
    "team_name": "三重大学",
    "team_short_name": "三重",
    "runner_name": "粥見",
    "total_distance_km": 43.0,
    "latitude": 35.401232414488824,
    "longitude": 139.52751245911125,
    "is_shadow_confederation": false
  },
  {
    "rank": 7,
    "team_name": "名古屋大学",
    "team_short_name": "名大",
    "runner_name": "美濃加茂",
    "total_distance_km": 42.0,
    "latitude": 35.40964713734463,
    "longitude": 139.5304655957657,
    "is_shadow_confederation": false
  },
  {
    "rank": 8,
    "team_name": "日本大学",
    "team_short_name": "日大",
    "runner_name": "大子",
    "total_distance_km": 41.0,
    "latitude": 35.41378981764136,
    "longitude": 139.5390927799112,
    "is_shadow_confederation": false
  },
  {
    "rank": 9,
    "team_name": "上武大学",
    "team_short_name": "上武",
    "runner_name": "佐野",
    "total_distance_km": 40.9,
    "latitude": 35.41401857902459,
    "longitude": 139.5401557477082,
    "is_shadow_confederation": false
  },
  {
    "rank": 10,
    "team_name": "関西大学",
    "team_short_name": "関大",
    "runner_name": "福崎",
    "total_distance_km": 40.4,
    "latitude": 35.415792898922724,
    "longitude": 139.54517124267684,
    "is_shadow_confederation": false
  },
  {
    "rank": 11,
    "team_name": "立命館大学",
    "team_short_name": "立命",
    "runner_name": "東近江",
    "total_distance_km": 36.5,
    "latitude": 35.435050217296116,
    "longitude": 139.57612253255564,
    "is_shadow_confederation": false
  },
  {
    "rank": 12,
    "team_name": "鳥取大学",
    "team_short_name": "鳥取",
    "runner_name": "川本",
    "total_distance_km": 35.3,
    "latitude": 35.44494844308823,
    "longitude": 139.5779562747544,
    "is_shadow_confederation": false
  },
  {
    "rank": 13,
    "team_name": "広島経済大学",
    "team_short_name": "広経",
    "runner_name": "三次",
    "total_distance_km": 33.7,
    "latitude": 35.44406867557012,
    "longitude": 139.59517799641557,
    "is_shadow_confederation": false
  },
  {
    "rank": 14,
    "team_name": "福島大学",
    "team_short_name": "福島",
    "runner_name": "梁川",
    "total_distance_km": 32.8,
    "latitude": 35.44883728186384,
    "longitude": 139.60238964974562,
    "is_shadow_confederation": false
  },
  {
    "rank": 15,
    "team_name": "金沢大学",
    "team_short_name": "金沢",
    "runner_name": "秋ヶ島",
    "total_distance_km": 27.5,
    "latitude": 35.48036024494053,
    "longitude": 139.63982893124108,
    "is_shadow_confederation": false
  },
  {
    "rank": 16,
    "team_name": "山梨学院大学",
    "team_short_name": "山学",
    "runner_name": "長野",
    "total_distance_km": 23.7,
    "latitude": 35.49910187089502,
    "longitude": 139.6736485602611,
    "is_shadow_confederation": false
  },
  {
    "rank": 17,
    "team_name": "東北大学",
    "team_short_name": "東北",
    "runner_name": "帯広",
    "total_distance_km": 16.9,
    "latitude": 35.548470328091796,
    "longitude": 139.71495056640504,
    "is_shadow_confederation": false
  },
  {
    "rank": 18,
    "team_name": "学連選抜",
    "team_short_name": "学連",
    "runner_name": "美幌",
    "total_distance_km": 2.9,
    "latitude": 35.6655482891547,
    "longitude": 139.74970893770075,
    "is_shadow_confederation": false
  }
]