[
  {
    "rank": 1,
    "team_name": "琉球大学",
    "team_short_name": "琉球",
    "runner_name": "大原",
    "total_distance_km": 919.7,
    "latitude": 34.10856563624053,
    "longitude": 132.1068230087217,
    "is_shadow_confederation": false
  },
  {
    "rank": 2,
    "team_name": "名古屋大学",
    "team_short_name": "名大",
    "runner_name": "揖斐川",
    "total_distance_km": 898.2,
    "latitude": 34.23378222487183,
    "longitude": 132.2198834277891,
    "is_shadow_confederation": false
  },
  {
    "rank": 3,
    "team_name": "福岡大学",
    "team_short_name": "福岡",
    "runner_name": "佐賀（佐賀）",
    "total_distance_km": 896.8,
    "latitude": 34.24598408923452,
    "longitude": 132.22239452572776,
    "is_shadow_confederation": false
  },
  {
    "rank": 4,
    "team_name": "鹿児島大学",
    "team_short_name": "鹿大",
    "runner_name": "喜入",
    "total_distance_km": 896.6,
    "latitude": 34.24747444786638,
    "longitude": 132.22361647329933,
    "is_shadow_confederation": false
  },
  {
    "rank": 5,
    "team_name": "四国大学",
    "team_short_name": "四国",
    "runner_name": "西条",
    "total_distance_km": 890.3,
    "latitude": 34.28656981641722,
    "longitude": 132.27091444102675,
    "is_shadow_confederation": false
  },
  {
    "rank": 6,
    "team_name": "熊本学園大学",
    "team_short_name": "熊学",
    "runner_name": "菊池",
    "total_distance_km": 889.3,
    "latitude": 34.28957463963471,
    "longitude": 132.2809430999718,
    "is_shadow_confederation": false
  },
  {
    "rank": 7,
    "team_name": "関西大学",
    "team_short_name": "関大",
    "runner_name": "西脇",
    "total_distance_km": 887.2,
    "latitude": 34.30433421645445,
    "longitude": 132.29449962854494,
    "is_shadow_confederation": false
  },
  {
    "rank": 8,
    "team_name": "広島経済大学",
    "team_short_name": "広経",
    "runner_name": "滝宮",
    "total_distance_km": 879.4,
    "latitude": 34.35661566915838,
    "longitude": 132.34281302059293,
    "is_shadow_confederation": false
  },
  {
    "rank": 9,
    "team_name": "立命館大学",
    "team_short_name": "立命",
    "runner_name": "園部",
    "total_distance_km": 878.0,
    "latitude": 34.364129357125634,
    "longitude": 132.35287441372606,
    "is_shadow_confederation": false
  },
  {
    "rank": 10,
    "team_name": "日本大学",
    "team_short_name": "日大",
    "runner_name": "海老名",
    "total_distance_km": 869.0,
    "latitude": 34.387592797378076,
    "longitude": 132.43916206261113,
    "is_shadow_confederation": false
  },
  {
    "rank": 11,
    "team_name": "三重大学",
    "team_short_name": "三重",
    "runner_name": "上野",
    "total_distance_km": 868.8,
    "latitude": 34.386995836871115,
    "longitude": 132.44121230804615,
    "is_shadow_confederation": false
  },
  {
    "rank": 12,
    "team_name": "山梨学院大学",
    "team_short_name": "山学",
    "runner_name": "佐久間",
    "total_distance_km": 866.8,
    "latitude": 34.3824106378794,
    "longitude": 132.46198818355805,
    "is_shadow_confederation": false
  },
  {
    "rank": 13,
    "team_name": "鳥取大学",
    "team_short_name": "鳥取",
    "runner_name": "玖珂",
    "total_distance_km": 855.4,
    "latitude": 34.390242907207636,
    "longitude": 132.56409060284005,
    "is_shadow_confederation": false
  },
  {
    "rank": 14,
    "team_name": "上武大学",
    "team_short_name": "上武",
    "runner_name": "前橋",
    "total_distance_km": 854.6,
    "latitude": 34.39516177747304,
    "longitude": 132.57023911830095,
    "is_shadow_confederation": false
  },
  {
    "rank": 15,
    "team_name": "金沢大学",
    "team_short_name": "金沢",
    "runner_name": "小松",
    "total_distance_km": 849.7,
    "latitude": 34.4218124955391,
    "longitude": 132.60367710928122,
    "is_shadow_confederation": false
  },
  {
    "rank": 16,
    "team_name": "学連選抜",
    "team_short_name": "学連",
    "runner_name": "飯塚",
    "total_distance_km": 833.3,
    "latitude": 34.407954926208866,
    "longitude": 132.7452040932714,
    "is_shadow_confederation": false
  },
  {
    "rank": 17,
    "team_name": "福島大学",
    "team_short_name": "福島",
    "runner_name": "喜多方",
    "total_distance_km": 823.3,
    "latitude": 34.407046768415036,
    "longitude": 132.84423632332621,
    "is_shadow_confederation": false
  },
  {
    "rank": 18,
    "team_name": "東北大学",
    "team_short_name": "東北",
    "runner_name": "東根",
    "total_distance_km": 756.9,
    "latitude": 34.498606585190444,
    "longitude": 133.4457929119719,
    "is_shadow_confederation": false
  },
  {
    "rank": null,
    "team_name": "区間記録連合",
    "team_short_name": "区間記録",
    "runner_name": "豊中",
    "total_distance_km": 937.0,
    "latitude": 34.04364760772707,
    "longitude": 131.95466134372555,
    "is_shadow_confederation": true
  }
]