[
  {
    "rank": 1,
    "team_name": "琉球大学",
    "team_short_name": "琉球",
    "runner_name": "石垣島",
    "total_distance_km": 995.4,
    "latitude": 34.09218254430921,
    "longitude": 131.417516080429,
    "is_shadow_confederation": false
  },
  {
    "rank": 2,
    "team_name": "鹿児島大学",
    "team_short_name": "鹿大",
    "runner_name": "さつま柏原",
    "total_distance_km": 799.1,
    "latitude": 34.39441235494219,
    "longitude": 133.06903450697993,
    "is_shadow_confederation": false
  },
  {
    "rank": 3,
    "team_name": "熊本学園大学",
    "team_short_name": "熊学",
    "runner_name": "三角",
    "total_distance_km": 773.1,
    "latitude": 34.46265577462251,
    "longitude": 133.28697675459682,
    "is_shadow_confederation": false
  },
  {
    "rank": 4,
    "team_name": "福岡大学",
    "team_short_name": "福岡",
    "runner_name": "口之津",
    "total_distance_km": 739.9,
    "latitude": 34.53499594805084,
    "longitude": 133.60726411474707,
    "is_shadow_confederation": false
  },
  {
    "rank": 5,
    "team_name": "名古屋大学",
    "team_short_name": "名大",
    "runner_name": "名古屋",
    "total_distance_km": 714.4,
    "latitude": 34.64304644007434,
    "longitude": 133.83695167002227,
    "is_shadow_confederation": false
  },
  {
    "rank": 6,
    "team_name": "四国大学",
    "team_short_name": "四国",
    "runner_name": "新居浜",
    "total_distance_km": 708.6,
    "latitude": 34.65281326974405,
    "longitude": 133.8965538011874,
    "is_shadow_confederation": false
  },
  {
    "rank": 7,
    "team_name": "日本大学",
    "team_short_name": "日大",
    "runner_name": "練馬",
    "total_distance_km": 692.1,
    "latitude": 34.70580259172912,
    "longitude": 134.05493673431997,
    "is_shadow_confederation": false
  },
  {
    "rank": 8,
    "team_name": "上武大学",
    "team_short_name": "上武",
    "runner_name": "小山",
    "total_distance_km": 691.1,
    "latitude": 34.70504133062613,
    "longitude": 134.06581151132326,
    "is_shadow_confederation": false
  },
  {
    "rank": 9,
    "team_name": "広島経済大学",
    "team_short_name": "広経",
    "runner_name": "福山",
    "total_distance_km": 671.2,
    "latitude": 34.78102147838029,
    "longitude": 134.25352540426874,
    "is_shadow_confederation": false
  },
  {
    "rank": 10,
    "team_name": "関西大学",
    "team_short_name": "関大",
    "runner_name": "八尾（大阪）",
    "total_distance_km": 669.8,
    "latitude": 34.79077188042702,
    "longitude": 134.26191118890506,
    "is_shadow_confederation": false
  },
  {
    "rank": 11,
    "team_name": "三重大学",
    "team_short_name": "三重",
    "runner_name": "津",
    "total_distance_km": 664.3,
    "latitude": 34.82724722957181,
    "longitude": 134.30000645827965,
    "is_shadow_confederation": false
  },
  {
    "rank": 12,
    "team_name": "山梨学院大学",
    "team_short_name": "山学",
    "runner_name": "三島",
    "total_distance_km": 662.1,
    "latitude": 34.838378275070106,
    "longitude": 134.31623609891378,
    "is_shadow_confederation": false
  },
  {
    "rank": 13,
    "team_name": "鳥取大学",
    "team_short_name": "鳥取",
    "runner_name": "松江",
    "total_distance_km": 652.7,
    "latitude": 34.83081277424301,
    "longitude": 134.40789636856852,
    "is_shadow_confederation": false
  },
  {
    "rank": 14,
    "team_name": "立命館大学",
    "team_short_name": "立命",
    "runner_name": "彦根",
    "total_distance_km": 632.2,
    "latitude": 34.831110691633825,
    "longitude": 134.61968778056323,
    "is_shadow_confederation": false
  },
  {
    "rank": 15,
    "team_name": "福島大学",
    "team_short_name": "福島",
    "runner_name": "浪江",
    "total_distance_km": 594.5,
    "latitude": 34.68017367115744,
    "longitude": 134.9456711396608,
    "is_shadow_confederation": false
  },
  {
    "rank": 16,
    "team_name": "金沢大学",
    "team_short_name": "金沢",
    "runner_name": "富山",
    "total_distance_km": 569.8,
    "latitude": 34.67795186490616,
    "longitude": 135.17225547652066,
    "is_shadow_confederation": false
  },
  {
    "rank": 17,
    "team_name": "東北大学",
    "team_short_name": "東北",
    "runner_name": "一関",
    "total_distance_km": 488.1,
    "latitude": 35.00531149563113,
    "longitude": 135.7691066528709,
    "is_shadow_confederation": false
  },
  {
    "rank": 18,
    "team_name": "学連選抜",
    "team_short_name": "学連",
    "runner_name": "久世",
    "total_distance_km": 423.1,
    "latitude": 34.88883315857028,
    "longitude": 136.34839048928595,
    "is_shadow_confederation": false
  },
  {
    "rank": null,
    "team_name": "区間記録連合",
    "team_short_name": "区間記録",
    "runner_name": "鳩山",
    "total_distance_km": 1006.0,
    "latitude": 34.05670481583832,
    "longitude": 131.33009095417057,
    "is_shadow_confederation": true
  }
]