[
  {
    "rank": 1,
    "team_name": "琉球大学",
    "team_short_name": "琉球",
    "runner_name": "盛山",
    "total_distance_km": 332.3,
    "latitude": 35.008966570383734,
    "longitude": 137.04928753040213,
    "is_shadow_confederation": false
  },
  {
    "rank": 2,
    "team_name": "熊本学園大学",
    "team_short_name": "熊学",
    "runner_name": "八代",
    "total_distance_km": 306.3,
    "latitude": 34.878969266104335,
    "longitude": 137.27228575995224,
    "is_shadow_confederation": false
  },
  {
    "rank": 3,
    "team_name": "鹿児島大学",
    "team_short_name": "鹿大",
    "runner_name": "加久藤",
    "total_distance_km": 297.8,
    "latitude": 34.82755373255961,
    "longitude": 137.33772151970786,
    "is_shadow_confederation": false
  },
  {
    "rank": 4,
    "team_name": "福岡大学",
    "team_short_name": "福岡",
    "runner_name": "黒木",
    "total_distance_km": 291.9,
    "latitude": 34.786117352815005,
    "longitude": 137.37783972253084,
    "is_shadow_confederation": false
  },
  {
    "rank": 5,
    "team_name": "四国大学",
    "team_short_name": "四国",
    "runner_name": "御荘",
    "total_distance_km": 277.9,
    "latitude": 34.70656283965452,
    "longitude": 137.47825817012767,
    "is_shadow_confederation": false
  },
  {
    "rank": 6,
    "team_name": "広島経済大学",
    "team_short_name": "広経",
    "runner_name": "府中（広島）",
    "total_distance_km": 266.3,
    "latitude": 34.69403464475363,
    "longitude": 137.5789500894621,
    "is_shadow_confederation": false
  },
  {
    "rank": 7,
    "team_name": "鳥取大学",
    "team_short_name": "鳥取",
    "runner_name": "広瀬",
    "total_distance_km": 256.8,
    "latitude": 34.6879039002095,
    "longitude": 137.6791968303137,
    "is_shadow_confederation": false
  },
  {
    "rank": 8,
    "team_name": "関西大学",
    "team_short_name": "関大",
    "runner_name": "上郡",
    "total_distance_km": 254.3,
    "latitude": 34.688323484698095,
    "longitude": 137.70644761421735,
    "is_shadow_confederation": false
  },
  {
    "rank": 9,
    "team_name": "三重大学",
    "team_short_name": "三重",
    "runner_name": "小俣",
    "total_distance_km": 252.6,
    "latitude": 34.69565132516807,
    "longitude": 137.7209456457722,
    "is_shadow_confederation": false
  },
  {
    "rank": 10,
    "team_name": "立命館大学",
    "team_short_name": "立命",
    "runner_name": "京田辺",
    "total_distance_km": 251.5,
    "latitude": 34.70261413766864,
    "longitude": 137.72838053160334,
    "is_shadow_confederation": false
  },
  {
    "rank": 11,
    "team_name": "名古屋大学",
    "team_short_name": "名大",
    "runner_name": "大垣",
    "total_distance_km": 251.0,
    "latitude": 34.70693424213162,
    "longitude": 137.72778168922358,
    "is_shadow_confederation": false
  },
  {
    "rank": 12,
    "team_name": "金沢大学",
    "team_short_name": "金沢",
    "runner_name": "七尾",
    "total_distance_km": 241.3,
    "latitude": 34.72474851770046,
    "longitude": 137.8227256199222,
    "is_shadow_confederation": false
  },
  {
    "rank": 13,
    "team_name": "上武大学",
    "team_short_name": "上武",
    "runner_name": "熊谷",
    "total_distance_km": 232.6,
    "latitude": 34.74529526121745,
    "longitude": 137.91070445900965,
    "is_shadow_confederation": false
  },
  {
    "rank": 14,
    "team_name": "日本大学",
    "team_short_name": "日大",
    "runner_name": "下館",
    "total_distance_km": 228.9,
    "latitude": 34.760212259199726,
    "longitude": 137.94635986807108,
    "is_shadow_confederation": false
  },
  {
    "rank": 15,
    "team_name": "山梨学院大学",
    "team_short_name": "山学",
    "runner_name": "南信濃",
    "total_distance_km": 216.9,
    "latitude": 34.78716036888054,
    "longitude": 138.06778920455315,
    "is_shadow_confederation": false
  },
  {
    "rank": 16,
    "team_name": "福島大学",
    "team_short_name": "福島",
    "runner_name": "石川",
    "total_distance_km": 211.6,
    "latitude": 34.82144492208463,
    "longitude": 138.09972937042417,
    "is_shadow_confederation": false
  },
  {
    "rank": 17,
    "team_name": "東北大学",
    "team_short_name": "東北",
    "runner_name": "山形（山形）",
    "total_distance_km": 163.8,
    "latitude": 35.03316495745571,
    "longitude": 138.49051360926362,
    "is_shadow_confederation": false
  },
  {
    "rank": 18,
    "team_name": "学連選抜",
    "team_short_name": "学連",
    "runner_name": "新潟",
    "total_distance_km": 156.9,
    "latitude": 35.072520439175086,
    "longitude": 138.54287173847518,
    "is_shadow_confederation": false
  }
]