[
  {
    "rank": 1,
    "team_name": "琉球大学",
    "team_short_name": "琉球",
    "runner_name": "那覇",
    "total_distance_km": 747.1,
    "latitude": 34.50064462712883,
    "longitude": 133.54167677408984,
    "is_shadow_confederation": false
  },
  {
    "rank": 2,
    "team_name": "鹿児島大学",
    "team_short_name": "鹿大",
    "runner_name": "笠利",
    "total_distance_km": 650.1,
    "latitude": 34.83164880283329,
    "longitude": 134.43515444041972,
    "is_shadow_confederation": false
  },
  {
    "rank": 3,
    "team_name": "熊本学園大学",
    "team_short_name": "熊学",
    "runner_name": "大分",
    "total_distance_km": 630.9,
    "latitude": 34.84062850050686,
    "longitude": 134.62328490692124,
    "is_shadow_confederation": false
  },
  {
    "rank": 4,
    "team_name": "福岡大学",
    "team_short_name": "福岡",
    "runner_name": "博多",
    "total_distance_km": 604.9,
    "latitude": 34.74430642148887,
    "longitude": 134.8653863169822,
    "is_shadow_confederation": false
  },
  {
    "rank": 5,
    "team_name": "四国大学",
    "team_short_name": "四国",
    "runner_name": "徳島",
    "total_distance_km": 581.6,
    "latitude": 34.6286255806719,
    "longitude": 135.061902943265,
    "is_shadow_confederation": false
  },
  {
    "rank": 6,
    "team_name": "広島経済大学",
    "team_short_name": "広経",
    "runner_name": "高松（香川）",
    "total_distance_km": 561.7,
    "latitude": 34.714172454373916,
    "longitude": 135.2458222030629,
    "is_shadow_confederation": false
  },
  {
    "rank": 7,
    "team_name": "名古屋大学",
    "team_short_name": "名大",
    "runner_name": "豊田（愛知）",
    "total_distance_km": 547.2,
    "latitude": 34.72629421917944,
    "longitude": 135.39684633629332,
    "is_shadow_confederation": false
  },
  {
    "rank": 8,
    "team_name": "鳥取大学",
    "team_short_name": "鳥取",
    "runner_name": "松江",
    "total_distance_km": 546.1,
    "latitude": 34.7229218448032,
    "longitude": 135.4080871357404,
    "is_shadow_confederation": false
  },
  {
    "rank": 9,
    "team_name": "関西大学",
    "team_short_name": "関大",
    "runner_name": "豊中",
    "total_distance_km": 544.7,
    "latitude": 34.71950652209556,
    "longitude": 135.42279538945346,
    "is_shadow_confederation": false
  },
  {
    "rank": 10,
    "team_name": "立命館大学",
    "team_short_name": "立命",
    "runner_name": "舞鶴",
    "total_distance_km": 538.8,
    "latitude": 34.69415159641685,
    "longitude": 135.47432317843814,
    "is_shadow_confederation": false
  },
  {
    "rank": 11,
    "team_name": "三重大学",
    "team_short_name": "三重",
    "runner_name": "奈良",
    "total_distance_km": 527.8,
    "latitude": 34.73505091197565,
    "longitude": 135.55946956996985,
    "is_shadow_confederation": false
  },
  {
    "rank": 12,
    "team_name": "上武大学",
    "team_short_name": "上武",
    "runner_name": "桐生",
    "total_distance_km": 516.8,
    "latitude": 34.80240133014578,
    "longitude": 135.64114063816947,
    "is_shadow_confederation": false
  },
  {
    "rank": 13,
    "team_name": "金沢大学",
    "team_short_name": "金沢",
    "runner_name": "福井",
    "total_distance_km": 514.7,
    "latitude": 34.810494866454725,
    "longitude": 135.66174129026288,
    "is_shadow_confederation": false
  },
  {
    "rank": 14,
    "team_name": "日本大学",
    "team_short_name": "日大",
    "runner_name": "牛久",
    "total_distance_km": 514.6,
    "latitude": 34.810906784381324,
    "longitude": 135.66271339175532,
    "is_shadow_confederation": false
  },
  {
    "rank": 15,
    "team_name": "山梨学院大学",
    "team_short_name": "山学",
    "runner_name": "甲府",
    "total_distance_km": 487.7,
    "latitude": 35.00876033501194,
    "longitude": 135.76929006890458,
    "is_shadow_confederation": false
  },
  {
    "rank": 16,
    "team_name": "福島大学",
    "team_short_name": "福島",
    "runner_name": "福島",
    "total_distance_km": 455.0,
    "latitude": 35.014921967512436,
    "longitude": 136.06227089991415,
    "is_shadow_confederation": false
  },
  {
    "rank": 17,
    "team_name": "学連選抜",
    "team_short_name": "学連",
    "runner_name": "久世",
    "total_distance_km": 447.8,
    "latitude": 34.98521155576999,
    "longitude": 136.1282348429441,
    "is_shadow_confederation": false
  },
  {
    "rank": 18,
    "team_name": "東北大学",
    "team_short_name": "東北",
    "runner_name": "大館",
    "total_distance_km": 384.7,
    "latitude": 34.99172609185491,
    "longitude": 136.64219619663888,
    "is_shadow_confederation": false
  }
]