[
  {
    "rank": 1,
    "team_name": "琉球大学",
    "team_short_name": "琉球",
    "runner_name": "大原",
    "total_distance_km": 945.8,
    "latitude": 34.03261956599479,
    "longitude": 131.86743561939647,
    "is_shadow_confederation": false
  },
  {
    "rank": 2,
    "team_name": "鹿児島大学",
    "team_short_name": "鹿大",
    "runner_name": "さつま柏原",
    "total_distance_km": 788.9,
    "latitude": 34.396887770962394,
    "longitude": 133.16451900797674,
    "is_shadow_confederation": false
  },
  {
    "rank": 3,
    "team_name": "熊本学園大学",
    "team_short_name": "熊学",
    "runner_name": "三角",
    "total_distance_km": 765.3,
    "latitude": 34.48491285550948,
    "longitude": 133.3611503977368,
    "is_shadow_confederation": false
  },
  {
    "rank": 4,
    "team_name": "福岡大学",
    "team_short_name": "福岡",
    "runner_name": "大牟田",
    "total_distance_km": 749.1,
    "latitude": 34.49867991872886,
    "longitude": 133.52016205015988,
    "is_shadow_confederation": false
  },
  {
    "rank": 5,
    "team_name": "四国大学",
    "team_short_name": "四国",
    "runner_name": "新居浜",
    "total_distance_km": 713.2,
    "latitude": 34.64605008593143,
    "longitude": 133.84937305907906,
    "is_shadow_confederation": false
  },
  {
    "rank": 6,
    "team_name": "広島経済大学",
    "team_short_name": "広経",
    "runner_name": "福山",
    "total_distance_km": 692.2,
    "latitude": 34.7058796072311,
    "longitude": 134.05384918809492,
    "is_shadow_confederation": false
  },
  {
    "rank": 7,
    "team_name": "鳥取大学",
    "team_short_name": "鳥取",
    "runner_name": "米子",
    "total_distance_km": 677.3,
    "latitude": 34.750306660031484,
    "longitude": 134.20013232554754,
    "is_shadow_confederation": false
  },
  {
    "rank": 7,
    "team_name": "関西大学",
    "team_short_name": "関大",
    "runner_name": "八尾（大阪）",
    "total_distance_km": 677.3,
    "latitude": 34.750306660031484,
    "longitude": 134.20013232554754,
    "is_shadow_confederation": false
  },
  {
    "rank": 9,
    "team_name": "名古屋大学",
    "team_short_name": "名大",
    "runner_name": "名古屋",
    "total_distance_km": 675.7,
    "latitude": 34.757514161260524,
    "longitude": 134.21517992764458,
    "is_shadow_confederation": false
  },
  {
    "rank": 10,
    "team_name": "三重大学",
    "team_short_name": "三重",
    "runner_name": "津",
    "total_distance_km": 669.8,
    "latitude": 34.79077188042702,
    "longitude": 134.26191118890506,
    "is_shadow_confederation": false
  },
  {
    "rank": 11,
    "team_name": "立命館大学",
    "team_short_name": "立命",
    "runner_name": "彦根",
    "total_distance_km": 653.9,
    "latitude": 34.828732246303765,
    "longitude": 134.39507157844326,
    "is_shadow_confederation": false
  },
  {
    "rank": 12,
    "team_name": "上武大学",
    "team_short_name": "上武",
    "runner_name": "伊勢崎",
    "total_distance_km": 636.4,
    "latitude": 34.833731717794315,
    "longitude": 134.575924631089,
    "is_shadow_confederation": false
  },
  {
    "rank": 13,
    "team_name": "日本大学",
    "team_short_name": "日大",
    "runner_name": "八王子",
    "total_distance_km": 631.3,
    "latitude": 34.838751124216756,
    "longitude": 134.61994307615927,
    "is_shadow_confederation": false
  },
  {
    "rank": 14,
    "team_name": "金沢大学",
    "team_short_name": "金沢",
    "runner_name": "富山",
    "total_distance_km": 630.2,
    "latitude": 34.84371888308961,
    "longitude": 134.62951128460054,
    "is_shadow_confederation": false
  },
  {
    "rank": 15,
    "team_name": "山梨学院大学",
    "team_short_name": "山学",
    "runner_name": "静岡",
    "total_distance_km": 617.4,
    "latitude": 34.805230607579205,
    "longitude": 134.75624127229992,
    "is_shadow_confederation": false
  },
  {
    "rank": 16,
    "team_name": "学連選抜",
    "team_short_name": "学連",
    "runner_name": "多度津",
    "total_distance_km": 578.9,
    "latitude": 34.634739522677584,
    "longitude": 135.0903373901691,
    "is_shadow_confederation": false
  },
  {
    "rank": 17,
    "team_name": "福島大学",
    "team_short_name": "福島",
    "runner_name": "浪江",
    "total_distance_km": 559.1,
    "latitude": 34.72209950049521,
    "longitude": 135.27232904350083,
    "is_shadow_confederation": false
  },
  {
    "rank": 18,
    "team_name": "東北大学",
    "team_short_name": "東北",
    "runner_name": "一関",
    "total_distance_km": 477.0,
    "latitude": 35.00211234908667,
    "longitude": 135.86361157583605,
    "is_shadow_confederation": false
  }
]