[
  {
    "rank": 1,
    "team_name": "琉球大学",
    "team_short_name": "琉球",
    "runner_name": "北原",
    "total_distance_km": 90.9,
    "latitude": 35.22641435925821,
    "longitude": 139.0939912151916,
    "is_shadow_confederation": false
  },
  {
    "rank": 2,
    "team_name": "熊本学園大学",
    "team_short_name": "熊学",
    "runner_name": "甲佐",
    "total_distance_km": 88.7,
    "latitude": 35.23517474891768,
    "longitude": 139.1143047190081,
    "is_shadow_confederation": false
  },
  {
    "rank": 3,
    "team_name": "福岡大学",
    "team_short_name": "福岡",
    "runner_name": "久留米",
    "total_distance_km": 87.0,
    "latitude": 35.244911678300696,
    "longitude": 139.12855497415188,
    "is_shadow_confederation": false
  },
  {
    "rank": 4,
    "team_name": "鹿児島大学",
    "team_short_name": "鹿大",
    "runner_name": "東市来",
    "total_distance_km": 84.7,
    "latitude": 35.24695811024876,
    "longitude": 139.15254928024095,
    "is_shadow_confederation": false
  },
  {
    "rank": 5,
    "team_name": "四国大学",
    "team_short_name": "四国",
    "runner_name": "穴吹",
    "total_distance_km": 83.5,
    "latitude": 35.25089426359037,
    "longitude": 139.1632897708118,
    "is_shadow_confederation": false
  },
  {
    "rank": 6,
    "team_name": "三重大学",
    "team_short_name": "三重",
    "runner_name": "粥見",
    "total_distance_km": 80.3,
    "latitude": 35.26742912898351,
    "longitude": 139.19128020344803,
    "is_shadow_confederation": false
  },
  {
    "rank": 7,
    "team_name": "関西大学",
    "team_short_name": "関大",
    "runner_name": "福崎",
    "total_distance_km": 79.6,
    "latitude": 35.27105442694106,
    "longitude": 139.19755277076203,
    "is_shadow_confederation": false
  },
  {
    "rank": 8,
    "team_name": "広島経済大学",
    "team_short_name": "広経",
    "runner_name": "三次",
    "total_distance_km": 78.4,
    "latitude": 35.27885204021564,
    "longitude": 139.20618857496325,
    "is_shadow_confederation": false
  },
  {
    "rank": 9,
    "team_name": "立命館大学",
    "team_short_name": "立命",
    "runner_name": "東近江",
    "total_distance_km": 76.5,
    "latitude": 35.28424192525876,
    "longitude": 139.2257764336705,
    "is_shadow_confederation": false
  },
  {
    "rank": 10,
    "team_name": "鳥取大学",
    "team_short_name": "鳥取",
    "runner_name": "川本",
    "total_distance_km": 74.7,
    "latitude": 35.292469856723926,
    "longitude": 139.2425381751534,
    "is_shadow_confederation": false
  },
  {
    "rank": 11,
    "team_name": "名古屋大学",
    "team_short_name": "名大",
    "runner_name": "美濃加茂",
    "total_distance_km": 72.8,
    "latitude": 35.29904456177095,
    "longitude": 139.26181066384646,
    "is_shadow_confederation": false
  },
  {
    "rank": 12,
    "team_name": "上武大学",
    "team_short_name": "上武",
    "runner_name": "佐野",
    "total_distance_km": 63.6,
    "latitude": 35.31614339942608,
    "longitude": 139.35650258951551,
    "is_shadow_confederation": false
  },
  {
    "rank": 13,
    "team_name": "金沢大学",
    "team_short_name": "金沢",
    "runner_name": "秋ヶ島",
    "total_distance_km": 62.1,
    "latitude": 35.319362820976416,
    "longitude": 139.37241949384332,
    "is_shadow_confederation": false
  },
  {
    "rank": 14,
    "team_name": "日本大学",
    "team_short_name": "日大",
    "runner_name": "大子",
    "total_distance_km": 60.1,
    "latitude": 35.31776056987204,
    "longitude": 139.3929245014505,
    "is_shadow_confederation": false
  },
  {
    "rank": 15,
    "team_name": "福島大学",
    "team_short_name": "福島",
    "runner_name": "梁川",
    "total_distance_km": 56.3,
    "latitude": 35.32085817282958,
    "longitude": 139.43385972499448,
    "is_shadow_confederation": false
  },
  {
    "rank": 16,
    "team_name": "山梨学院大学",
    "team_short_name": "山学",
    "runner_name": "長野",
    "total_distance_km": 52.8,
    "latitude": 35.33503031221517,
    "longitude": 139.46714247219742,
    "is_shadow_confederation": false
  },
  {
    "rank": 17,
    "team_name": "東北大学",
    "team_short_name": "東北",
    "runner_name": "帯広",
    "total_distance_km": 35.8,
    "latitude": 35.44108381649206,
    "longitude": 139.5752704419252,
    "is_shadow_confederation": false
  },
  {
    "rank": 18,
    "team_name": "学連選抜",
    "team_short_name": "学連",
    "runner_name": "美幌",
    "total_distance_km": 34.8,
    "latitude": 35.44518516578147,
    "longitude": 139.5833094541133,
    "is_shadow_confederation": false
  }
]