[
  {
    "rank": 1,
    "team_name": "名古屋大学",
    "team_short_name": "名大",
    "runner_name": "大垣",
    "total_distance_km": 309.5,
    "latitude": 34.89767221286307,
    "longitude": 137.24812348386607,
    "is_shadow_confederation": false
  },
  {
    "rank": 2,
    "team_name": "四国大学",
    "team_short_name": "四国",
    "runner_name": "御荘",
    "total_distance_km": 303.5,
    "latitude": 34.865692283509844,
    "longitude": 137.29825990816317,
    "is_shadow_confederation": false
  },
  {
    "rank": 3,
    "team_name": "立命館大学",
    "team_short_name": "立命",
    "runner_name": "京田辺",
    "total_distance_km": 302.6,
    "latitude": 34.86147446386689,
    "longitude": 137.30654887151775,
    "is_shadow_confederation": false
  },
  {
    "rank": 4,
    "team_name": "福岡大学",
    "team_short_name": "福岡",
    "runner_name": "黒木",
    "total_distance_km": 302.5,
    "latitude": 34.86078921454042,
    "longitude": 137.3072593273051,
    "is_shadow_confederation": false
  },
  {
    "rank": 5,
    "team_name": "熊本学園大学",
    "team_short_name": "熊学",
    "runner_name": "八代",
    "total_distance_km": 302.3,
    "latitude": 34.85941871588748,
    "longitude": 137.30868023887982,
    "is_shadow_confederation": false
  },
  {
    "rank": 6,
    "team_name": "関西大学",
    "team_short_name": "関大",
    "runner_name": "上郡",
    "total_distance_km": 297.9,
    "latitude": 34.828021945572225,
    "longitude": 137.33678739602644,
    "is_shadow_confederation": false
  },
  {
    "rank": 7,
    "team_name": "日本大学",
    "team_short_name": "日大",
    "runner_name": "下館",
    "total_distance_km": 297.6,
    "latitude": 34.82661730653438,
    "longitude": 137.33958976707066,
    "is_shadow_confederation": false
  },
  {
    "rank": 8,
    "team_name": "上武大学",
    "team_short_name": "上武",
    "runner_name": "熊谷",
    "total_distance_km": 296.1,
    "latitude": 34.81624989297797,
    "longitude": 137.35009942109772,
    "is_shadow_confederation": false
  },
  {
    "rank": 9,
    "team_name": "広島経済大学",
    "team_short_name": "広経",
    "runner_name": "府中（広島）",
    "total_distance_km": 295.6,
    "latitude": 34.81278168160263,
    "longitude": 137.35358964614306,
    "is_shadow_confederation": false
  },
  {
    "rank": 10,
    "team_name": "鳥取大学",
    "team_short_name": "鳥取",
    "runner_name": "広瀬",
    "total_distance_km": 295.5,
    "latitude": 34.81208803932756,
    "longitude": 137.35428769115214,
    "is_shadow_confederation": false
  },
  {
    "rank": 11,
    "team_name": "琉球大学",
    "team_short_name": "琉球",
    "runner_name": "盛山",
    "total_distance_km": 295.4,
    "latitude": 34.811394397052496,
    "longitude": 137.3549857361612,
    "is_shadow_confederation": false
  },
  {
    "rank": 12,
    "team_name": "三重大学",
    "team_short_name": "三重",
    "runner_name": "小俣",
    "total_distance_km": 294.6,
    "latitude": 34.805568068665295,
    "longitude": 137.3601290379444,
    "is_shadow_confederation": false
  },
  {
    "rank": 13,
    "team_name": "金沢大学",
    "team_short_name": "金沢",
    "runner_name": "七尾",
    "total_distance_km": 292.0,
    "latitude": 34.78682257701161,
    "longitude": 137.37715922310574,
    "is_shadow_confederation": false
  },
  {
    "rank": 14,
    "team_name": "山梨学院大学",
    "team_short_name": "山学",
    "runner_name": "大月",
    "total_distance_km": 289.3,
    "latitude": 34.76745259201439,
    "longitude": 137.3923091331144,
    "is_shadow_confederation": false
  },
  {
    "rank": 15,
    "team_name": "鹿児島大学",
    "team_short_name": "鹿大",
    "runner_name": "加久藤",
    "total_distance_km": 288.8,
    "latitude": 34.766348012752026,
    "longitude": 137.3976042868934,
    "is_shadow_confederation": false
  },
  {
    "rank": 16,
    "team_name": "福島大学",
    "team_short_name": "福島",
    "runner_name": "津川",
    "total_distance_km": 277.5,
    "latitude": 34.70379387902688,
    "longitude": 137.48102152239517,
    "is_shadow_confederation": false
  },
  {
    "rank": 17,
    "team_name": "東北大学",
    "team_short_name": "東北",
    "runner_name": "高畠",
    "total_distance_km": 248.8,
    "latitude": 34.70936296752253,
    "longitude": 137.74982871544043,
    "is_shadow_confederation": false
  },
  {
    "rank": 18,
    "team_name": "学連選抜",
    "team_short_name": "学連",
    "runner_name": "大村",
    "total_distance_km": 246.8,
    "latitude": 34.717385269184675,
    "longitude": 137.76931943783626,
    "is_shadow_confederation": false
  },
  {
    "rank": null,
    "team_name": "区間記録連合",
    "team_short_name": "区間記録",
    "runner_name": "伊勢崎",
    "total_distance_km": 329.4,
    "latitude": 34.994248465084354,
    "longitude": 137.0748552430193,
    "is_shadow_confederation": true
  }
]