[
  {
    "rank": 1,
    "team_name": "琉球大学",
    "team_short_name": "琉球",
    "runner_name": "波照間",
    "total_distance_km": 474.3,
    "latitude": 34.990520035159115,
    "longitude": 135.8865625326552,
    "is_shadow_confederation": false
  },
  {
    "rank": 2,
    "team_name": "熊本学園大学",
    "team_short_name": "熊学",
    "runner_name": "熊本",
    "total_distance_km": 424.2,
    "latitude": 34.89097311019194,
    "longitude": 136.33719884796506,
    "is_shadow_confederation": false
  },
  {
    "rank": 3,
    "team_name": "鹿児島大学",
    "team_short_name": "鹿大",
    "runner_name": "西米良",
    "total_distance_km": 404.0,
    "latitude": 34.87712713820143,
    "longitude": 136.50775554160788,
    "is_shadow_confederation": false
  },
  {
    "rank": 4,
    "team_name": "福岡大学",
    "team_short_name": "福岡",
    "runner_name": "朝倉",
    "total_distance_km": 401.2,
    "latitude": 34.8891024478055,
    "longitude": 136.5322337265503,
    "is_shadow_confederation": false
  },
  {
    "rank": 5,
    "team_name": "四国大学",
    "team_short_name": "四国",
    "runner_name": "松山",
    "total_distance_km": 387.1,
    "latitude": 34.97533162942175,
    "longitude": 136.62560738476296,
    "is_shadow_confederation": false
  },
  {
    "rank": 6,
    "team_name": "広島経済大学",
    "team_short_name": "広経",
    "runner_name": "大竹",
    "total_distance_km": 375.9,
    "latitude": 35.05825914430696,
    "longitude": 136.68439811648295,
    "is_shadow_confederation": false
  },
  {
    "rank": 7,
    "team_name": "鳥取大学",
    "team_short_name": "鳥取",
    "runner_name": "防府",
    "total_distance_km": 358.2,
    "latitude": 35.12481253494158,
    "longitude": 136.8315808237075,
    "is_shadow_confederation": false
  },
  {
    "rank": 8,
    "team_name": "名古屋大学",
    "team_short_name": "名大",
    "runner_name": "愛西",
    "total_distance_km": 356.9,
    "latitude": 35.124170891731346,
    "longitude": 136.84569387616597,
    "is_shadow_confederation": false
  },
  {
    "rank": 9,
    "team_name": "関西大学",
    "team_short_name": "関大",
    "runner_name": "柏原",
    "total_distance_km": 354.7,
    "latitude": 35.124880467972204,
    "longitude": 136.86980449212345,
    "is_shadow_confederation": false
  },
  {
    "rank": 10,
    "team_name": "立命館大学",
    "team_short_name": "立命",
    "runner_name": "米原",
    "total_distance_km": 353.6,
    "latitude": 35.12429304466674,
    "longitude": 136.8817066362339,
    "is_shadow_confederation": false
  },
  {
    "rank": 11,
    "team_name": "三重大学",
    "team_short_name": "三重",
    "runner_name": "風屋",
    "total_distance_km": 347.6,
    "latitude": 35.09756042118319,
    "longitude": 136.92750346776396,
    "is_shadow_confederation": false
  },
  {
    "rank": 12,
    "team_name": "金沢大学",
    "team_short_name": "金沢",
    "runner_name": "志賀",
    "total_distance_km": 333.3,
    "latitude": 35.014088540886476,
    "longitude": 137.04028040848468,
    "is_shadow_confederation": false
  },
  {
    "rank": 13,
    "team_name": "上武大学",
    "team_short_name": "上武",
    "runner_name": "寄居",
    "total_distance_km": 327.0,
    "latitude": 34.98292012672026,
    "longitude": 137.09707588159068,
    "is_shadow_confederation": false
  },
  {
    "rank": 14,
    "team_name": "日本大学",
    "team_short_name": "日大",
    "runner_name": "下館",
    "total_distance_km": 325.7,
    "latitude": 34.978457998512695,
    "longitude": 137.1102261244595,
    "is_shadow_confederation": false
  },
  {
    "rank": 15,
    "team_name": "山梨学院大学",
    "team_short_name": "山学",
    "runner_name": "大月",
    "total_distance_km": 301.9,
    "latitude": 34.85667771858161,
    "longitude": 137.31152206202924,
    "is_shadow_confederation": false
  },
  {
    "rank": 16,
    "team_name": "福島大学",
    "team_short_name": "福島",
    "runner_name": "津川",
    "total_distance_km": 292.2,
    "latitude": 34.788233025404836,
    "longitude": 137.3757982242555,
    "is_shadow_confederation": false
  },
  {
    "rank": 17,
    "team_name": "学連選抜",
    "team_short_name": "学連",
    "runner_name": "大村",
    "total_distance_km": 251.2,
    "latitude": 34.7051856171919,
    "longitude": 137.72831310042173,
    "is_shadow_confederation": false
  },
  {
    "rank": 18,
    "team_name": "東北大学",
    "team_short_name": "東北",
    "runner_name": "高畠",
    "total_distance_km": 242.5,
    "latitude": 34.728043297297816,
    "longitude": 137.8102502835663,
    "is_shadow_confederation": false
  }
]