[
  {
    "rank": 1,
    "team_name": "琉球大学",
    "team_short_name": "琉球",
    "runner_name": "石垣島",
    "total_distance_km": 1033.9,
    "latitude": 34.044969369482224,
    "longitude": 131.06860460741777,
    "is_shadow_confederation": false
  },
  {
    "rank": 2,
    "team_name": "鹿児島大学",
    "team_short_name": "鹿大",
    "runner_name": "喜入",
    "total_distance_km": 864.3,
    "latitude": 34.379394521628676,
    "longitude": 132.4875917690825,
    "is_shadow_confederation": false
  },
  {
    "rank": 3,
    "team_name": "熊本学園大学",
    "team_short_name": "熊学",
    "runner_name": "三角",
    "total_distance_km": 830.3,
    "latitude": 34.39933899335437,
    "longitude": 132.77339754659963,
    "is_shadow_confederation": false
  },
  {
    "rank": 4,
    "team_name": "福岡大学",
    "team_short_name": "福岡",
    "runner_name": "大牟田",
    "total_distance_km": 817.3,
    "latitude": 34.38907921905557,
    "longitude": 132.90009466804824,
    "is_shadow_confederation": false
  },
  {
    "rank": 5,
    "team_name": "四国大学",
    "team_short_name": "四国",
    "runner_name": "江川崎",
    "total_distance_km": 778.5,
    "latitude": 34.44241358345666,
    "longitude": 133.23432812051993,
    "is_shadow_confederation": false
  },
  {
    "rank": 6,
    "team_name": "広島経済大学",
    "team_short_name": "広経",
    "runner_name": "引田",
    "total_distance_km": 760.2,
    "latitude": 34.49590209467626,
    "longitude": 133.41406433782493,
    "is_shadow_confederation": false
  },
  {
    "rank": 7,
    "team_name": "関西大学",
    "team_short_name": "関大",
    "runner_name": "八尾（大阪）",
    "total_distance_km": 743.4,
    "latitude": 34.51992814607728,
    "longitude": 133.57400131886803,
    "is_shadow_confederation": false
  },
  {
    "rank": 8,
    "team_name": "鳥取大学",
    "team_short_name": "鳥取",
    "runner_name": "米子",
    "total_distance_km": 743.1,
    "latitude": 34.5213354479519,
    "longitude": 133.57679148135983,
    "is_shadow_confederation": false
  },
  {
    "rank": 9,
    "team_name": "名古屋大学",
    "team_short_name": "名大",
    "runner_name": "名古屋",
    "total_distance_km": 740.6,
    "latitude": 34.53255037570082,
    "longitude": 133.60033529667663,
    "is_shadow_confederation": false
  },
  {
    "rank": 10,
    "team_name": "三重大学",
    "team_short_name": "三重",
    "runner_name": "津",
    "total_distance_km": 725.8,
    "latitude": 34.58351080026112,
    "longitude": 133.73840573305986,
    "is_shadow_confederation": false
  },
  {
    "rank": 11,
    "team_name": "立命館大学",
    "team_short_name": "立命",
    "runner_name": "長浜（滋賀）",
    "total_distance_km": 709.4,
    "latitude": 34.64970378020097,
    "longitude": 133.88868027427418,
    "is_shadow_confederation": false
  },
  {
    "rank": 12,
    "team_name": "上武大学",
    "team_short_name": "上武",
    "runner_name": "小山",
    "total_distance_km": 694.2,
    "latitude": 34.70292098487573,
    "longitude": 134.03301992614317,
    "is_shadow_confederation": false
  },
  {
    "rank": 13,
    "team_name": "金沢大学",
    "team_short_name": "金沢",
    "runner_name": "敦賀",
    "total_distance_km": 692.8,
    "latitude": 34.70544150182474,
    "longitude": 134.047536499721,
    "is_shadow_confederation": false
  },
  {
    "rank": 14,
    "team_name": "日本大学",
    "team_short_name": "日大",
    "runner_name": "練馬",
    "total_distance_km": 692.2,
    "latitude": 34.7058796072311,
    "longitude": 134.05384918809492,
    "is_shadow_confederation": false
  },
  {
    "rank": 15,
    "team_name": "山梨学院大学",
    "team_short_name": "山学",
    "runner_name": "三島",
    "total_distance_km": 683.8,
    "latitude": 34.732230267545866,
    "longitude": 134.13294929743597,
    "is_shadow_confederation": false
  },
  {
    "rank": 16,
    "team_name": "学連選抜",
    "team_short_name": "学連",
    "runner_name": "多度津",
    "total_distance_km": 642.6,
    "latitude": 34.823749916820766,
    "longitude": 134.50982948125267,
    "is_shadow_confederation": false
  },
  {
    "rank": 17,
    "team_name": "福島大学",
    "team_short_name": "福島",
    "runner_name": "浪江",
    "total_distance_km": 613.9,
    "latitude": 34.793378412397466,
    "longitude": 134.78969475159263,
    "is_shadow_confederation": false
  },
  {
    "rank": 18,
    "team_name": "東北大学",
    "team_short_name": "東北",
    "runner_name": "一関",
    "total_distance_km": 525.9,
    "latitude": 34.74677781861521,
    "longitude": 135.5745914338282,
    "is_shadow_confederation": false
  }
]