[
  {
    "rank": 1,
    "team_name": "琉球大学",
    "team_short_name": "琉球",
    "runner_name": "北原",
    "total_distance_km": 80.5,
    "latitude": 35.26674451991534,
    "longitude": 139.189246873521,
    "is_shadow_confederation": false
  },
  {
    "rank": 2,
    "team_name": "鹿児島大学",
    "team_short_name": "鹿大",
    "runner_name": "東市来",
    "total_distance_km": 58.4,
    "latitude": 35.31835931559922,
    "longitude": 139.4114905326008,
    "is_shadow_confederation": false
  },
  {
    "rank": 3,
    "team_name": "熊本学園大学",
    "team_short_name": "熊学",
    "runner_name": "甲佐",
    "total_distance_km": 55.0,
    "latitude": 35.326217218841144,
    "longitude": 139.4461050393537,
    "is_shadow_confederation": false
  },
  {
    "rank": 4,
    "team_name": "福岡大学",
    "team_short_name": "福岡",
    "runner_name": "久留米",
    "total_distance_km": 51.0,
    "latitude": 35.34258238106255,
    "longitude": 139.48251717058085,
    "is_shadow_confederation": false
  },
  {
    "rank": 5,
    "team_name": "四国大学",
    "team_short_name": "四国",
    "runner_name": "穴吹",
    "total_distance_km": 43.5,
    "latitude": 35.39683643708821,
    "longitude": 139.52755960493658,
    "is_shadow_confederation": false
  },
  {
    "rank": 6,
    "team_name": "三重大学",
    "team_short_name": "三重",
    "runner_name": "粥見",
    "total_distance_km": 42.4,
    "latitude": 35.406396713201474,
    "longitude": 139.5285766150989,
    "is_shadow_confederation": false
  },
  {
    "rank": 7,
    "team_name": "名古屋大学",
    "team_short_name": "名大",
    "runner_name": "美濃加茂",
    "total_distance_km": 41.0,
    "latitude": 35.41378981764136,
    "longitude": 139.5390927799112,
    "is_shadow_confederation": false
  },
  {
    "rank": 8,
    "team_name": "上武大学",
    "team_short_name": "上武",
    "runner_name": "佐野",
    "total_distance_km": 40.2,
    "latitude": 35.41706583701492,
    "longitude": 139.54673047777723,
    "is_shadow_confederation": false
  },
  {
    "rank": 9,
    "team_name": "日本大学",
    "team_short_name": "日大",
    "runner_name": "大子",
    "total_distance_km": 39.9,
    "latitude": 35.4189752441532,
    "longitude": 139.5490693304278,
    "is_shadow_confederation": false
  },
  {
    "rank": 10,
    "team_name": "関西大学",
    "team_short_name": "関大",
    "runner_name": "福崎",
    "total_distance_km": 39.7,
    "latitude": 35.42020750073433,
    "longitude": 139.55066134682735,
    "is_shadow_confederation": false
  },
  {
    "rank": 11,
    "team_name": "立命館大学",
    "team_short_name": "立命",
    "runner_name": "東近江",
    "total_distance_km": 36.1,
    "latitude": 35.43851555293044,
    "longitude": 139.5755417669102,
    "is_shadow_confederation": false
  },
  {
    "rank": 12,
    "team_name": "鳥取大学",
    "team_short_name": "鳥取",
    "runner_name": "川本",
    "total_distance_km": 34.5,
    "latitude": 35.44532981434935,
    "longitude": 139.58660242748908,
    "is_shadow_confederation": false
  },
  {
    "rank": 13,
    "team_name": "福島大学",
    "team_short_name": "福島",
    "runner_name": "梁川",
    "total_distance_km": 32.6,
    "latitude": 35.45027876608812,
    "longitude": 139.60371243137197,
    "is_shadow_confederation": false
  },
  {
    "rank": 14,
    "team_name": "広島経済大学",
    "team_short_name": "広経",
    "runner_name": "三次",
    "total_distance_km": 31.7,
    "latitude": 35.45420487695768,
    "longitude": 139.61235788589784,
    "is_shadow_confederation": false
  },
  {
    "rank": 15,
    "team_name": "金沢大学",
    "team_short_name": "金沢",
    "runner_name": "秋ヶ島",
    "total_distance_km": 27.0,
    "latitude": 35.48318364394282,
    "longitude": 139.64409547302495,
    "is_shadow_confederation": false
  },
  {
    "rank": 16,
    "team_name": "山梨学院大学",
    "team_short_name": "山学",
    "runner_name": "長野",
    "total_distance_km": 22.3,
    "latitude": 35.50947575964131,
    "longitude": 139.6824266003934,
    "is_shadow_confederation": false
  },
  {
    "rank": 17,
    "team_name": "東北大学",
    "team_short_name": "東北",
    "runner_name": "帯広",
    "total_distance_km": 16.1,
    "latitude": 35.55462059222494,
    "longitude": 139.71955572524254,
    "is_shadow_confederation": false
  },
  {
    "rank": 18,
    "team_name": "学連選抜",
    "team_short_name": "学連",
    "runner_name": "美幌",
    "total_distance_km": 2.7,
    "latitude": 35.66724817713031,
    "longitude": 139.75042280946656,
    "is_shadow_confederation": false
  }
]