[
  {
    "rank": 1,
    "team_name": "琉球大学",
    "team_short_name": "琉球",
    "runner_name": "那覇",
    "total_distance_km": 708.7,
    "latitude": 34.65242767623239,
    "longitude": 133.89556793964485,
    "is_shadow_confederation": false
  },
  {
    "rank": 2,
    "team_name": "鹿児島大学",
    "team_short_name": "鹿大",
    "runner_name": "笠利",
    "total_distance_km": 572.2,
    "latitude": 34.66664384790478,
    "longitude": 135.15058562726244,
    "is_shadow_confederation": false
  },
  {
    "rank": 3,
    "team_name": "熊本学園大学",
    "team_short_name": "熊学",
    "runner_name": "大分",
    "total_distance_km": 558.6,
    "latitude": 34.72369769917298,
    "longitude": 135.27743335294014,
    "is_shadow_confederation": false
  },
  {
    "rank": 4,
    "team_name": "福岡大学",
    "team_short_name": "福岡",
    "runner_name": "前原",
    "total_distance_km": 532.5,
    "latitude": 34.70006524297965,
    "longitude": 135.54120152276306,
    "is_shadow_confederation": false
  },
  {
    "rank": 5,
    "team_name": "四国大学",
    "team_short_name": "四国",
    "runner_name": "大洲",
    "total_distance_km": 495.9,
    "latitude": 34.95319158681911,
    "longitude": 135.74559345140716,
    "is_shadow_confederation": false
  },
  {
    "rank": 6,
    "team_name": "名古屋大学",
    "team_short_name": "名大",
    "runner_name": "多治見",
    "total_distance_km": 493.8,
    "latitude": 34.97211012448894,
    "longitude": 135.7460267439106,
    "is_shadow_confederation": false
  },
  {
    "rank": 7,
    "team_name": "日本大学",
    "team_short_name": "日大",
    "runner_name": "牛久",
    "total_distance_km": 484.8,
    "latitude": 35.000764546036265,
    "longitude": 135.79330051044624,
    "is_shadow_confederation": false
  },
  {
    "rank": 8,
    "team_name": "広島経済大学",
    "team_short_name": "広経",
    "runner_name": "高梁",
    "total_distance_km": 478.7,
    "latitude": 34.994192051939734,
    "longitude": 135.8525528738394,
    "is_shadow_confederation": false
  },
  {
    "rank": 8,
    "team_name": "上武大学",
    "team_short_name": "上武",
    "runner_name": "桐生",
    "total_distance_km": 478.7,
    "latitude": 34.994192051939734,
    "longitude": 135.8525528738394,
    "is_shadow_confederation": false
  },
  {
    "rank": 10,
    "team_name": "鳥取大学",
    "team_short_name": "鳥取",
    "runner_name": "境",
    "total_distance_km": 474.7,
    "latitude": 34.993721999312285,
    "longitude": 135.88454837473637,
    "is_shadow_confederation": false
  },
  {
    "rank": 11,
    "team_name": "三重大学",
    "team_short_name": "三重",
    "runner_name": "奈良",
    "total_distance_km": 473.6,
    "latitude": 34.98455434262948,
    "longitude": 135.88893076753277,
    "is_shadow_confederation": false
  },
  {
    "rank": 12,
    "team_name": "関西大学",
    "team_short_name": "関大",
    "runner_name": "枚方",
    "total_distance_km": 467.6,
    "latitude": 34.99682492959193,
    "longitude": 135.94394111433857,
    "is_shadow_confederation": false
  },
  {
    "rank": 13,
    "team_name": "立命館大学",
    "team_short_name": "立命",
    "runner_name": "舞鶴",
    "total_distance_km": 446.5,
    "latitude": 34.983322945953745,
    "longitude": 136.14221794890824,
    "is_shadow_confederation": false
  },
  {
    "rank": 14,
    "team_name": "山梨学院大学",
    "team_short_name": "山学",
    "runner_name": "甲府",
    "total_distance_km": 429.7,
    "latitude": 34.9231238534678,
    "longitude": 136.3051523104419,
    "is_shadow_confederation": false
  },
  {
    "rank": 15,
    "team_name": "福島大学",
    "team_short_name": "福島",
    "runner_name": "長岡",
    "total_distance_km": 417.3,
    "latitude": 34.85528236444779,
    "longitude": 136.38423383577336,
    "is_shadow_confederation": false
  },
  {
    "rank": 16,
    "team_name": "金沢大学",
    "team_short_name": "金沢",
    "runner_name": "志賀",
    "total_distance_km": 379.5,
    "latitude": 35.02860481764878,
    "longitude": 136.67170604549818,
    "is_shadow_confederation": false
  },
  {
    "rank": 17,
    "team_name": "東北大学",
    "team_short_name": "東北",
    "runner_name": "大館",
    "total_distance_km": 328.5,
    "latitude": 34.989851306591454,
    "longitude": 137.0830847767424,
    "is_shadow_confederation": false
  },
  {
    "rank": 18,
    "team_name": "学連選抜",
    "team_short_name": "学連",
    "runner_name": "大村",
    "total_distance_km": 230.1,
    "latitude": 34.7568143400258,
    "longitude": 137.93394920260315,
    "is_shadow_confederation": false
  },
  {
    "rank": null,
    "team_name": "区間記録連合",
    "team_short_name": "区間記録",
    "runner_name": "新居浜",
    "total_distance_km": 737.2,
    "latitude": 34.537896612673045,
    "longitude": 133.6361229235157,
    "is_shadow_confederation": true
  }
]