[
  {
    "rank": 1,
    "team_name": "琉球大学",
    "team_short_name": "琉球",
    "runner_name": "那覇",
    "total_distance_km": 737.1,
    "latitude": 34.5381184456894,
    "longitude": 133.63717876071001,
    "is_shadow_confederation": false
  },
  {
    "rank": 2,
    "team_name": "鹿児島大学",
    "team_short_name": "鹿大",
    "runner_name": "笠利",
    "total_distance_km": 599.7,
    "latitude": 34.709939386377634,
    "longitude": 134.90274750122802,
    "is_shadow_confederation": false
  },
  {
    "rank": 3,
    "team_name": "熊本学園大学",
    "team_short_name": "熊学",
    "runner_name": "大分",
    "total_distance_km": 576.6,
    "latitude": 34.64317960406204,
    "longitude": 135.11247740863695,
    "is_shadow_confederation": false
  },
  {
    "rank": 4,
    "team_name": "福岡大学",
    "team_short_name": "福岡",
    "runner_name": "博多",
    "total_distance_km": 553.3,
    "latitude": 34.738425961867186,
    "longitude": 135.33239454794057,
    "is_shadow_confederation": false
  },
  {
    "rank": 5,
    "team_name": "名古屋大学",
    "team_short_name": "名大",
    "runner_name": "多治見",
    "total_distance_km": 517.8,
    "latitude": 34.80095450940348,
    "longitude": 135.63084525272626,
    "is_shadow_confederation": false
  },
  {
    "rank": 6,
    "team_name": "四国大学",
    "team_short_name": "四国",
    "runner_name": "大洲",
    "total_distance_km": 514.0,
    "latitude": 34.81345839027456,
    "longitude": 135.66847344619225,
    "is_shadow_confederation": false
  },
  {
    "rank": 7,
    "team_name": "日本大学",
    "team_short_name": "日大",
    "runner_name": "牛久",
    "total_distance_km": 508.2,
    "latitude": 34.85450305716018,
    "longitude": 135.7066389783845,
    "is_shadow_confederation": false
  },
  {
    "rank": 8,
    "team_name": "上武大学",
    "team_short_name": "上武",
    "runner_name": "桐生",
    "total_distance_km": 506.2,
    "latitude": 34.86532895808881,
    "longitude": 135.72412797182608,
    "is_shadow_confederation": false
  },
  {
    "rank": 9,
    "team_name": "広島経済大学",
    "team_short_name": "広経",
    "runner_name": "高梁",
    "total_distance_km": 500.6,
    "latitude": 34.91083841705917,
    "longitude": 135.7443521928021,
    "is_shadow_confederation": false
  },
  {
    "rank": 10,
    "team_name": "三重大学",
    "team_short_name": "三重",
    "runner_name": "奈良",
    "total_distance_km": 498.7,
    "latitude": 34.92796025573952,
    "longitude": 135.74483912152562,
    "is_shadow_confederation": false
  },
  {
    "rank": 11,
    "team_name": "鳥取大学",
    "team_short_name": "鳥取",
    "runner_name": "境",
    "total_distance_km": 495.8,
    "latitude": 34.95409269912294,
    "longitude": 135.74562067909838,
    "is_shadow_confederation": false
  },
  {
    "rank": 12,
    "team_name": "関西大学",
    "team_short_name": "関大",
    "runner_name": "枚方",
    "total_distance_km": 493.3,
    "latitude": 34.976615275384695,
    "longitude": 135.7461809113305,
    "is_shadow_confederation": false
  },
  {
    "rank": 13,
    "team_name": "立命館大学",
    "team_short_name": "立命",
    "runner_name": "舞鶴",
    "total_distance_km": 467.8,
    "latitude": 34.99557437893375,
    "longitude": 135.94236317163026,
    "is_shadow_confederation": false
  },
  {
    "rank": 14,
    "team_name": "山梨学院大学",
    "team_short_name": "山学",
    "runner_name": "甲府",
    "total_distance_km": 453.8,
    "latitude": 35.008855017996616,
    "longitude": 136.07315511077255,
    "is_shadow_confederation": false
  },
  {
    "rank": 15,
    "team_name": "福島大学",
    "team_short_name": "福島",
    "runner_name": "福島",
    "total_distance_km": 433.8,
    "latitude": 34.93787637847887,
    "longitude": 136.2664910223477,
    "is_shadow_confederation": false
  },
  {
    "rank": 16,
    "team_name": "金沢大学",
    "team_short_name": "金沢",
    "runner_name": "志賀",
    "total_distance_km": 397.4,
    "latitude": 34.91332623762191,
    "longitude": 136.55471340469623,
    "is_shadow_confederation": false
  },
  {
    "rank": 17,
    "team_name": "東北大学",
    "team_short_name": "東北",
    "runner_name": "大館",
    "total_distance_km": 344.5,
    "latitude": 35.07690130744125,
    "longitude": 136.9482302178375,
    "is_shadow_confederation": false
  },
  {
    "rank": 18,
    "team_name": "学連選抜",
    "team_short_name": "学連",
    "runner_name": "大村",
    "total_distance_km": 249.5,
    "latitude": 34.708052,
    "longitude": 137.74242003220334,
    "is_shadow_confederation": false
  },
  {
    "rank": null,
    "team_name": "区間記録連合",
    "team_short_name": "区間記録",
    "runner_name": "新居浜",
    "total_distance_km": 737.1,
    "latitude": 34.5381184456894,
    "longitude": 133.63717876071001,
    "is_shadow_confederation": true
  }
]