[
  {
    "rank": 1,
    "team_name": "山梨学院大学",
    "team_short_name": "山学",
    "runner_name": "佐久間",
    "total_distance_km": 75.4,
    "latitude": 35.2892679994546,
    "longitude": 139.23611379875308,
    "current_leg": 1,
    "is_shadow_confederation": false
  },
  {
    "rank": 2,
    "team_name": "名古屋大学",
    "team_short_name": "名大",
    "runner_name": "美濃",
    "total_distance_km": 74.9,
    "latitude": 35.291707480470485,
    "longitude": 139.24054715243585,
    "current_leg": 1,
    "is_shadow_confederation": false
  },
  {
    "rank": 3,
    "team_name": "学連選抜",
    "team_short_name": "学連",
    "runner_name": "金山（岐阜）",
    "total_distance_km": 74.3,
    "latitude": 35.29407924751005,
    "longitude": 139.2464732003463,
    "current_leg": 1,
    "is_shadow_confederation": false
  },
  {
    "rank": 4,
    "team_name": "三重大学",
    "team_short_name": "三重",
    "runner_name": "粥見",
    "total_distance_km": 73.8,
    "latitude": 35.29574879163296,
    "longitude": 139.25157784540662,
    "current_leg": 1,
    "is_shadow_confederation": false
  },
  {
    "rank": 5,
    "team_name": "関西大学",
    "team_short_name": "関大",
    "runner_name": "福崎",
    "total_distance_km": 72.2,
    "latitude": 35.30160217461257,
    "longitude": 139.26762107085744,
    "current_leg": 1,
    "is_shadow_confederation": false
  },
  {
    "rank": 6,
    "team_name": "鳥取大学",
    "team_short_name": "鳥取",
    "runner_name": "広瀬",
    "total_distance_km": 71.2,
    "latitude": 35.30436681240548,
    "longitude": 139.2779321614828,
    "current_leg": 1,
    "is_shadow_confederation": false
  },
  {
    "rank": 7,
    "team_name": "広島経済大学",
    "team_short_name": "広経",
    "runner_name": "久世",
    "total_distance_km": 71.0,
    "latitude": 35.304430730137625,
    "longitude": 139.28012979872662,
    "current_leg": 1,
    "is_shadow_confederation": false
  },
  {
    "rank": 7,
    "team_name": "四国大学",
    "team_short_name": "四国",
    "runner_name": "穴吹",
    "total_distance_km": 71.0,
    "latitude": 35.304430730137625,
    "longitude": 139.28012979872662,
    "current_leg": 1,
    "is_shadow_confederation": false
  },
  {
    "rank": 9,
    "team_name": "立命館大学",
    "team_short_name": "立命",
    "runner_name": "東近江",
    "total_distance_km": 70.6,
    "latitude": 35.30432770634498,
    "longitude": 139.28451575125845,
    "current_leg": 1,
    "is_shadow_confederation": false
  },
  {
    "rank": 10,
    "team_name": "鹿児島大学",
    "team_short_name": "鹿大",
    "runner_name": "肝付前田",
    "total_distance_km": 69.6,
    "latitude": 35.30511422795099,
    "longitude": 139.2951670440476,
    "current_leg": 1,
    "is_shadow_confederation": false
  },
  {
    "rank": 11,
    "team_name": "熊本学園大学",
    "team_short_name": "熊学",
    "runner_name": "犬飼",
    "total_distance_km": 69.0,
    "latitude": 35.306598487594634,
    "longitude": 139.3015109768285,
    "current_leg": 1,
    "is_shadow_confederation": false
  },
  {
    "rank": 12,
    "team_name": "金沢大学",
    "team_short_name": "金沢",
    "runner_name": "伏木",
    "total_distance_km": 68.9,
    "latitude": 35.306845864201904,
    "longitude": 139.30256829895862,
    "current_leg": 1,
    "is_shadow_confederation": false
  },
  {
    "rank": 13,
    "team_name": "上武大学",
    "team_short_name": "上武",
    "runner_name": "前橋",
    "total_distance_km": 68.8,
    "latitude": 35.30709324080918,
    "longitude": 139.30362562108877,
    "current_leg": 1,
    "is_shadow_confederation": false
  },
  {
    "rank": 14,
    "team_name": "日本大学",
    "team_short_name": "日大",
    "runner_name": "八王子",
    "total_distance_km": 68.6,
    "latitude": 35.30758799402373,
    "longitude": 139.30574026534907,
    "current_leg": 1,
    "is_shadow_confederation": false
  },
  {
    "rank": 15,
    "team_name": "福岡大学",
    "team_short_name": "福岡",
    "runner_name": "飯塚",
    "total_distance_km": 68.1,
    "latitude": 35.30768602391836,
    "longitude": 139.311159757147,
    "current_leg": 1,
    "is_shadow_confederation": false
  },
  {
    "rank": 16,
    "team_name": "福島大学",
    "team_short_name": "福島",
    "runner_name": "高田",
    "total_distance_km": 64.5,
    "latitude": 35.31549788746811,
    "longitude": 139.34664408718004,
    "current_leg": 1,
    "is_shadow_confederation": false
  },
  {
    "rank": 17,
    "team_name": "琉球大学",
    "team_short_name": "琉球",
    "runner_name": "北原",
    "total_distance_km": 64.3,
    "latitude": 35.31572290963662,
    "longitude": 139.34882622026066,
    "current_leg": 1,
    "is_shadow_confederation": false
  },
  {
    "rank": 18,
    "team_name": "東北大学",
    "team_short_name": "東北",
    "runner_name": "上富良野",
    "total_distance_km": 55.1,
    "latitude": 35.326039983261495,
    "longitude": 139.44502669029328,
    "current_leg": 1,
    "is_shadow_confederation": false
  },
  {
    "rank": null,
    "team_name": "区間記録連合",
    "team_short_name": "区間記録",
    "runner_name": "梁川",
    "total_distance_km": 78.0,
    "latitude": 35.279813673019476,
    "longitude": 139.21040907700936,
    "current_leg": 1,
    "is_shadow_confederation": true
  }
]