[
  {
    "rank": 1,
    "team_name": "琉球大学",
    "team_short_name": "琉球",
    "runner_name": "那覇",
    "total_distance_km": 667.3,
    "latitude": 34.80657864651258,
    "longitude": 134.2795101022947,
    "is_shadow_confederation": false
  },
  {
    "rank": 2,
    "team_name": "鹿児島大学",
    "team_short_name": "鹿大",
    "runner_name": "笠利",
    "total_distance_km": 574.9,
    "latitude": 34.651614236061654,
    "longitude": 135.12742628040962,
    "is_shadow_confederation": false
  },
  {
    "rank": 3,
    "team_name": "熊本学園大学",
    "team_short_name": "熊学",
    "runner_name": "大分",
    "total_distance_km": 573.0,
    "latitude": 34.66207026598242,
    "longitude": 135.14383760494562,
    "is_shadow_confederation": false
  },
  {
    "rank": 4,
    "team_name": "福岡大学",
    "team_short_name": "福岡",
    "runner_name": "博多",
    "total_distance_km": 541.8,
    "latitude": 34.71270218034747,
    "longitude": 135.45101221202864,
    "is_shadow_confederation": false
  },
  {
    "rank": 5,
    "team_name": "四国大学",
    "team_short_name": "四国",
    "runner_name": "大洲",
    "total_distance_km": 519.4,
    "latitude": 34.78805088743912,
    "longitude": 135.62385874603578,
    "is_shadow_confederation": false
  },
  {
    "rank": 6,
    "team_name": "広島経済大学",
    "team_short_name": "広経",
    "runner_name": "高梁",
    "total_distance_km": 498.3,
    "latitude": 34.93156485335644,
    "longitude": 135.7449416328358,
    "is_shadow_confederation": false
  },
  {
    "rank": 7,
    "team_name": "名古屋大学",
    "team_short_name": "名大",
    "runner_name": "多治見",
    "total_distance_km": 490.8,
    "latitude": 34.99301462175654,
    "longitude": 135.7527011961732,
    "is_shadow_confederation": false
  },
  {
    "rank": 8,
    "team_name": "鳥取大学",
    "team_short_name": "鳥取",
    "runner_name": "境",
    "total_distance_km": 489.4,
    "latitude": 34.995843744012895,
    "longitude": 135.7640454877525,
    "is_shadow_confederation": false
  },
  {
    "rank": 9,
    "team_name": "関西大学",
    "team_short_name": "関大",
    "runner_name": "枚方",
    "total_distance_km": 486.9,
    "latitude": 35.00936494401986,
    "longitude": 135.77802363155965,
    "is_shadow_confederation": false
  },
  {
    "rank": 10,
    "team_name": "立命館大学",
    "team_short_name": "立命",
    "runner_name": "舞鶴",
    "total_distance_km": 477.4,
    "latitude": 35.0014157917487,
    "longitude": 135.85942748626982,
    "is_shadow_confederation": false
  },
  {
    "rank": 11,
    "team_name": "三重大学",
    "team_short_name": "三重",
    "runner_name": "奈良",
    "total_distance_km": 472.4,
    "latitude": 34.9788601379034,
    "longitude": 135.89953976897155,
    "is_shadow_confederation": false
  },
  {
    "rank": 12,
    "team_name": "日本大学",
    "team_short_name": "日大",
    "runner_name": "牛久",
    "total_distance_km": 465.4,
    "latitude": 35.01107625514377,
    "longitude": 135.96060480990212,
    "is_shadow_confederation": false
  },
  {
    "rank": 13,
    "team_name": "上武大学",
    "team_short_name": "上武",
    "runner_name": "桐生",
    "total_distance_km": 458.8,
    "latitude": 35.03011134470406,
    "longitude": 136.0251135834243,
    "is_shadow_confederation": false
  },
  {
    "rank": 14,
    "team_name": "金沢大学",
    "team_short_name": "金沢",
    "runner_name": "福井",
    "total_distance_km": 453.4,
    "latitude": 35.00683270149135,
    "longitude": 136.0767831810587,
    "is_shadow_confederation": false
  },
  {
    "rank": 15,
    "team_name": "山梨学院大学",
    "team_short_name": "山学",
    "runner_name": "甲府",
    "total_distance_km": 436.4,
    "latitude": 34.9459394154299,
    "longitude": 136.240131814646,
    "is_shadow_confederation": false
  },
  {
    "rank": 16,
    "team_name": "福島大学",
    "team_short_name": "福島",
    "runner_name": "長岡",
    "total_distance_km": 399.6,
    "latitude": 34.89565195344554,
    "longitude": 136.54619696534024,
    "is_shadow_confederation": false
  },
  {
    "rank": 17,
    "team_name": "学連選抜",
    "team_short_name": "学連",
    "runner_name": "上",
    "total_distance_km": 390.5,
    "latitude": 34.949441923915,
    "longitude": 136.60783808491354,
    "is_shadow_confederation": false
  },
  {
    "rank": 18,
    "team_name": "東北大学",
    "team_short_name": "東北",
    "runner_name": "大館",
    "total_distance_km": 334.3,
    "latitude": 35.02031612138099,
    "longitude": 137.03250910812037,
    "is_shadow_confederation": false
  }
]