[
  {
    "rank": 1,
    "team_name": "琉球大学",
    "team_short_name": "琉球",
    "runner_name": "久米島",
    "total_distance_km": 661.6,
    "latitude": 34.84209860693759,
    "longitude": 134.31897683590577,
    "is_shadow_confederation": false
  },
  {
    "rank": 2,
    "team_name": "鹿児島大学",
    "team_short_name": "鹿大",
    "runner_name": "西都",
    "total_distance_km": 530.4,
    "latitude": 34.71519383946703,
    "longitude": 135.5464577034064,
    "is_shadow_confederation": false
  },
  {
    "rank": 3,
    "team_name": "熊本学園大学",
    "team_short_name": "熊学",
    "runner_name": "熊本",
    "total_distance_km": 520.5,
    "latitude": 34.77957489053427,
    "longitude": 135.61773178711655,
    "is_shadow_confederation": false
  },
  {
    "rank": 4,
    "team_name": "福岡大学",
    "team_short_name": "福岡",
    "runner_name": "前原",
    "total_distance_km": 494.2,
    "latitude": 34.96850600377233,
    "longitude": 135.74590340997466,
    "is_shadow_confederation": false
  },
  {
    "rank": 5,
    "team_name": "名古屋大学",
    "team_short_name": "名大",
    "runner_name": "多治見",
    "total_distance_km": 456.8,
    "latitude": 35.022939360845754,
    "longitude": 136.0452201679699,
    "is_shadow_confederation": false
  },
  {
    "rank": 6,
    "team_name": "四国大学",
    "team_short_name": "四国",
    "runner_name": "大洲",
    "total_distance_km": 456.7,
    "latitude": 35.02258076165283,
    "longitude": 136.04622549719716,
    "is_shadow_confederation": false
  },
  {
    "rank": 7,
    "team_name": "上武大学",
    "team_short_name": "上武",
    "runner_name": "桐生",
    "total_distance_km": 446.3,
    "latitude": 34.98291441413132,
    "longitude": 136.1443513928698,
    "is_shadow_confederation": false
  },
  {
    "rank": 8,
    "team_name": "広島経済大学",
    "team_short_name": "広経",
    "runner_name": "高梁",
    "total_distance_km": 446.0,
    "latitude": 34.98230161639768,
    "longitude": 136.14755155881215,
    "is_shadow_confederation": false
  },
  {
    "rank": 9,
    "team_name": "日本大学",
    "team_short_name": "日大",
    "runner_name": "牛久",
    "total_distance_km": 443.3,
    "latitude": 34.97315268800593,
    "longitude": 136.17461791838033,
    "is_shadow_confederation": false
  },
  {
    "rank": 10,
    "team_name": "鳥取大学",
    "team_short_name": "鳥取",
    "runner_name": "境",
    "total_distance_km": 438.0,
    "latitude": 34.95276226710452,
    "longitude": 136.22502478113344,
    "is_shadow_confederation": false
  },
  {
    "rank": 11,
    "team_name": "三重大学",
    "team_short_name": "三重",
    "runner_name": "奈良",
    "total_distance_km": 435.6,
    "latitude": 34.942705578389116,
    "longitude": 136.24792159623675,
    "is_shadow_confederation": false
  },
  {
    "rank": 12,
    "team_name": "関西大学",
    "team_short_name": "関大",
    "runner_name": "枚方",
    "total_distance_km": 430.5,
    "latitude": 34.92728245558353,
    "longitude": 136.29804611069994,
    "is_shadow_confederation": false
  },
  {
    "rank": 13,
    "team_name": "立命館大学",
    "team_short_name": "立命",
    "runner_name": "米原",
    "total_distance_km": 409.5,
    "latitude": 34.85042117385648,
    "longitude": 136.46263093676575,
    "is_shadow_confederation": false
  },
  {
    "rank": 14,
    "team_name": "山梨学院大学",
    "team_short_name": "山学",
    "runner_name": "浜松",
    "total_distance_km": 394.9,
    "latitude": 34.91893883102241,
    "longitude": 136.57923614851364,
    "is_shadow_confederation": false
  },
  {
    "rank": 15,
    "team_name": "福島大学",
    "team_short_name": "福島",
    "runner_name": "長岡",
    "total_distance_km": 376.1,
    "latitude": 35.05649530378846,
    "longitude": 136.68394505408992,
    "is_shadow_confederation": false
  },
  {
    "rank": 16,
    "team_name": "金沢大学",
    "team_short_name": "金沢",
    "runner_name": "志賀",
    "total_distance_km": 347.7,
    "latitude": 35.0983830570079,
    "longitude": 136.92705520414785,
    "is_shadow_confederation": false
  },
  {
    "rank": 17,
    "team_name": "東北大学",
    "team_short_name": "東北",
    "runner_name": "高畠",
    "total_distance_km": 300.3,
    "latitude": 34.844904364048006,
    "longitude": 137.32150988960652,
    "is_shadow_confederation": false
  },
  {
    "rank": 18,
    "team_name": "学連選抜",
    "team_short_name": "学連",
    "runner_name": "新潟",
    "total_distance_km": 195.3,
    "latitude": 34.878492989629386,
    "longitude": 138.23450805182154,
    "is_shadow_confederation": false
  },
  {
    "rank": null,
    "team_name": "区間記録連合",
    "team_short_name": "区間記録",
    "runner_name": "勝沼",
    "total_distance_km": 661.6,
    "latitude": 34.84209860693759,
    "longitude": 134.31897683590577,
    "is_shadow_confederation": true
  }
]