[
  {
    "rank": 1,
    "team_name": "琉球大学",
    "team_short_name": "琉球",
    "runner_name": "仲筋",
    "total_distance_km": 163.9,
    "latitude": 35.03242868046581,
    "longitude": 138.48988143405944,
    "is_shadow_confederation": false
  },
  {
    "rank": 2,
    "team_name": "鹿児島大学",
    "team_short_name": "鹿大",
    "runner_name": "川内（鹿児島）",
    "total_distance_km": 118.9,
    "latitude": 35.10945119078093,
    "longitude": 138.8971051978885,
    "is_shadow_confederation": false
  },
  {
    "rank": 3,
    "team_name": "熊本学園大学",
    "team_short_name": "熊学",
    "runner_name": "甲佐",
    "total_distance_km": 115.8,
    "latitude": 35.121707216266294,
    "longitude": 138.9264549077731,
    "is_shadow_confederation": false
  },
  {
    "rank": 4,
    "team_name": "福岡大学",
    "team_short_name": "福岡",
    "runner_name": "久留米",
    "total_distance_km": 108.9,
    "latitude": 35.15023972771943,
    "longitude": 138.9857828822403,
    "is_shadow_confederation": false
  },
  {
    "rank": 5,
    "team_name": "名古屋大学",
    "team_short_name": "名大",
    "runner_name": "美濃加茂",
    "total_distance_km": 94.8,
    "latitude": 35.210145662740885,
    "longitude": 139.06192072272466,
    "is_shadow_confederation": false
  },
  {
    "rank": 6,
    "team_name": "三重大学",
    "team_short_name": "三重",
    "runner_name": "粥見",
    "total_distance_km": 94.1,
    "latitude": 35.21261259720965,
    "longitude": 139.06647401982426,
    "is_shadow_confederation": false
  },
  {
    "rank": 7,
    "team_name": "四国大学",
    "team_short_name": "四国",
    "runner_name": "穴吹",
    "total_distance_km": 92.9,
    "latitude": 35.219545108463514,
    "longitude": 139.07508528665088,
    "is_shadow_confederation": false
  },
  {
    "rank": 8,
    "team_name": "上武大学",
    "team_short_name": "上武",
    "runner_name": "佐野",
    "total_distance_km": 89.9,
    "latitude": 35.229102077756394,
    "longitude": 139.10447638026164,
    "is_shadow_confederation": false
  },
  {
    "rank": 9,
    "team_name": "日本大学",
    "team_short_name": "日大",
    "runner_name": "大子",
    "total_distance_km": 89.2,
    "latitude": 35.23194715722724,
    "longitude": 139.11106568054595,
    "is_shadow_confederation": false
  },
  {
    "rank": 10,
    "team_name": "関西大学",
    "team_short_name": "関大",
    "runner_name": "福崎",
    "total_distance_km": 85.2,
    "latitude": 35.246100402513214,
    "longitude": 139.14715760798356,
    "is_shadow_confederation": false
  },
  {
    "rank": 11,
    "team_name": "鳥取大学",
    "team_short_name": "鳥取",
    "runner_name": "川本",
    "total_distance_km": 79.8,
    "latitude": 35.269944329065574,
    "longitude": 139.1958257264782,
    "is_shadow_confederation": false
  },
  {
    "rank": 12,
    "team_name": "立命館大学",
    "team_short_name": "立命",
    "runner_name": "東近江",
    "total_distance_km": 77.9,
    "latitude": 35.2799942525825,
    "longitude": 139.21148598400433,
    "is_shadow_confederation": false
  },
  {
    "rank": 13,
    "team_name": "広島経済大学",
    "team_short_name": "広経",
    "runner_name": "三次",
    "total_distance_km": 77.5,
    "latitude": 35.280716570834585,
    "longitude": 139.21579361198417,
    "is_shadow_confederation": false
  },
  {
    "rank": 14,
    "team_name": "福島大学",
    "team_short_name": "福島",
    "runner_name": "梁川",
    "total_distance_km": 75.8,
    "latitude": 35.28745945974912,
    "longitude": 139.23232909681093,
    "is_shadow_confederation": false
  },
  {
    "rank": 15,
    "team_name": "金沢大学",
    "team_short_name": "金沢",
    "runner_name": "秋ヶ島",
    "total_distance_km": 59.8,
    "latitude": 35.31808953688564,
    "longitude": 139.39619910318416,
    "is_shadow_confederation": false
  },
  {
    "rank": 16,
    "team_name": "山梨学院大学",
    "team_short_name": "山学",
    "runner_name": "長野",
    "total_distance_km": 54.1,
    "latitude": 35.32858347748357,
    "longitude": 139.45540172213896,
    "is_shadow_confederation": false
  },
  {
    "rank": 17,
    "team_name": "東北大学",
    "team_short_name": "東北",
    "runner_name": "帯広",
    "total_distance_km": 44.9,
    "latitude": 35.386883940086044,
    "longitude": 139.51826624393757,
    "is_shadow_confederation": false
  },
  {
    "rank": 18,
    "team_name": "学連選抜",
    "team_short_name": "学連",
    "runner_name": "美幌",
    "total_distance_km": 3.8,
    "latitude": 35.65855775014324,
    "longitude": 139.74703178839124,
    "is_shadow_confederation": false
  },
  {
    "rank": null,
    "team_name": "区間記録連合",
    "team_short_name": "区間記録",
    "runner_name": "佐野",
    "total_distance_km": 221.2,
    "latitude": 34.77820797323534,
    "longitude": 138.0237578334833,
    "is_shadow_confederation": true
  }
]