[
  {
    "rank": 1,
    "team_name": "琉球大学",
    "team_short_name": "琉球",
    "runner_name": "那覇",
    "total_distance_km": 722.4,
    "latitude": 34.60171773972977,
    "longitude": 133.7681462541195,
    "is_shadow_confederation": false
  },
  {
    "rank": 2,
    "team_name": "熊本学園大学",
    "team_short_name": "熊学",
    "runner_name": "犬飼",
    "total_distance_km": 669.3,
    "latitude": 34.794424556285534,
    "longitude": 134.26414053794883,
    "is_shadow_confederation": false
  },
  {
    "rank": 3,
    "team_name": "福岡大学",
    "team_short_name": "福岡",
    "runner_name": "博多",
    "total_distance_km": 661.8,
    "latitude": 34.8408195624005,
    "longitude": 134.31750760435483,
    "is_shadow_confederation": false
  },
  {
    "rank": 4,
    "team_name": "鹿児島大学",
    "team_short_name": "鹿大",
    "runner_name": "笠利",
    "total_distance_km": 657.5,
    "latitude": 34.829948000064626,
    "longitude": 134.35797905283172,
    "is_shadow_confederation": false
  },
  {
    "rank": 5,
    "team_name": "名古屋大学",
    "team_short_name": "名大",
    "runner_name": "豊田（愛知）",
    "total_distance_km": 653.2,
    "latitude": 34.82986213466029,
    "longitude": 134.4025663563518,
    "is_shadow_confederation": false
  },
  {
    "rank": 6,
    "team_name": "関西大学",
    "team_short_name": "関大",
    "runner_name": "豊中",
    "total_distance_km": 649.3,
    "latitude": 34.828890319440575,
    "longitude": 134.44313598820972,
    "is_shadow_confederation": false
  },
  {
    "rank": 7,
    "team_name": "鳥取大学",
    "team_short_name": "鳥取",
    "runner_name": "松江",
    "total_distance_km": 646.7,
    "latitude": 34.81946240742923,
    "longitude": 134.4667885108031,
    "is_shadow_confederation": false
  },
  {
    "rank": 8,
    "team_name": "四国大学",
    "team_short_name": "四国",
    "runner_name": "徳島",
    "total_distance_km": 646.1,
    "latitude": 34.81847230479815,
    "longitude": 134.4730783471215,
    "is_shadow_confederation": false
  },
  {
    "rank": 9,
    "team_name": "広島経済大学",
    "team_short_name": "広経",
    "runner_name": "高松（香川）",
    "total_distance_km": 644.8,
    "latitude": 34.819706074129904,
    "longitude": 134.48708812835093,
    "is_shadow_confederation": false
  },
  {
    "rank": 10,
    "team_name": "立命館大学",
    "team_short_name": "立命",
    "runner_name": "彦根",
    "total_distance_km": 643.9,
    "latitude": 34.82204191399902,
    "longitude": 134.49644018884715,
    "is_shadow_confederation": false
  },
  {
    "rank": 11,
    "team_name": "山梨学院大学",
    "team_short_name": "山学",
    "runner_name": "静岡",
    "total_distance_km": 637.8,
    "latitude": 34.832757211842186,
    "longitude": 134.56069248289535,
    "is_shadow_confederation": false
  },
  {
    "rank": 12,
    "team_name": "上武大学",
    "team_short_name": "上武",
    "runner_name": "伊勢崎",
    "total_distance_km": 634.6,
    "latitude": 34.833078991458834,
    "longitude": 134.59541831610505,
    "is_shadow_confederation": false
  },
  {
    "rank": 12,
    "team_name": "三重大学",
    "team_short_name": "三重",
    "runner_name": "新宮",
    "total_distance_km": 634.6,
    "latitude": 34.833078991458834,
    "longitude": 134.59541831610505,
    "is_shadow_confederation": false
  },
  {
    "rank": 14,
    "team_name": "金沢大学",
    "team_short_name": "金沢",
    "runner_name": "富山",
    "total_distance_km": 627.1,
    "latitude": 34.84119453043639,
    "longitude": 134.66213582443044,
    "is_shadow_confederation": false
  },
  {
    "rank": 15,
    "team_name": "日本大学",
    "team_short_name": "日大",
    "runner_name": "八王子",
    "total_distance_km": 604.8,
    "latitude": 34.743670442058296,
    "longitude": 134.86616021048258,
    "is_shadow_confederation": false
  },
  {
    "rank": 16,
    "team_name": "福島大学",
    "team_short_name": "福島",
    "runner_name": "浪江",
    "total_distance_km": 574.7,
    "latitude": 34.652696628281745,
    "longitude": 135.1291710672533,
    "is_shadow_confederation": false
  },
  {
    "rank": 17,
    "team_name": "学連選抜",
    "team_short_name": "学連",
    "runner_name": "多度津",
    "total_distance_km": 573.9,
    "latitude": 34.657026197162104,
    "longitude": 135.13615021462806,
    "is_shadow_confederation": false
  },
  {
    "rank": 18,
    "team_name": "東北大学",
    "team_short_name": "東北",
    "runner_name": "丸森",
    "total_distance_km": 567.1,
    "latitude": 34.69315240769596,
    "longitude": 135.19438890526516,
    "is_shadow_confederation": false
  }
]