[
  {
    "rank": 1,
    "team_name": "琉球大学",
    "team_short_name": "琉球",
    "runner_name": "西表島",
    "total_distance_km": 871.3,
    "latitude": 34.38732481594653,
    "longitude": 132.4181911341878,
    "is_shadow_confederation": false
  },
  {
    "rank": 2,
    "team_name": "熊本学園大学",
    "team_short_name": "熊学",
    "runner_name": "三角",
    "total_distance_km": 824.2,
    "latitude": 34.407887901112055,
    "longitude": 132.83477043336876,
    "is_shadow_confederation": false
  },
  {
    "rank": 3,
    "team_name": "福岡大学",
    "team_short_name": "福岡",
    "runner_name": "大牟田",
    "total_distance_km": 805.1,
    "latitude": 34.405112727931346,
    "longitude": 133.0128652834714,
    "is_shadow_confederation": false
  },
  {
    "rank": 4,
    "team_name": "鹿児島大学",
    "team_short_name": "鹿大",
    "runner_name": "さつま柏原",
    "total_distance_km": 799.6,
    "latitude": 34.39227237340967,
    "longitude": 133.06424909429862,
    "is_shadow_confederation": false
  },
  {
    "rank": 5,
    "team_name": "名古屋大学",
    "team_short_name": "名大",
    "runner_name": "大府",
    "total_distance_km": 799.2,
    "latitude": 34.393984358635684,
    "longitude": 133.06807742444366,
    "is_shadow_confederation": false
  },
  {
    "rank": 6,
    "team_name": "関西大学",
    "team_short_name": "関大",
    "runner_name": "郡家",
    "total_distance_km": 797.4,
    "latitude": 34.39742810202468,
    "longitude": 133.08499348096927,
    "is_shadow_confederation": false
  },
  {
    "rank": 7,
    "team_name": "鳥取大学",
    "team_short_name": "鳥取",
    "runner_name": "玖珂",
    "total_distance_km": 793.8,
    "latitude": 34.38411141716928,
    "longitude": 133.11616435692486,
    "is_shadow_confederation": false
  },
  {
    "rank": 8,
    "team_name": "広島経済大学",
    "team_short_name": "広経",
    "runner_name": "引田",
    "total_distance_km": 789.1,
    "latitude": 34.39618696427312,
    "longitude": 133.1625150158147,
    "is_shadow_confederation": false
  },
  {
    "rank": 9,
    "team_name": "立命館大学",
    "team_short_name": "立命",
    "runner_name": "京都",
    "total_distance_km": 788.7,
    "latitude": 34.39758857765166,
    "longitude": 133.16652300013874,
    "is_shadow_confederation": false
  },
  {
    "rank": 10,
    "team_name": "四国大学",
    "team_short_name": "四国",
    "runner_name": "江川崎",
    "total_distance_km": 782.9,
    "latitude": 34.409480260865685,
    "longitude": 133.22237252737403,
    "is_shadow_confederation": false
  },
  {
    "rank": 11,
    "team_name": "山梨学院大学",
    "team_short_name": "山学",
    "runner_name": "上田",
    "total_distance_km": 774.9,
    "latitude": 34.45564198538391,
    "longitude": 133.2693257002293,
    "is_shadow_confederation": false
  },
  {
    "rank": 12,
    "team_name": "上武大学",
    "team_short_name": "上武",
    "runner_name": "前橋",
    "total_distance_km": 773.4,
    "latitude": 34.461399827401,
    "longitude": 133.28408592217883,
    "is_shadow_confederation": false
  },
  {
    "rank": 13,
    "team_name": "三重大学",
    "team_short_name": "三重",
    "runner_name": "和歌山",
    "total_distance_km": 767.8,
    "latitude": 34.48545240119742,
    "longitude": 133.33519486916686,
    "is_shadow_confederation": false
  },
  {
    "rank": 14,
    "team_name": "金沢大学",
    "team_short_name": "金沢",
    "runner_name": "小松",
    "total_distance_km": 766.1,
    "latitude": 34.485814940365735,
    "longitude": 133.3525275569318,
    "is_shadow_confederation": false
  },
  {
    "rank": 15,
    "team_name": "日本大学",
    "team_short_name": "日大",
    "runner_name": "練馬",
    "total_distance_km": 742.4,
    "latitude": 34.52461915232602,
    "longitude": 133.58330186050745,
    "is_shadow_confederation": false
  },
  {
    "rank": 16,
    "team_name": "学連選抜",
    "team_short_name": "学連",
    "runner_name": "加世田",
    "total_distance_km": 720.8,
    "latitude": 34.611332221330144,
    "longitude": 133.7811488674004,
    "is_shadow_confederation": false
  },
  {
    "rank": 17,
    "team_name": "福島大学",
    "team_short_name": "福島",
    "runner_name": "寺泊",
    "total_distance_km": 704.4,
    "latitude": 34.65843796946575,
    "longitude": 133.93945407849603,
    "is_shadow_confederation": false
  },
  {
    "rank": 18,
    "team_name": "東北大学",
    "team_short_name": "東北",
    "runner_name": "秋田",
    "total_distance_km": 697.3,
    "latitude": 34.68898582316642,
    "longitude": 134.00396654561794,
    "is_shadow_confederation": false
  }
]