[
  {
    "rank": 1,
    "team_name": "琉球大学",
    "team_short_name": "琉球",
    "runner_name": "名護",
    "total_distance_km": 335.2,
    "latitude": 35.02549930014675,
    "longitude": 137.0249303968094,
    "is_shadow_confederation": false
  },
  {
    "rank": 2,
    "team_name": "鹿児島大学",
    "team_short_name": "鹿大",
    "runner_name": "加久藤",
    "total_distance_km": 250.4,
    "latitude": 34.708052,
    "longitude": 137.73259590794615,
    "is_shadow_confederation": false
  },
  {
    "rank": 3,
    "team_name": "熊本学園大学",
    "team_short_name": "熊学",
    "runner_name": "八代",
    "total_distance_km": 242.1,
    "latitude": 34.72689631978739,
    "longitude": 137.81439046635506,
    "is_shadow_confederation": false
  },
  {
    "rank": 4,
    "team_name": "福岡大学",
    "team_short_name": "福岡",
    "runner_name": "福岡",
    "total_distance_km": 225.3,
    "latitude": 34.77145845994602,
    "longitude": 137.98054232605065,
    "is_shadow_confederation": false
  },
  {
    "rank": 5,
    "team_name": "名古屋大学",
    "team_short_name": "名大",
    "runner_name": "美濃",
    "total_distance_km": 208.8,
    "latitude": 34.82835619356249,
    "longitude": 138.1200327269184,
    "is_shadow_confederation": false
  },
  {
    "rank": 6,
    "team_name": "日本大学",
    "team_short_name": "日大",
    "runner_name": "古河",
    "total_distance_km": 201.2,
    "latitude": 34.84832780067095,
    "longitude": 138.18573026961607,
    "is_shadow_confederation": false
  },
  {
    "rank": 7,
    "team_name": "四国大学",
    "team_short_name": "四国",
    "runner_name": "大三島",
    "total_distance_km": 200.2,
    "latitude": 34.85208784619873,
    "longitude": 138.19565093683505,
    "is_shadow_confederation": false
  },
  {
    "rank": 8,
    "team_name": "上武大学",
    "team_short_name": "上武",
    "runner_name": "越谷",
    "total_distance_km": 199.7,
    "latitude": 34.85375770418336,
    "longitude": 138.20072923441376,
    "is_shadow_confederation": false
  },
  {
    "rank": 9,
    "team_name": "三重大学",
    "team_short_name": "三重",
    "runner_name": "五條",
    "total_distance_km": 195.4,
    "latitude": 34.877750640970305,
    "longitude": 138.23388761267196,
    "is_shadow_confederation": false
  },
  {
    "rank": 10,
    "team_name": "広島経済大学",
    "team_short_name": "広経",
    "runner_name": "加計",
    "total_distance_km": 183.7,
    "latitude": 34.9413848187341,
    "longitude": 138.323166309633,
    "is_shadow_confederation": false
  },
  {
    "rank": 11,
    "team_name": "関西大学",
    "team_short_name": "関大",
    "runner_name": "和田山",
    "total_distance_km": 179.7,
    "latitude": 34.94930540643402,
    "longitude": 138.3595421248981,
    "is_shadow_confederation": false
  },
  {
    "rank": 12,
    "team_name": "鳥取大学",
    "team_short_name": "鳥取",
    "runner_name": "鳥取",
    "total_distance_km": 179.1,
    "latitude": 34.952316097955986,
    "longitude": 138.36499889699195,
    "is_shadow_confederation": false
  },
  {
    "rank": 13,
    "team_name": "立命館大学",
    "team_short_name": "立命",
    "runner_name": "福知山",
    "total_distance_km": 169.7,
    "latitude": 35.00642710989969,
    "longitude": 138.4426143224354,
    "is_shadow_confederation": false
  },
  {
    "rank": 14,
    "team_name": "福島大学",
    "team_short_name": "福島",
    "runner_name": "石川",
    "total_distance_km": 163.3,
    "latitude": 35.03670189669974,
    "longitude": 138.49390799071404,
    "is_shadow_confederation": false
  },
  {
    "rank": 15,
    "team_name": "山梨学院大学",
    "team_short_name": "山学",
    "runner_name": "南信濃",
    "total_distance_km": 151.9,
    "latitude": 35.109685432072794,
    "longitude": 138.56812991938054,
    "is_shadow_confederation": false
  },
  {
    "rank": 16,
    "team_name": "金沢大学",
    "team_short_name": "金沢",
    "runner_name": "小浜",
    "total_distance_km": 142.7,
    "latitude": 35.13548291051202,
    "longitude": 138.6549466450042,
    "is_shadow_confederation": false
  },
  {
    "rank": 17,
    "team_name": "東北大学",
    "team_short_name": "東北",
    "runner_name": "帯広",
    "total_distance_km": 98.2,
    "latitude": 35.195131965867375,
    "longitude": 139.0515592772458,
    "is_shadow_confederation": false
  },
  {
    "rank": 18,
    "team_name": "学連選抜",
    "team_short_name": "学連",
    "runner_name": "美幌",
    "total_distance_km": 38.0,
    "latitude": 35.42437958162218,
    "longitude": 139.56703395486971,
    "is_shadow_confederation": false
  },
  {
    "rank": null,
    "team_name": "区間記録連合",
    "team_short_name": "区間記録",
    "runner_name": "風屋",
    "total_distance_km": 354.4,
    "latitude": 35.12503690649312,
    "longitude": 136.87309027726346,
    "is_shadow_confederation": true
  }
]