[
  {
    "rank": 1,
    "team_name": "琉球大学",
    "team_short_name": "琉球",
    "runner_name": "西表島",
    "total_distance_km": 780.5,
    "latitude": 34.425717845771736,
    "longitude": 133.22759123721016,
    "is_shadow_confederation": false
  },
  {
    "rank": 2,
    "team_name": "鹿児島大学",
    "team_short_name": "鹿大",
    "runner_name": "鹿児島",
    "total_distance_km": 675.2,
    "latitude": 34.75924380223502,
    "longitude": 134.22022268474169,
    "is_shadow_confederation": false
  },
  {
    "rank": 3,
    "team_name": "熊本学園大学",
    "team_short_name": "熊学",
    "runner_name": "大分",
    "total_distance_km": 657.8,
    "latitude": 34.831337977846296,
    "longitude": 134.35516585893686,
    "is_shadow_confederation": false
  },
  {
    "rank": 4,
    "team_name": "福岡大学",
    "team_short_name": "福岡",
    "runner_name": "博多",
    "total_distance_km": 634.8,
    "latitude": 34.83312786936625,
    "longitude": 134.59324342495262,
    "is_shadow_confederation": false
  },
  {
    "rank": 5,
    "team_name": "四国大学",
    "team_short_name": "四国",
    "runner_name": "徳島",
    "total_distance_km": 605.2,
    "latitude": 34.74620205238539,
    "longitude": 134.86305098726558,
    "is_shadow_confederation": false
  },
  {
    "rank": 6,
    "team_name": "広島経済大学",
    "team_short_name": "広経",
    "runner_name": "高松（香川）",
    "total_distance_km": 587.1,
    "latitude": 34.64585670658312,
    "longitude": 135.00922970365573,
    "is_shadow_confederation": false
  },
  {
    "rank": 7,
    "team_name": "名古屋大学",
    "team_short_name": "名大",
    "runner_name": "豊田（愛知）",
    "total_distance_km": 574.0,
    "latitude": 34.656485001052054,
    "longitude": 135.13527782120622,
    "is_shadow_confederation": false
  },
  {
    "rank": 8,
    "team_name": "鳥取大学",
    "team_short_name": "鳥取",
    "runner_name": "松江",
    "total_distance_km": 571.2,
    "latitude": 34.670195543573655,
    "longitude": 135.16020529160383,
    "is_shadow_confederation": false
  },
  {
    "rank": 9,
    "team_name": "関西大学",
    "team_short_name": "関大",
    "runner_name": "豊中",
    "total_distance_km": 568.9,
    "latitude": 34.68337987003755,
    "longitude": 135.1792695160856,
    "is_shadow_confederation": false
  },
  {
    "rank": 10,
    "team_name": "立命館大学",
    "team_short_name": "立命",
    "runner_name": "彦根",
    "total_distance_km": 557.3,
    "latitude": 34.72785301573519,
    "longitude": 135.29070455748234,
    "is_shadow_confederation": false
  },
  {
    "rank": 11,
    "team_name": "三重大学",
    "team_short_name": "三重",
    "runner_name": "新宮",
    "total_distance_km": 556.7,
    "latitude": 34.72977085414852,
    "longitude": 135.2968297288095,
    "is_shadow_confederation": false
  },
  {
    "rank": 12,
    "team_name": "日本大学",
    "team_short_name": "日大",
    "runner_name": "八王子",
    "total_distance_km": 539.3,
    "latitude": 34.69731855610369,
    "longitude": 135.47044530166033,
    "is_shadow_confederation": false
  },
  {
    "rank": 13,
    "team_name": "金沢大学",
    "team_short_name": "金沢",
    "runner_name": "福井",
    "total_distance_km": 536.7,
    "latitude": 34.69830524531322,
    "longitude": 135.49600295786942,
    "is_shadow_confederation": false
  },
  {
    "rank": 14,
    "team_name": "上武大学",
    "team_short_name": "上武",
    "runner_name": "桐生",
    "total_distance_km": 536.5,
    "latitude": 34.698162287866104,
    "longitude": 135.498178949867,
    "is_shadow_confederation": false
  },
  {
    "rank": 15,
    "team_name": "山梨学院大学",
    "team_short_name": "山学",
    "runner_name": "甲府",
    "total_distance_km": 511.4,
    "latitude": 34.83026844407646,
    "longitude": 135.68827250326004,
    "is_shadow_confederation": false
  },
  {
    "rank": 16,
    "team_name": "学連選抜",
    "team_short_name": "学連",
    "runner_name": "久世",
    "total_distance_km": 474.3,
    "latitude": 34.990520035159115,
    "longitude": 135.8865625326552,
    "is_shadow_confederation": false
  },
  {
    "rank": 17,
    "team_name": "福島大学",
    "team_short_name": "福島",
    "runner_name": "福島",
    "total_distance_km": 470.5,
    "latitude": 34.98138054030465,
    "longitude": 135.9185761356391,
    "is_shadow_confederation": false
  },
  {
    "rank": 18,
    "team_name": "東北大学",
    "team_short_name": "東北",
    "runner_name": "大館",
    "total_distance_km": 395.9,
    "latitude": 34.91441636064208,
    "longitude": 136.5705866381945,
    "is_shadow_confederation": false
  }
]