[
  {
    "rank": 1,
    "team_name": "琉球大学",
    "team_short_name": "琉球",
    "runner_name": "西表島",
    "total_distance_km": 809.2,
    "latitude": 34.404268088143525,
    "longitude": 132.97177457150835,
    "is_shadow_confederation": false
  },
  {
    "rank": 2,
    "team_name": "熊本学園大学",
    "team_short_name": "熊学",
    "runner_name": "三角",
    "total_distance_km": 759.5,
    "latitude": 34.49791584542325,
    "longitude": 133.42123482587013,
    "is_shadow_confederation": false
  },
  {
    "rank": 3,
    "team_name": "福岡大学",
    "team_short_name": "福岡",
    "runner_name": "口之津",
    "total_distance_km": 740.4,
    "latitude": 34.53359518689369,
    "longitude": 133.60210272902972,
    "is_shadow_confederation": false
  },
  {
    "rank": 3,
    "team_name": "鹿児島大学",
    "team_short_name": "鹿大",
    "runner_name": "鹿児島",
    "total_distance_km": 740.4,
    "latitude": 34.53359518689369,
    "longitude": 133.60210272902972,
    "is_shadow_confederation": false
  },
  {
    "rank": 5,
    "team_name": "名古屋大学",
    "team_short_name": "名大",
    "runner_name": "名古屋",
    "total_distance_km": 740.1,
    "latitude": 34.53454649477501,
    "longitude": 133.60515428218497,
    "is_shadow_confederation": false
  },
  {
    "rank": 6,
    "team_name": "関西大学",
    "team_short_name": "関大",
    "runner_name": "八尾（大阪）",
    "total_distance_km": 738.6,
    "latitude": 34.5356086267461,
    "longitude": 133.6211879252612,
    "is_shadow_confederation": false
  },
  {
    "rank": 7,
    "team_name": "立命館大学",
    "team_short_name": "立命",
    "runner_name": "長浜（滋賀）",
    "total_distance_km": 731.5,
    "latitude": 34.5640848957858,
    "longitude": 133.68674354337443,
    "is_shadow_confederation": false
  },
  {
    "rank": 7,
    "team_name": "鳥取大学",
    "team_short_name": "鳥取",
    "runner_name": "米子",
    "total_distance_km": 731.5,
    "latitude": 34.5640848957858,
    "longitude": 133.68674354337443,
    "is_shadow_confederation": false
  },
  {
    "rank": 9,
    "team_name": "広島経済大学",
    "team_short_name": "広経",
    "runner_name": "福山",
    "total_distance_km": 728.8,
    "latitude": 34.57864871951472,
    "longitude": 133.7085520823969,
    "is_shadow_confederation": false
  },
  {
    "rank": 10,
    "team_name": "四国大学",
    "team_short_name": "四国",
    "runner_name": "新居浜",
    "total_distance_km": 728.4,
    "latitude": 34.5777417640128,
    "longitude": 133.7127713799561,
    "is_shadow_confederation": false
  },
  {
    "rank": 11,
    "team_name": "上武大学",
    "team_short_name": "上武",
    "runner_name": "小山",
    "total_distance_km": 717.3,
    "latitude": 34.632043202714165,
    "longitude": 133.80846423562653,
    "is_shadow_confederation": false
  },
  {
    "rank": 12,
    "team_name": "山梨学院大学",
    "team_short_name": "山学",
    "runner_name": "三島",
    "total_distance_km": 715.1,
    "latitude": 34.640776336237955,
    "longitude": 133.8298280129259,
    "is_shadow_confederation": false
  },
  {
    "rank": 13,
    "team_name": "三重大学",
    "team_short_name": "三重",
    "runner_name": "津",
    "total_distance_km": 710.4,
    "latitude": 34.6482522999107,
    "longitude": 133.877975765358,
    "is_shadow_confederation": false
  },
  {
    "rank": 13,
    "team_name": "金沢大学",
    "team_short_name": "金沢",
    "runner_name": "敦賀",
    "total_distance_km": 710.4,
    "latitude": 34.6482522999107,
    "longitude": 133.877975765358,
    "is_shadow_confederation": false
  },
  {
    "rank": 15,
    "team_name": "日本大学",
    "team_short_name": "日大",
    "runner_name": "練馬",
    "total_distance_km": 687.5,
    "latitude": 34.71756750703109,
    "longitude": 134.09874970695589,
    "is_shadow_confederation": false
  },
  {
    "rank": 16,
    "team_name": "学連選抜",
    "team_short_name": "学連",
    "runner_name": "多度津",
    "total_distance_km": 660.3,
    "latitude": 34.84275157276504,
    "longitude": 134.3323065216521,
    "is_shadow_confederation": false
  },
  {
    "rank": 17,
    "team_name": "福島大学",
    "team_short_name": "福島",
    "runner_name": "浪江",
    "total_distance_km": 648.7,
    "latitude": 34.82686530444676,
    "longitude": 134.4490745437274,
    "is_shadow_confederation": false
  },
  {
    "rank": 18,
    "team_name": "東北大学",
    "team_short_name": "東北",
    "runner_name": "丸森",
    "total_distance_km": 640.2,
    "latitude": 34.8282377498996,
    "longitude": 134.535434356004,
    "is_shadow_confederation": false
  }
]