[
  {
    "rank": 1,
    "team_name": "琉球大学",
    "team_short_name": "琉球",
    "runner_name": "石垣島",
    "total_distance_km": 989.3,
    "latitude": 34.06693418815933,
    "longitude": 131.47437014149867,
    "is_shadow_confederation": false
  },
  {
    "rank": 2,
    "team_name": "名古屋大学",
    "team_short_name": "名大",
    "runner_name": "揖斐川",
    "total_distance_km": 959.4,
    "latitude": 34.07189098422259,
    "longitude": 131.7456966736072,
    "is_shadow_confederation": false
  },
  {
    "rank": 3,
    "team_name": "鹿児島大学",
    "team_short_name": "鹿大",
    "runner_name": "喜入",
    "total_distance_km": 958.3,
    "latitude": 34.07222468737035,
    "longitude": 131.75739828341258,
    "is_shadow_confederation": false
  },
  {
    "rank": 4,
    "team_name": "福岡大学",
    "team_short_name": "福岡",
    "runner_name": "佐賀（佐賀）",
    "total_distance_km": 958.2,
    "latitude": 34.072048551972884,
    "longitude": 131.75846075476596,
    "is_shadow_confederation": false
  },
  {
    "rank": 5,
    "team_name": "熊本学園大学",
    "team_short_name": "熊学",
    "runner_name": "菊池",
    "total_distance_km": 951.4,
    "latitude": 34.04447124138893,
    "longitude": 131.81472439418104,
    "is_shadow_confederation": false
  },
  {
    "rank": 6,
    "team_name": "関西大学",
    "team_short_name": "関大",
    "runner_name": "西脇",
    "total_distance_km": 947.2,
    "latitude": 34.02831252361841,
    "longitude": 131.8534231009977,
    "is_shadow_confederation": false
  },
  {
    "rank": 7,
    "team_name": "四国大学",
    "team_short_name": "四国",
    "runner_name": "西条",
    "total_distance_km": 945.3,
    "latitude": 34.03377592366032,
    "longitude": 131.87266869670535,
    "is_shadow_confederation": false
  },
  {
    "rank": 8,
    "team_name": "立命館大学",
    "team_short_name": "立命",
    "runner_name": "園部",
    "total_distance_km": 940.9,
    "latitude": 34.03094683817394,
    "longitude": 131.91867448064946,
    "is_shadow_confederation": false
  },
  {
    "rank": 9,
    "team_name": "広島経済大学",
    "team_short_name": "広経",
    "runner_name": "滝宮",
    "total_distance_km": 939.8,
    "latitude": 34.03137932456071,
    "longitude": 131.93034819940212,
    "is_shadow_confederation": false
  },
  {
    "rank": 10,
    "team_name": "三重大学",
    "team_short_name": "三重",
    "runner_name": "上野",
    "total_distance_km": 929.9,
    "latitude": 34.08880512807859,
    "longitude": 132.00399446368334,
    "is_shadow_confederation": false
  },
  {
    "rank": 11,
    "team_name": "日本大学",
    "team_short_name": "日大",
    "runner_name": "海老名",
    "total_distance_km": 929.1,
    "latitude": 34.09146294991692,
    "longitude": 132.01180044456737,
    "is_shadow_confederation": false
  },
  {
    "rank": 12,
    "team_name": "山梨学院大学",
    "team_short_name": "山学",
    "runner_name": "佐久間",
    "total_distance_km": 924.3,
    "latitude": 34.0920393389577,
    "longitude": 132.06232739708497,
    "is_shadow_confederation": false
  },
  {
    "rank": 13,
    "team_name": "鳥取大学",
    "team_short_name": "鳥取",
    "runner_name": "津和野",
    "total_distance_km": 917.9,
    "latitude": 34.11750107363848,
    "longitude": 132.12295371089613,
    "is_shadow_confederation": false
  },
  {
    "rank": 14,
    "team_name": "上武大学",
    "team_short_name": "上武",
    "runner_name": "館林",
    "total_distance_km": 914.8,
    "latitude": 34.13280997121074,
    "longitude": 132.14923783598442,
    "is_shadow_confederation": false
  },
  {
    "rank": 15,
    "team_name": "金沢大学",
    "team_short_name": "金沢",
    "runner_name": "大野（福井）",
    "total_distance_km": 901.7,
    "latitude": 34.20385071894087,
    "longitude": 132.23003656141748,
    "is_shadow_confederation": false
  },
  {
    "rank": 16,
    "team_name": "学連選抜",
    "team_short_name": "学連",
    "runner_name": "恵那",
    "total_distance_km": 886.3,
    "latitude": 34.30937903313711,
    "longitude": 132.30147436810697,
    "is_shadow_confederation": false
  },
  {
    "rank": 17,
    "team_name": "福島大学",
    "team_short_name": "福島",
    "runner_name": "新津",
    "total_distance_km": 879.8,
    "latitude": 34.35475884284842,
    "longitude": 132.33908589100784,
    "is_shadow_confederation": false
  },
  {
    "rank": 18,
    "team_name": "東北大学",
    "team_short_name": "東北",
    "runner_name": "東根",
    "total_distance_km": 812.2,
    "latitude": 34.39501301163758,
    "longitude": 132.94487016512144,
    "is_shadow_confederation": false
  },
  {
    "rank": null,
    "team_name": "区間記録連合",
    "team_short_name": "区間記録",
    "runner_name": "鳩山",
    "total_distance_km": 996.1,
    "latitude": 34.09439369720225,
    "longitude": 131.41043049557302,
    "is_shadow_confederation": true
  }
]