[
  {
    "rank": 1,
    "team_name": "琉球大学",
    "team_short_name": "琉球",
    "runner_name": "名護",
    "total_distance_km": 388.2,
    "latitude": 34.965842424306565,
    "longitude": 136.62248054828117,
    "is_shadow_confederation": false
  },
  {
    "rank": 2,
    "team_name": "熊本学園大学",
    "team_short_name": "熊学",
    "runner_name": "人吉",
    "total_distance_km": 376.7,
    "latitude": 35.0516010262298,
    "longitude": 136.68116989280784,
    "is_shadow_confederation": false
  },
  {
    "rank": 3,
    "team_name": "福岡大学",
    "team_short_name": "福岡",
    "runner_name": "朝倉",
    "total_distance_km": 372.2,
    "latitude": 35.0852245567939,
    "longitude": 136.69850745756116,
    "is_shadow_confederation": false
  },
  {
    "rank": 4,
    "team_name": "立命館大学",
    "team_short_name": "立命",
    "runner_name": "米原",
    "total_distance_km": 367.0,
    "latitude": 35.114340978976145,
    "longitude": 136.73710623124262,
    "is_shadow_confederation": false
  },
  {
    "rank": 5,
    "team_name": "四国大学",
    "team_short_name": "四国",
    "runner_name": "松山",
    "total_distance_km": 362.3,
    "latitude": 35.12460073346613,
    "longitude": 136.78703319916374,
    "is_shadow_confederation": false
  },
  {
    "rank": 6,
    "team_name": "鳥取大学",
    "team_short_name": "鳥取",
    "runner_name": "防府",
    "total_distance_km": 361.5,
    "latitude": 35.12521642527598,
    "longitude": 136.7957780108524,
    "is_shadow_confederation": false
  },
  {
    "rank": 7,
    "team_name": "広島経済大学",
    "team_short_name": "広経",
    "runner_name": "大竹",
    "total_distance_km": 360.1,
    "latitude": 35.12629388594323,
    "longitude": 136.81108143130757,
    "is_shadow_confederation": false
  },
  {
    "rank": 8,
    "team_name": "関西大学",
    "team_short_name": "関大",
    "runner_name": "柏原",
    "total_distance_km": 359.3,
    "latitude": 35.12631574664776,
    "longitude": 136.81985198999467,
    "is_shadow_confederation": false
  },
  {
    "rank": 9,
    "team_name": "名古屋大学",
    "team_short_name": "名大",
    "runner_name": "愛西",
    "total_distance_km": 359.1,
    "latitude": 35.1262895903189,
    "longitude": 136.82204600069406,
    "is_shadow_confederation": false
  },
  {
    "rank": 10,
    "team_name": "鹿児島大学",
    "team_short_name": "鹿大",
    "runner_name": "西米良",
    "total_distance_km": 356.6,
    "latitude": 35.12416576320523,
    "longitude": 136.84898514665502,
    "is_shadow_confederation": false
  },
  {
    "rank": 11,
    "team_name": "山梨学院大学",
    "team_short_name": "山学",
    "runner_name": "浜松",
    "total_distance_km": 351.7,
    "latitude": 35.12394421028449,
    "longitude": 136.9024835776513,
    "is_shadow_confederation": false
  },
  {
    "rank": 12,
    "team_name": "上武大学",
    "team_short_name": "上武",
    "runner_name": "寄居",
    "total_distance_km": 350.1,
    "latitude": 35.116644125386074,
    "longitude": 136.91714715412377,
    "is_shadow_confederation": false
  },
  {
    "rank": 13,
    "team_name": "三重大学",
    "team_short_name": "三重",
    "runner_name": "風屋",
    "total_distance_km": 349.3,
    "latitude": 35.11213566141277,
    "longitude": 136.92246792200237,
    "is_shadow_confederation": false
  },
  {
    "rank": 14,
    "team_name": "金沢大学",
    "team_short_name": "金沢",
    "runner_name": "志賀",
    "total_distance_km": 349.0,
    "latitude": 35.10945134523866,
    "longitude": 136.9228652653446,
    "is_shadow_confederation": false
  },
  {
    "rank": 15,
    "team_name": "日本大学",
    "team_short_name": "日大",
    "runner_name": "小田原",
    "total_distance_km": 343.0,
    "latitude": 35.0697616248912,
    "longitude": 136.9619772892386,
    "is_shadow_confederation": false
  },
  {
    "rank": 16,
    "team_name": "福島大学",
    "team_short_name": "福島",
    "runner_name": "津川",
    "total_distance_km": 317.6,
    "latitude": 34.946356715299714,
    "longitude": 137.18807036835216,
    "is_shadow_confederation": false
  },
  {
    "rank": 17,
    "team_name": "東北大学",
    "team_short_name": "東北",
    "runner_name": "高畠",
    "total_distance_km": 304.1,
    "latitude": 34.868223122404586,
    "longitude": 137.2924607578642,
    "is_shadow_confederation": false
  },
  {
    "rank": 18,
    "team_name": "学連選抜",
    "team_short_name": "学連",
    "runner_name": "大村",
    "total_distance_km": 296.5,
    "latitude": 34.81902446207824,
    "longitude": 137.34730724106146,
    "is_shadow_confederation": false
  }
]