[
  {
    "rank": 1,
    "team_name": "琉球大学",
    "team_short_name": "琉球",
    "runner_name": "那覇",
    "total_distance_km": 737.7,
    "latitude": 34.53678744759126,
    "longitude": 133.630843737544,
    "is_shadow_confederation": false
  },
  {
    "rank": 2,
    "team_name": "鹿児島大学",
    "team_short_name": "鹿大",
    "runner_name": "笠利",
    "total_distance_km": 600.6,
    "latitude": 34.716476870026334,
    "longitude": 134.89696859400843,
    "is_shadow_confederation": false
  },
  {
    "rank": 3,
    "team_name": "熊本学園大学",
    "team_short_name": "熊学",
    "runner_name": "大分",
    "total_distance_km": 579.5,
    "latitude": 34.633492390931416,
    "longitude": 135.08397307742314,
    "is_shadow_confederation": false
  },
  {
    "rank": 4,
    "team_name": "福岡大学",
    "team_short_name": "福岡",
    "runner_name": "博多",
    "total_distance_km": 556.8,
    "latitude": 34.72945121441297,
    "longitude": 135.29580886692165,
    "is_shadow_confederation": false
  },
  {
    "rank": 5,
    "team_name": "名古屋大学",
    "team_short_name": "名大",
    "runner_name": "多治見",
    "total_distance_km": 520.1,
    "latitude": 34.78255745352609,
    "longitude": 135.62018749017867,
    "is_shadow_confederation": false
  },
  {
    "rank": 6,
    "team_name": "四国大学",
    "team_short_name": "四国",
    "runner_name": "大洲",
    "total_distance_km": 518.6,
    "latitude": 34.79487464290014,
    "longitude": 135.62668191867442,
    "is_shadow_confederation": false
  },
  {
    "rank": 7,
    "team_name": "日本大学",
    "team_short_name": "日大",
    "runner_name": "牛久",
    "total_distance_km": 508.8,
    "latitude": 34.85006316941373,
    "longitude": 135.70308564702827,
    "is_shadow_confederation": false
  },
  {
    "rank": 7,
    "team_name": "上武大学",
    "team_short_name": "上武",
    "runner_name": "桐生",
    "total_distance_km": 508.8,
    "latitude": 34.85006316941373,
    "longitude": 135.70308564702827,
    "is_shadow_confederation": false
  },
  {
    "rank": 9,
    "team_name": "広島経済大学",
    "team_short_name": "広経",
    "runner_name": "高梁",
    "total_distance_km": 506.5,
    "latitude": 34.86370507294952,
    "longitude": 135.72150462280985,
    "is_shadow_confederation": false
  },
  {
    "rank": 10,
    "team_name": "三重大学",
    "team_short_name": "三重",
    "runner_name": "奈良",
    "total_distance_km": 500.1,
    "latitude": 34.91534416408032,
    "longitude": 135.74448033193988,
    "is_shadow_confederation": false
  },
  {
    "rank": 11,
    "team_name": "鳥取大学",
    "team_short_name": "鳥取",
    "runner_name": "境",
    "total_distance_km": 499.4,
    "latitude": 34.921652209909915,
    "longitude": 135.74465972673275,
    "is_shadow_confederation": false
  },
  {
    "rank": 12,
    "team_name": "関西大学",
    "team_short_name": "関大",
    "runner_name": "枚方",
    "total_distance_km": 495.5,
    "latitude": 34.95679603603443,
    "longitude": 135.74570236217207,
    "is_shadow_confederation": false
  },
  {
    "rank": 13,
    "team_name": "立命館大学",
    "team_short_name": "立命",
    "runner_name": "舞鶴",
    "total_distance_km": 471.1,
    "latitude": 34.97835072449947,
    "longitude": 135.91344403990553,
    "is_shadow_confederation": false
  },
  {
    "rank": 14,
    "team_name": "山梨学院大学",
    "team_short_name": "山学",
    "runner_name": "甲府",
    "total_distance_km": 457.3,
    "latitude": 35.024732356810325,
    "longitude": 136.0401935218335,
    "is_shadow_confederation": false
  },
  {
    "rank": 15,
    "team_name": "福島大学",
    "team_short_name": "福島",
    "runner_name": "福島",
    "total_distance_km": 436.2,
    "latitude": 34.94527646849917,
    "longitude": 136.2421659116655,
    "is_shadow_confederation": false
  },
  {
    "rank": 16,
    "team_name": "金沢大学",
    "team_short_name": "金沢",
    "runner_name": "志賀",
    "total_distance_km": 399.1,
    "latitude": 34.899693738125606,
    "longitude": 136.548557,
    "is_shadow_confederation": false
  },
  {
    "rank": 17,
    "team_name": "東北大学",
    "team_short_name": "東北",
    "runner_name": "大館",
    "total_distance_km": 347.9,
    "latitude": 35.10002832865732,
    "longitude": 136.92615867691566,
    "is_shadow_confederation": false
  },
  {
    "rank": 18,
    "team_name": "学連選抜",
    "team_short_name": "学連",
    "runner_name": "大村",
    "total_distance_km": 251.8,
    "latitude": 34.70014078220614,
    "longitude": 137.72705653921898,
    "is_shadow_confederation": false
  },
  {
    "rank": null,
    "team_name": "区間記録連合",
    "team_short_name": "区間記録",
    "runner_name": "新居浜",
    "total_distance_km": 737.7,
    "latitude": 34.53678744759126,
    "longitude": 133.630843737544,
    "is_shadow_confederation": true
  }
]