[
  {
    "rank": 1,
    "team_name": "琉球大学",
    "team_short_name": "琉球",
    "runner_name": "名護",
    "total_distance_km": 360.5,
    "latitude": 35.1259860400383,
    "longitude": 136.80670902546322,
    "is_shadow_confederation": false
  },
  {
    "rank": 2,
    "team_name": "熊本学園大学",
    "team_short_name": "熊学",
    "runner_name": "人吉",
    "total_distance_km": 330.5,
    "latitude": 34.998859140282754,
    "longitude": 137.06419050187174,
    "is_shadow_confederation": false
  },
  {
    "rank": 3,
    "team_name": "鹿児島大学",
    "team_short_name": "鹿大",
    "runner_name": "加久藤",
    "total_distance_km": 319.3,
    "latitude": 34.954645493982056,
    "longitude": 137.17254670714607,
    "is_shadow_confederation": false
  },
  {
    "rank": 4,
    "team_name": "福岡大学",
    "team_short_name": "福岡",
    "runner_name": "黒木",
    "total_distance_km": 313.7,
    "latitude": 34.91758143570448,
    "longitude": 137.21076028082592,
    "is_shadow_confederation": false
  },
  {
    "rank": 5,
    "team_name": "四国大学",
    "team_short_name": "四国",
    "runner_name": "御荘",
    "total_distance_km": 298.4,
    "latitude": 34.8303630106353,
    "longitude": 137.3321167776194,
    "is_shadow_confederation": false
  },
  {
    "rank": 6,
    "team_name": "広島経済大学",
    "team_short_name": "広経",
    "runner_name": "府中（広島）",
    "total_distance_km": 283.8,
    "latitude": 34.73003234071799,
    "longitude": 137.42484752112665,
    "is_shadow_confederation": false
  },
  {
    "rank": 7,
    "team_name": "鳥取大学",
    "team_short_name": "鳥取",
    "runner_name": "広瀬",
    "total_distance_km": 275.3,
    "latitude": 34.69171712200008,
    "longitude": 137.49815312233878,
    "is_shadow_confederation": false
  },
  {
    "rank": 8,
    "team_name": "三重大学",
    "team_short_name": "三重",
    "runner_name": "小俣",
    "total_distance_km": 271.4,
    "latitude": 34.68015770182345,
    "longitude": 137.52834067376062,
    "is_shadow_confederation": false
  },
  {
    "rank": 9,
    "team_name": "名古屋大学",
    "team_short_name": "名大",
    "runner_name": "大垣",
    "total_distance_km": 271.0,
    "latitude": 34.68065677494146,
    "longitude": 137.5326634497206,
    "is_shadow_confederation": false
  },
  {
    "rank": 10,
    "team_name": "立命館大学",
    "team_short_name": "立命",
    "runner_name": "京田辺",
    "total_distance_km": 270.1,
    "latitude": 34.68227668234489,
    "longitude": 137.54225189047833,
    "is_shadow_confederation": false
  },
  {
    "rank": 11,
    "team_name": "関西大学",
    "team_short_name": "関大",
    "runner_name": "上郡",
    "total_distance_km": 268.5,
    "latitude": 34.6873908771259,
    "longitude": 137.5585775653446,
    "is_shadow_confederation": false
  },
  {
    "rank": 12,
    "team_name": "金沢大学",
    "team_short_name": "金沢",
    "runner_name": "七尾",
    "total_distance_km": 258.3,
    "latitude": 34.6856064186575,
    "longitude": 137.66318502022378,
    "is_shadow_confederation": false
  },
  {
    "rank": 13,
    "team_name": "上武大学",
    "team_short_name": "上武",
    "runner_name": "熊谷",
    "total_distance_km": 249.4,
    "latitude": 34.708052,
    "longitude": 137.74351160156525,
    "is_shadow_confederation": false
  },
  {
    "rank": 14,
    "team_name": "日本大学",
    "team_short_name": "日大",
    "runner_name": "下館",
    "total_distance_km": 243.9,
    "latitude": 34.73085964902811,
    "longitude": 137.7955738981899,
    "is_shadow_confederation": false
  },
  {
    "rank": 15,
    "team_name": "山梨学院大学",
    "team_short_name": "山学",
    "runner_name": "大月",
    "total_distance_km": 234.0,
    "latitude": 34.74164707381978,
    "longitude": 137.89608876453943,
    "is_shadow_confederation": false
  },
  {
    "rank": 16,
    "team_name": "福島大学",
    "team_short_name": "福島",
    "runner_name": "津川",
    "total_distance_km": 221.6,
    "latitude": 34.77849697810097,
    "longitude": 138.01948436738707,
    "is_shadow_confederation": false
  },
  {
    "rank": 17,
    "team_name": "東北大学",
    "team_short_name": "東北",
    "runner_name": "山形（山形）",
    "total_distance_km": 175.1,
    "latitude": 34.97635577482111,
    "longitude": 138.39658748196393,
    "is_shadow_confederation": false
  },
  {
    "rank": 18,
    "team_name": "学連選抜",
    "team_short_name": "学連",
    "runner_name": "新潟",
    "total_distance_km": 170.0,
    "latitude": 35.00476618996187,
    "longitude": 138.4400209975456,
    "is_shadow_confederation": false
  }
]