[
  {
    "rank": 1,
    "team_name": "琉球大学",
    "team_short_name": "琉球",
    "runner_name": "北原",
    "total_distance_km": 40.0,
    "latitude": 35.41833877510711,
    "longitude": 139.54828971287762,
    "is_shadow_confederation": false
  },
  {
    "rank": 2,
    "team_name": "鹿児島大学",
    "team_short_name": "鹿大",
    "runner_name": "東市来",
    "total_distance_km": 25.1,
    "latitude": 35.49078027157325,
    "longitude": 139.66219381768013,
    "is_shadow_confederation": false
  },
  {
    "rank": 3,
    "team_name": "熊本学園大学",
    "team_short_name": "熊学",
    "runner_name": "甲佐",
    "total_distance_km": 23.5,
    "latitude": 35.500581243576676,
    "longitude": 139.67490253178147,
    "is_shadow_confederation": false
  },
  {
    "rank": 4,
    "team_name": "福岡大学",
    "team_short_name": "福岡",
    "runner_name": "久留米",
    "total_distance_km": 21.9,
    "latitude": 35.51245949318462,
    "longitude": 139.68489721433897,
    "is_shadow_confederation": false
  },
  {
    "rank": 5,
    "team_name": "上武大学",
    "team_short_name": "上武",
    "runner_name": "佐野",
    "total_distance_km": 17.9,
    "latitude": 35.540782497925356,
    "longitude": 139.70919411785815,
    "is_shadow_confederation": false
  },
  {
    "rank": 6,
    "team_name": "三重大学",
    "team_short_name": "三重",
    "runner_name": "粥見",
    "total_distance_km": 17.7,
    "latitude": 35.54232006395865,
    "longitude": 139.71034540756753,
    "is_shadow_confederation": false
  },
  {
    "rank": 7,
    "team_name": "四国大学",
    "team_short_name": "四国",
    "runner_name": "穴吹",
    "total_distance_km": 16.9,
    "latitude": 35.548470328091796,
    "longitude": 139.71495056640504,
    "is_shadow_confederation": false
  },
  {
    "rank": 8,
    "team_name": "関西大学",
    "team_short_name": "関大",
    "runner_name": "福崎",
    "total_distance_km": 15.2,
    "latitude": 35.561542407553446,
    "longitude": 139.72473151163615,
    "is_shadow_confederation": false
  },
  {
    "rank": 9,
    "team_name": "日本大学",
    "team_short_name": "日大",
    "runner_name": "大子",
    "total_distance_km": 14.6,
    "latitude": 35.56615862260207,
    "longitude": 139.7281790063268,
    "is_shadow_confederation": false
  },
  {
    "rank": 10,
    "team_name": "福島大学",
    "team_short_name": "福島",
    "runner_name": "梁川",
    "total_distance_km": 14.5,
    "latitude": 35.56692799177684,
    "longitude": 139.72875358877525,
    "is_shadow_confederation": false
  },
  {
    "rank": 11,
    "team_name": "立命館大学",
    "team_short_name": "立命",
    "runner_name": "東近江",
    "total_distance_km": 14.1,
    "latitude": 35.57000546847593,
    "longitude": 139.731051918569,
    "is_shadow_confederation": false
  },
  {
    "rank": 12,
    "team_name": "名古屋大学",
    "team_short_name": "名大",
    "runner_name": "美濃加茂",
    "total_distance_km": 13.7,
    "latitude": 35.57310128092242,
    "longitude": 139.73329903757886,
    "is_shadow_confederation": false
  },
  {
    "rank": 13,
    "team_name": "金沢大学",
    "team_short_name": "金沢",
    "runner_name": "秋ヶ島",
    "total_distance_km": 12.7,
    "latitude": 35.58176823437803,
    "longitude": 139.7363265929965,
    "is_shadow_confederation": false
  },
  {
    "rank": 14,
    "team_name": "鳥取大学",
    "team_short_name": "鳥取",
    "runner_name": "川本",
    "total_distance_km": 11.4,
    "latitude": 35.59342823238912,
    "longitude": 139.73622482660178,
    "is_shadow_confederation": false
  },
  {
    "rank": 15,
    "team_name": "広島経済大学",
    "team_short_name": "広経",
    "runner_name": "三次",
    "total_distance_km": 10.0,
    "latitude": 35.60506577483289,
    "longitude": 139.74190548720526,
    "is_shadow_confederation": false
  },
  {
    "rank": 16,
    "team_name": "山梨学院大学",
    "team_short_name": "山学",
    "runner_name": "長野",
    "total_distance_km": 7.6,
    "latitude": 35.62578418338018,
    "longitude": 139.73793108194758,
    "is_shadow_confederation": false
  },
  {
    "rank": 17,
    "team_name": "東北大学",
    "team_short_name": "東北",
    "runner_name": "帯広",
    "total_distance_km": 4.6,
    "latitude": 35.6516024558788,
    "longitude": 139.74498793749717,
    "is_shadow_confederation": false
  },
  {
    "rank": 18,
    "team_name": "学連選抜",
    "team_short_name": "学連",
    "runner_name": "美幌",
    "total_distance_km": 0.2,
    "latitude": 35.68769404179324,
    "longitude": 139.76149369882828,
    "is_shadow_confederation": false
  }
]