[
  {
    "rank": 1,
    "team_name": "琉球大学",
    "team_short_name": "琉球",
    "runner_name": "仲筋",
    "total_distance_km": 141.2,
    "latitude": 35.140237173330604,
    "longitude": 138.67035498190003,
    "is_shadow_confederation": false
  },
  {
    "rank": 2,
    "team_name": "鹿児島大学",
    "team_short_name": "鹿大",
    "runner_name": "東市来",
    "total_distance_km": 102.9,
    "latitude": 35.17820295711322,
    "longitude": 139.01439645268948,
    "is_shadow_confederation": false
  },
  {
    "rank": 3,
    "team_name": "熊本学園大学",
    "team_short_name": "熊学",
    "runner_name": "甲佐",
    "total_distance_km": 97.7,
    "latitude": 35.19931500604021,
    "longitude": 139.0532199974707,
    "is_shadow_confederation": false
  },
  {
    "rank": 4,
    "team_name": "福岡大学",
    "team_short_name": "福岡",
    "runner_name": "久留米",
    "total_distance_km": 92.1,
    "latitude": 35.222275425555765,
    "longitude": 139.08320262212376,
    "is_shadow_confederation": false
  },
  {
    "rank": 5,
    "team_name": "三重大学",
    "team_short_name": "三重",
    "runner_name": "粥見",
    "total_distance_km": 77.8,
    "latitude": 35.28017483214552,
    "longitude": 139.2125628909993,
    "is_shadow_confederation": false
  },
  {
    "rank": 5,
    "team_name": "名古屋大学",
    "team_short_name": "名大",
    "runner_name": "美濃加茂",
    "total_distance_km": 77.8,
    "latitude": 35.28017483214552,
    "longitude": 139.2125628909993,
    "is_shadow_confederation": false
  },
  {
    "rank": 7,
    "team_name": "四国大学",
    "team_short_name": "四国",
    "runner_name": "穴吹",
    "total_distance_km": 77.3,
    "latitude": 35.28107772996063,
    "longitude": 139.2179474259741,
    "is_shadow_confederation": false
  },
  {
    "rank": 8,
    "team_name": "上武大学",
    "team_short_name": "上武",
    "runner_name": "佐野",
    "total_distance_km": 73.3,
    "latitude": 35.29739667670196,
    "longitude": 139.25669425462652,
    "is_shadow_confederation": false
  },
  {
    "rank": 9,
    "team_name": "日本大学",
    "team_short_name": "日大",
    "runner_name": "大子",
    "total_distance_km": 72.5,
    "latitude": 35.300324912359194,
    "longitude": 139.26471421879032,
    "is_shadow_confederation": false
  },
  {
    "rank": 10,
    "team_name": "関西大学",
    "team_short_name": "関大",
    "runner_name": "福崎",
    "total_distance_km": 70.8,
    "latitude": 35.30448831431971,
    "longitude": 139.28232546308692,
    "is_shadow_confederation": false
  },
  {
    "rank": 11,
    "team_name": "鳥取大学",
    "team_short_name": "鳥取",
    "runner_name": "川本",
    "total_distance_km": 66.6,
    "latitude": 35.3120728327218,
    "longitude": 139.3242486036176,
    "is_shadow_confederation": false
  },
  {
    "rank": 12,
    "team_name": "広島経済大学",
    "team_short_name": "広経",
    "runner_name": "三次",
    "total_distance_km": 64.8,
    "latitude": 35.31516035421536,
    "longitude": 139.3433708875591,
    "is_shadow_confederation": false
  },
  {
    "rank": 13,
    "team_name": "立命館大学",
    "team_short_name": "立命",
    "runner_name": "東近江",
    "total_distance_km": 64.4,
    "latitude": 35.315610398552366,
    "longitude": 139.34773515372035,
    "is_shadow_confederation": false
  },
  {
    "rank": 14,
    "team_name": "福島大学",
    "team_short_name": "福島",
    "runner_name": "梁川",
    "total_distance_km": 61.3,
    "latitude": 35.31840766115093,
    "longitude": 139.38025827038527,
    "is_shadow_confederation": false
  },
  {
    "rank": 15,
    "team_name": "金沢大学",
    "team_short_name": "金沢",
    "runner_name": "秋ヶ島",
    "total_distance_km": 47.5,
    "latitude": 35.36965152485025,
    "longitude": 139.5005150621653,
    "is_shadow_confederation": false
  },
  {
    "rank": 16,
    "team_name": "山梨学院大学",
    "team_short_name": "山学",
    "runner_name": "長野",
    "total_distance_km": 44.1,
    "latitude": 35.39244595888341,
    "longitude": 139.5238421870709,
    "is_shadow_confederation": false
  },
  {
    "rank": 17,
    "team_name": "東北大学",
    "team_short_name": "東北",
    "runner_name": "帯広",
    "total_distance_km": 34.6,
    "latitude": 35.445235666853094,
    "longitude": 139.5855070199733,
    "is_shadow_confederation": false
  },
  {
    "rank": 18,
    "team_name": "学連選抜",
    "team_short_name": "学連",
    "runner_name": "美幌",
    "total_distance_km": 2.2,
    "latitude": 35.671399115557406,
    "longitude": 139.7525480807248,
    "is_shadow_confederation": false
  },
  {
    "rank": null,
    "team_name": "区間記録連合",
    "team_short_name": "区間記録",
    "runner_name": "佐野",
    "total_distance_km": 182.4,
    "latitude": 34.94971783007889,
    "longitude": 138.33177382822666,
    "is_shadow_confederation": true
  }
]