[
  {
    "rank": 1,
    "team_name": "琉球大学",
    "team_short_name": "琉球",
    "runner_name": "久米島",
    "total_distance_km": 659.6,
    "latitude": 34.840376634374145,
    "longitude": 134.33890087137254,
    "is_shadow_confederation": false
  },
  {
    "rank": 2,
    "team_name": "鹿児島大学",
    "team_short_name": "鹿大",
    "runner_name": "西都",
    "total_distance_km": 522.2,
    "latitude": 34.7692724292385,
    "longitude": 135.6040663883342,
    "is_shadow_confederation": false
  },
  {
    "rank": 3,
    "team_name": "熊本学園大学",
    "team_short_name": "熊学",
    "runner_name": "熊本",
    "total_distance_km": 509.5,
    "latitude": 34.844222693359356,
    "longitude": 135.7001888961702,
    "is_shadow_confederation": false
  },
  {
    "rank": 4,
    "team_name": "福岡大学",
    "team_short_name": "福岡",
    "runner_name": "前原",
    "total_distance_km": 485.7,
    "latitude": 35.00803629977705,
    "longitude": 135.7901142035554,
    "is_shadow_confederation": false
  },
  {
    "rank": 5,
    "team_name": "名古屋大学",
    "team_short_name": "名大",
    "runner_name": "多治見",
    "total_distance_km": 444.7,
    "latitude": 34.978920434145245,
    "longitude": 136.1611806555651,
    "is_shadow_confederation": false
  },
  {
    "rank": 6,
    "team_name": "四国大学",
    "team_short_name": "四国",
    "runner_name": "大洲",
    "total_distance_km": 442.7,
    "latitude": 34.96933264625385,
    "longitude": 136.1792168807351,
    "is_shadow_confederation": false
  },
  {
    "rank": 7,
    "team_name": "上武大学",
    "team_short_name": "上武",
    "runner_name": "桐生",
    "total_distance_km": 436.9,
    "latitude": 34.94707496510189,
    "longitude": 136.23483479824125,
    "is_shadow_confederation": false
  },
  {
    "rank": 8,
    "team_name": "日本大学",
    "team_short_name": "日大",
    "runner_name": "牛久",
    "total_distance_km": 435.3,
    "latitude": 34.94128210718969,
    "longitude": 136.2507137897433,
    "is_shadow_confederation": false
  },
  {
    "rank": 9,
    "team_name": "広島経済大学",
    "team_short_name": "広経",
    "runner_name": "高梁",
    "total_distance_km": 430.9,
    "latitude": 34.92938204886829,
    "longitude": 136.29450622035878,
    "is_shadow_confederation": false
  },
  {
    "rank": 10,
    "team_name": "鳥取大学",
    "team_short_name": "鳥取",
    "runner_name": "境",
    "total_distance_km": 428.1,
    "latitude": 34.915271440750914,
    "longitude": 136.31899933865262,
    "is_shadow_confederation": false
  },
  {
    "rank": 11,
    "team_name": "三重大学",
    "team_short_name": "三重",
    "runner_name": "奈良",
    "total_distance_km": 425.3,
    "latitude": 34.89639077773745,
    "longitude": 136.33619290621343,
    "is_shadow_confederation": false
  },
  {
    "rank": 12,
    "team_name": "関西大学",
    "team_short_name": "関大",
    "runner_name": "枚方",
    "total_distance_km": 420.1,
    "latitude": 34.86909158203037,
    "longitude": 136.36618765089537,
    "is_shadow_confederation": false
  },
  {
    "rank": 13,
    "team_name": "立命館大学",
    "team_short_name": "立命",
    "runner_name": "米原",
    "total_distance_km": 400.7,
    "latitude": 34.890212171917334,
    "longitude": 136.53727809907528,
    "is_shadow_confederation": false
  },
  {
    "rank": 14,
    "team_name": "山梨学院大学",
    "team_short_name": "山学",
    "runner_name": "浜松",
    "total_distance_km": 388.1,
    "latitude": 34.966688742634354,
    "longitude": 136.6228574168929,
    "is_shadow_confederation": false
  },
  {
    "rank": 15,
    "team_name": "福島大学",
    "team_short_name": "福島",
    "runner_name": "長岡",
    "total_distance_km": 369.9,
    "latitude": 35.10269435025748,
    "longitude": 136.7091185341767,
    "is_shadow_confederation": false
  },
  {
    "rank": 16,
    "team_name": "金沢大学",
    "team_short_name": "金沢",
    "runner_name": "志賀",
    "total_distance_km": 344.9,
    "latitude": 35.07860493427795,
    "longitude": 136.94436599613493,
    "is_shadow_confederation": false
  },
  {
    "rank": 17,
    "team_name": "東北大学",
    "team_short_name": "東北",
    "runner_name": "高畠",
    "total_distance_km": 294.5,
    "latitude": 34.80482981330905,
    "longitude": 137.36075609570278,
    "is_shadow_confederation": false
  },
  {
    "rank": 18,
    "team_name": "学連選抜",
    "team_short_name": "学連",
    "runner_name": "新潟",
    "total_distance_km": 189.7,
    "latitude": 34.90392159451466,
    "longitude": 138.28640181695005,
    "is_shadow_confederation": false
  },
  {
    "rank": null,
    "team_name": "区間記録連合",
    "team_short_name": "区間記録",
    "runner_name": "勝沼",
    "total_distance_km": 659.6,
    "latitude": 34.840376634374145,
    "longitude": 134.33890087137254,
    "is_shadow_confederation": true
  }
]