[
  {
    "rank": 1,
    "team_name": "琉球大学",
    "team_short_name": "琉球",
    "runner_name": "北原",
    "total_distance_km": 93.4,
    "latitude": 35.21648125137845,
    "longitude": 139.0715165715942,
    "is_shadow_confederation": false
  },
  {
    "rank": 2,
    "team_name": "熊本学園大学",
    "team_short_name": "熊学",
    "runner_name": "甲佐",
    "total_distance_km": 92.8,
    "latitude": 35.21991226408704,
    "longitude": 139.07608841843006,
    "is_shadow_confederation": false
  },
  {
    "rank": 3,
    "team_name": "鹿児島大学",
    "team_short_name": "鹿大",
    "runner_name": "東市来",
    "total_distance_km": 89.5,
    "latitude": 35.23058954660259,
    "longitude": 139.10833792540092,
    "is_shadow_confederation": false
  },
  {
    "rank": 4,
    "team_name": "福岡大学",
    "team_short_name": "福岡",
    "runner_name": "久留米",
    "total_distance_km": 88.3,
    "latitude": 35.23792031724728,
    "longitude": 139.11712205641655,
    "is_shadow_confederation": false
  },
  {
    "rank": 5,
    "team_name": "四国大学",
    "team_short_name": "四国",
    "runner_name": "穴吹",
    "total_distance_km": 83.5,
    "latitude": 35.25089426359037,
    "longitude": 139.1632897708118,
    "is_shadow_confederation": false
  },
  {
    "rank": 6,
    "team_name": "関西大学",
    "team_short_name": "関大",
    "runner_name": "福崎",
    "total_distance_km": 81.2,
    "latitude": 35.2641171464124,
    "longitude": 139.18233182571663,
    "is_shadow_confederation": false
  },
  {
    "rank": 7,
    "team_name": "三重大学",
    "team_short_name": "三重",
    "runner_name": "粥見",
    "total_distance_km": 80.3,
    "latitude": 35.26742912898351,
    "longitude": 139.19128020344803,
    "is_shadow_confederation": false
  },
  {
    "rank": 8,
    "team_name": "広島経済大学",
    "team_short_name": "広経",
    "runner_name": "三次",
    "total_distance_km": 79.5,
    "latitude": 35.27165823152637,
    "longitude": 139.1983687927291,
    "is_shadow_confederation": false
  },
  {
    "rank": 9,
    "team_name": "立命館大学",
    "team_short_name": "立命",
    "runner_name": "東近江",
    "total_distance_km": 77.4,
    "latitude": 35.28089715039761,
    "longitude": 139.21687051897914,
    "is_shadow_confederation": false
  },
  {
    "rank": 10,
    "team_name": "鳥取大学",
    "team_short_name": "鳥取",
    "runner_name": "川本",
    "total_distance_km": 75.1,
    "latitude": 35.2910177778845,
    "longitude": 139.23851580423388,
    "is_shadow_confederation": false
  },
  {
    "rank": 11,
    "team_name": "名古屋大学",
    "team_short_name": "名大",
    "runner_name": "美濃加茂",
    "total_distance_km": 73.9,
    "latitude": 35.29541921461916,
    "longitude": 139.25055456356262,
    "is_shadow_confederation": false
  },
  {
    "rank": 12,
    "team_name": "上武大学",
    "team_short_name": "上武",
    "runner_name": "佐野",
    "total_distance_km": 66.5,
    "latitude": 35.3124038015499,
    "longitude": 139.32526870686985,
    "is_shadow_confederation": false
  },
  {
    "rank": 13,
    "team_name": "金沢大学",
    "team_short_name": "金沢",
    "runner_name": "秋ヶ島",
    "total_distance_km": 64.9,
    "latitude": 35.315047843131104,
    "longitude": 139.3422798210188,
    "is_shadow_confederation": false
  },
  {
    "rank": 14,
    "team_name": "日本大学",
    "team_short_name": "日大",
    "runner_name": "大子",
    "total_distance_km": 62.1,
    "latitude": 35.319362820976416,
    "longitude": 139.37241949384332,
    "is_shadow_confederation": false
  },
  {
    "rank": 15,
    "team_name": "福島大学",
    "team_short_name": "福島",
    "runner_name": "梁川",
    "total_distance_km": 60.5,
    "latitude": 35.31732194718725,
    "longitude": 139.3885583658056,
    "is_shadow_confederation": false
  },
  {
    "rank": 16,
    "team_name": "山梨学院大学",
    "team_short_name": "山学",
    "runner_name": "長野",
    "total_distance_km": 54.1,
    "latitude": 35.32858347748357,
    "longitude": 139.45540172213896,
    "is_shadow_confederation": false
  },
  {
    "rank": 17,
    "team_name": "東北大学",
    "team_short_name": "東北",
    "runner_name": "帯広",
    "total_distance_km": 46.3,
    "latitude": 35.37847717963758,
    "longitude": 139.50767557779582,
    "is_shadow_confederation": false
  },
  {
    "rank": 18,
    "team_name": "学連選抜",
    "team_short_name": "学連",
    "runner_name": "美幌",
    "total_distance_km": 38.2,
    "latitude": 35.42298095876863,
    "longitude": 139.56564456564277,
    "is_shadow_confederation": false
  }
]