[
  {
    "rank": 1,
    "team_name": "熊本学園大学",
    "team_short_name": "熊学",
    "runner_name": "甲佐",
    "total_distance_km": 95.7,
    "latitude": 35.211455664746794,
    "longitude": 139.0602654623952,
    "is_shadow_confederation": false
  },
  {
    "rank": 2,
    "team_name": "琉球大学",
    "team_short_name": "琉球",
    "runner_name": "北原",
    "total_distance_km": 95.0,
    "latitude": 35.21189647458849,
    "longitude": 139.0614355807936,
    "is_shadow_confederation": false
  },
  {
    "rank": 3,
    "team_name": "鹿児島大学",
    "team_short_name": "鹿大",
    "runner_name": "東市来",
    "total_distance_km": 91.5,
    "latitude": 35.2238774284062,
    "longitude": 139.0893924485711,
    "is_shadow_confederation": false
  },
  {
    "rank": 4,
    "team_name": "福岡大学",
    "team_short_name": "福岡",
    "runner_name": "久留米",
    "total_distance_km": 90.8,
    "latitude": 35.226683131108025,
    "longitude": 139.09503973169862,
    "is_shadow_confederation": false
  },
  {
    "rank": 5,
    "team_name": "四国大学",
    "team_short_name": "四国",
    "runner_name": "穴吹",
    "total_distance_km": 83.5,
    "latitude": 35.25089426359037,
    "longitude": 139.1632897708118,
    "is_shadow_confederation": false
  },
  {
    "rank": 6,
    "team_name": "広島経済大学",
    "team_short_name": "広経",
    "runner_name": "三次",
    "total_distance_km": 82.7,
    "latitude": 35.25565866844186,
    "longitude": 139.16982066822243,
    "is_shadow_confederation": false
  },
  {
    "rank": 7,
    "team_name": "関西大学",
    "team_short_name": "関大",
    "runner_name": "福崎",
    "total_distance_km": 82.4,
    "latitude": 35.25682266778464,
    "longitude": 139.17278661676357,
    "is_shadow_confederation": false
  },
  {
    "rank": 8,
    "team_name": "三重大学",
    "team_short_name": "三重",
    "runner_name": "粥見",
    "total_distance_km": 80.3,
    "latitude": 35.26742912898351,
    "longitude": 139.19128020344803,
    "is_shadow_confederation": false
  },
  {
    "rank": 9,
    "team_name": "立命館大学",
    "team_short_name": "立命",
    "runner_name": "東近江",
    "total_distance_km": 78.9,
    "latitude": 35.27570109535787,
    "longitude": 139.20263653324486,
    "is_shadow_confederation": false
  },
  {
    "rank": 10,
    "team_name": "鳥取大学",
    "team_short_name": "鳥取",
    "runner_name": "川本",
    "total_distance_km": 78.3,
    "latitude": 35.27918497670983,
    "longitude": 139.20721001420753,
    "is_shadow_confederation": false
  },
  {
    "rank": 11,
    "team_name": "名古屋大学",
    "team_short_name": "名大",
    "runner_name": "美濃加茂",
    "total_distance_km": 76.3,
    "latitude": 35.285036691159725,
    "longitude": 139.22774731828048,
    "is_shadow_confederation": false
  },
  {
    "rank": 12,
    "team_name": "上武大学",
    "team_short_name": "上武",
    "runner_name": "佐野",
    "total_distance_km": 68.5,
    "latitude": 35.307835370631004,
    "longitude": 139.30679758747922,
    "is_shadow_confederation": false
  },
  {
    "rank": 13,
    "team_name": "金沢大学",
    "team_short_name": "金沢",
    "runner_name": "秋ヶ島",
    "total_distance_km": 67.2,
    "latitude": 35.31048205905581,
    "longitude": 139.3182889079384,
    "is_shadow_confederation": false
  },
  {
    "rank": 14,
    "team_name": "日本大学",
    "team_short_name": "日大",
    "runner_name": "大子",
    "total_distance_km": 63.8,
    "latitude": 35.316057092059836,
    "longitude": 139.3543057556262,
    "is_shadow_confederation": false
  },
  {
    "rank": 15,
    "team_name": "福島大学",
    "team_short_name": "福島",
    "runner_name": "梁川",
    "total_distance_km": 62.5,
    "latitude": 35.318279849644306,
    "longitude": 139.36822379838011,
    "is_shadow_confederation": false
  },
  {
    "rank": 16,
    "team_name": "山梨学院大学",
    "team_short_name": "山学",
    "runner_name": "長野",
    "total_distance_km": 58.1,
    "latitude": 35.3180648515318,
    "longitude": 139.41477003874476,
    "is_shadow_confederation": false
  },
  {
    "rank": 17,
    "team_name": "東北大学",
    "team_short_name": "東北",
    "runner_name": "帯広",
    "total_distance_km": 47.7,
    "latitude": 35.36801072480684,
    "longitude": 139.4996036375939,
    "is_shadow_confederation": false
  },
  {
    "rank": 18,
    "team_name": "学連選抜",
    "team_short_name": "学連",
    "runner_name": "美幌",
    "total_distance_km": 40.8,
    "latitude": 35.41425968882621,
    "longitude": 139.54121663083532,
    "is_shadow_confederation": false
  }
]