[
  {
    "rank": 1,
    "team_name": "名古屋大学",
    "team_short_name": "名大",
    "runner_name": "名古屋",
    "total_distance_km": 666.8,
    "latitude": 34.810326454755725,
    "longitude": 134.2823888205214,
    "is_shadow_confederation": false
  },
  {
    "rank": 2,
    "team_name": "琉球大学",
    "team_short_name": "琉球",
    "runner_name": "久米島",
    "total_distance_km": 665.8,
    "latitude": 34.81701701965738,
    "longitude": 134.28930364475536,
    "is_shadow_confederation": false
  },
  {
    "rank": 3,
    "team_name": "四国大学",
    "team_short_name": "四国",
    "runner_name": "徳島",
    "total_distance_km": 663.9,
    "latitude": 34.82905383706697,
    "longitude": 134.30370919500723,
    "is_shadow_confederation": false
  },
  {
    "rank": 4,
    "team_name": "熊本学園大学",
    "team_short_name": "熊学",
    "runner_name": "大分",
    "total_distance_km": 659.7,
    "latitude": 34.84096768704946,
    "longitude": 134.33807540083427,
    "is_shadow_confederation": false
  },
  {
    "rank": 5,
    "team_name": "立命館大学",
    "team_short_name": "立命",
    "runner_name": "彦根",
    "total_distance_km": 657.6,
    "latitude": 34.830411325991854,
    "longitude": 134.35704132153344,
    "is_shadow_confederation": false
  },
  {
    "rank": 6,
    "team_name": "福岡大学",
    "team_short_name": "福岡",
    "runner_name": "博多",
    "total_distance_km": 657.3,
    "latitude": 34.829021348210176,
    "longitude": 134.35985451542828,
    "is_shadow_confederation": false
  },
  {
    "rank": 7,
    "team_name": "関西大学",
    "team_short_name": "関大",
    "runner_name": "豊中",
    "total_distance_km": 656.9,
    "latitude": 34.827168044501285,
    "longitude": 134.36360544062143,
    "is_shadow_confederation": false
  },
  {
    "rank": 8,
    "team_name": "広島経済大学",
    "team_short_name": "広経",
    "runner_name": "高松（香川）",
    "total_distance_km": 656.0,
    "latitude": 34.82524547503154,
    "longitude": 134.37293017588524,
    "is_shadow_confederation": false
  },
  {
    "rank": 9,
    "team_name": "鹿児島大学",
    "team_short_name": "鹿大",
    "runner_name": "笠利",
    "total_distance_km": 649.5,
    "latitude": 34.829432934828574,
    "longitude": 134.441053865372,
    "is_shadow_confederation": false
  },
  {
    "rank": 10,
    "team_name": "三重大学",
    "team_short_name": "三重",
    "runner_name": "新宮",
    "total_distance_km": 649.1,
    "latitude": 34.827944141570086,
    "longitude": 134.44496366811515,
    "is_shadow_confederation": false
  },
  {
    "rank": 11,
    "team_name": "山梨学院大学",
    "team_short_name": "山学",
    "runner_name": "静岡",
    "total_distance_km": 640.9,
    "latitude": 34.82702039622612,
    "longitude": 134.5279260905685,
    "is_shadow_confederation": false
  },
  {
    "rank": 12,
    "team_name": "日本大学",
    "team_short_name": "日大",
    "runner_name": "八王子",
    "total_distance_km": 639.7,
    "latitude": 34.82910488290815,
    "longitude": 134.54079800722837,
    "is_shadow_confederation": false
  },
  {
    "rank": 13,
    "team_name": "鳥取大学",
    "team_short_name": "鳥取",
    "runner_name": "松江",
    "total_distance_km": 636.1,
    "latitude": 34.83382900830381,
    "longitude": 134.57920214800126,
    "is_shadow_confederation": false
  },
  {
    "rank": 14,
    "team_name": "上武大学",
    "team_short_name": "上武",
    "runner_name": "伊勢崎",
    "total_distance_km": 630.7,
    "latitude": 34.84095348395318,
    "longitude": 134.62543572206795,
    "is_shadow_confederation": false
  },
  {
    "rank": 15,
    "team_name": "金沢大学",
    "team_short_name": "金沢",
    "runner_name": "富山",
    "total_distance_km": 629.0,
    "latitude": 34.844733907096185,
    "longitude": 134.64226451485237,
    "is_shadow_confederation": false
  },
  {
    "rank": 16,
    "team_name": "福島大学",
    "team_short_name": "福島",
    "runner_name": "浪江",
    "total_distance_km": 611.2,
    "latitude": 34.78195221781764,
    "longitude": 134.81516630026394,
    "is_shadow_confederation": false
  },
  {
    "rank": 17,
    "team_name": "学連選抜",
    "team_short_name": "学連",
    "runner_name": "多度津",
    "total_distance_km": 600.1,
    "latitude": 34.712905423882084,
    "longitude": 134.90026471513676,
    "is_shadow_confederation": false
  },
  {
    "rank": 18,
    "team_name": "東北大学",
    "team_short_name": "東北",
    "runner_name": "丸森",
    "total_distance_km": 556.5,
    "latitude": 34.73041013361963,
    "longitude": 135.29887145258522,
    "is_shadow_confederation": false
  },
  {
    "rank": null,
    "team_name": "区間記録連合",
    "team_short_name": "区間記録",
    "runner_name": "新居浜",
    "total_distance_km": 679.6,
    "latitude": 34.74303440611091,
    "longitude": 134.17666163716245,
    "is_shadow_confederation": true
  }
]