[
  {
    "rank": 1,
    "team_name": "琉球大学",
    "team_short_name": "琉球",
    "runner_name": "名護",
    "total_distance_km": 421.5,
    "latitude": 34.87943780694797,
    "longitude": 136.35968247751154,
    "is_shadow_confederation": false
  },
  {
    "rank": 2,
    "team_name": "熊本学園大学",
    "team_short_name": "熊学",
    "runner_name": "人吉",
    "total_distance_km": 381.6,
    "latitude": 35.013125864898974,
    "longitude": 136.65999840187212,
    "is_shadow_confederation": false
  },
  {
    "rank": 3,
    "team_name": "鹿児島大学",
    "team_short_name": "鹿大",
    "runner_name": "西米良",
    "total_distance_km": 365.7,
    "latitude": 35.117591794922525,
    "longitude": 136.75080698713697,
    "is_shadow_confederation": false
  },
  {
    "rank": 4,
    "team_name": "福岡大学",
    "team_short_name": "福岡",
    "runner_name": "朝倉",
    "total_distance_km": 359.7,
    "latitude": 35.1263680593055,
    "longitude": 136.8154639685959,
    "is_shadow_confederation": false
  },
  {
    "rank": 5,
    "team_name": "四国大学",
    "team_short_name": "四国",
    "runner_name": "松山",
    "total_distance_km": 345.4,
    "latitude": 35.08077757340767,
    "longitude": 136.93957850089,
    "is_shadow_confederation": false
  },
  {
    "rank": 6,
    "team_name": "広島経済大学",
    "team_short_name": "広経",
    "runner_name": "大竹",
    "total_distance_km": 333.2,
    "latitude": 35.01358807769586,
    "longitude": 137.04119162840948,
    "is_shadow_confederation": false
  },
  {
    "rank": 7,
    "team_name": "立命館大学",
    "team_short_name": "立命",
    "runner_name": "京田辺",
    "total_distance_km": 319.6,
    "latitude": 34.955514871346345,
    "longitude": 137.16943657140754,
    "is_shadow_confederation": false
  },
  {
    "rank": 8,
    "team_name": "関西大学",
    "team_short_name": "関大",
    "runner_name": "上郡",
    "total_distance_km": 318.2,
    "latitude": 34.94942348760927,
    "longitude": 137.18267929812447,
    "is_shadow_confederation": false
  },
  {
    "rank": 9,
    "team_name": "鳥取大学",
    "team_short_name": "鳥取",
    "runner_name": "広瀬",
    "total_distance_km": 317.0,
    "latitude": 34.94199510375396,
    "longitude": 137.19186302280482,
    "is_shadow_confederation": false
  },
  {
    "rank": 10,
    "team_name": "名古屋大学",
    "team_short_name": "名大",
    "runner_name": "大垣",
    "total_distance_km": 315.2,
    "latitude": 34.927492089409974,
    "longitude": 137.1998089815573,
    "is_shadow_confederation": false
  },
  {
    "rank": 11,
    "team_name": "三重大学",
    "team_short_name": "三重",
    "runner_name": "小俣",
    "total_distance_km": 310.3,
    "latitude": 34.89998230111816,
    "longitude": 137.239941853672,
    "is_shadow_confederation": false
  },
  {
    "rank": 12,
    "team_name": "金沢大学",
    "team_short_name": "金沢",
    "runner_name": "七尾",
    "total_distance_km": 297.5,
    "latitude": 34.825960884828916,
    "longitude": 137.34032679097075,
    "is_shadow_confederation": false
  },
  {
    "rank": 13,
    "team_name": "上武大学",
    "team_short_name": "上武",
    "runner_name": "熊谷",
    "total_distance_km": 284.7,
    "latitude": 34.73790942931523,
    "longitude": 137.42357034704006,
    "is_shadow_confederation": false
  },
  {
    "rank": 14,
    "team_name": "日本大学",
    "team_short_name": "日大",
    "runner_name": "下館",
    "total_distance_km": 282.1,
    "latitude": 34.72245913295468,
    "longitude": 137.43979482726365,
    "is_shadow_confederation": false
  },
  {
    "rank": 15,
    "team_name": "山梨学院大学",
    "team_short_name": "山学",
    "runner_name": "大月",
    "total_distance_km": 264.5,
    "latitude": 34.69158997248476,
    "longitude": 137.59797628075344,
    "is_shadow_confederation": false
  },
  {
    "rank": 16,
    "team_name": "福島大学",
    "team_short_name": "福島",
    "runner_name": "津川",
    "total_distance_km": 263.0,
    "latitude": 34.68587878982736,
    "longitude": 137.61275396359937,
    "is_shadow_confederation": false
  },
  {
    "rank": 17,
    "team_name": "東北大学",
    "team_short_name": "東北",
    "runner_name": "山形（山形）",
    "total_distance_km": 212.3,
    "latitude": 34.81972604686106,
    "longitude": 138.0935060262333,
    "is_shadow_confederation": false
  },
  {
    "rank": 18,
    "team_name": "学連選抜",
    "team_short_name": "学連",
    "runner_name": "新潟",
    "total_distance_km": 211.6,
    "latitude": 34.82144492208463,
    "longitude": 138.09972937042417,
    "is_shadow_confederation": false
  }
]