[
  {
    "rank": 1,
    "team_name": "琉球大学",
    "team_short_name": "琉球",
    "runner_name": "久米島",
    "total_distance_km": 586.4,
    "latitude": 34.64378555692445,
    "longitude": 135.01644187694066,
    "is_shadow_confederation": false
  },
  {
    "rank": 2,
    "team_name": "熊本学園大学",
    "team_short_name": "熊学",
    "runner_name": "熊本",
    "total_distance_km": 509.7,
    "latitude": 34.84257655743519,
    "longitude": 135.69931151238302,
    "is_shadow_confederation": false
  },
  {
    "rank": 3,
    "team_name": "鹿児島大学",
    "team_short_name": "鹿大",
    "runner_name": "西都",
    "total_distance_km": 492.5,
    "latitude": 34.979432657873765,
    "longitude": 135.7516596559675,
    "is_shadow_confederation": false
  },
  {
    "rank": 4,
    "team_name": "福岡大学",
    "team_short_name": "福岡",
    "runner_name": "前原",
    "total_distance_km": 478.2,
    "latitude": 34.99460953254208,
    "longitude": 135.85757470556734,
    "is_shadow_confederation": false
  },
  {
    "rank": 5,
    "team_name": "四国大学",
    "team_short_name": "四国",
    "runner_name": "大洲",
    "total_distance_km": 462.3,
    "latitude": 35.02408073718723,
    "longitude": 135.98900693637472,
    "is_shadow_confederation": false
  },
  {
    "rank": 6,
    "team_name": "広島経済大学",
    "team_short_name": "広経",
    "runner_name": "高梁",
    "total_distance_km": 444.1,
    "latitude": 34.97713821226285,
    "longitude": 136.16736400994122,
    "is_shadow_confederation": false
  },
  {
    "rank": 7,
    "team_name": "鳥取大学",
    "team_short_name": "鳥取",
    "runner_name": "境",
    "total_distance_km": 433.3,
    "latitude": 34.93812848565325,
    "longitude": 136.27195301254085,
    "is_shadow_confederation": false
  },
  {
    "rank": 8,
    "team_name": "名古屋大学",
    "team_short_name": "名大",
    "runner_name": "多治見",
    "total_distance_km": 432.3,
    "latitude": 34.936849744978396,
    "longitude": 136.2825153777842,
    "is_shadow_confederation": false
  },
  {
    "rank": 9,
    "team_name": "関西大学",
    "team_short_name": "関大",
    "runner_name": "枚方",
    "total_distance_km": 429.4,
    "latitude": 34.9218510483658,
    "longitude": 136.30784211288997,
    "is_shadow_confederation": false
  },
  {
    "rank": 10,
    "team_name": "立命館大学",
    "team_short_name": "立命",
    "runner_name": "舞鶴",
    "total_distance_km": 422.7,
    "latitude": 34.88814823829592,
    "longitude": 136.35259864835075,
    "is_shadow_confederation": false
  },
  {
    "rank": 11,
    "team_name": "三重大学",
    "team_short_name": "三重",
    "runner_name": "奈良",
    "total_distance_km": 416.9,
    "latitude": 34.85371866188132,
    "longitude": 136.38817191695847,
    "is_shadow_confederation": false
  },
  {
    "rank": 12,
    "team_name": "日本大学",
    "team_short_name": "日大",
    "runner_name": "小田原",
    "total_distance_km": 403.9,
    "latitude": 34.87726226616075,
    "longitude": 136.50883699177783,
    "is_shadow_confederation": false
  },
  {
    "rank": 13,
    "team_name": "金沢大学",
    "team_short_name": "金沢",
    "runner_name": "志賀",
    "total_distance_km": 401.3,
    "latitude": 34.888552853332996,
    "longitude": 136.53136663451912,
    "is_shadow_confederation": false
  },
  {
    "rank": 14,
    "team_name": "上武大学",
    "team_short_name": "上武",
    "runner_name": "寄居",
    "total_distance_km": 397.5,
    "latitude": 34.912718106416456,
    "longitude": 136.55390650400778,
    "is_shadow_confederation": false
  },
  {
    "rank": 15,
    "team_name": "山梨学院大学",
    "team_short_name": "山学",
    "runner_name": "浜松",
    "total_distance_km": 382.9,
    "latitude": 35.00358728739273,
    "longitude": 136.6551529747685,
    "is_shadow_confederation": false
  },
  {
    "rank": 16,
    "team_name": "福島大学",
    "team_short_name": "福島",
    "runner_name": "長岡",
    "total_distance_km": 351.8,
    "latitude": 35.12394013171643,
    "longitude": 136.90138650028675,
    "is_shadow_confederation": false
  },
  {
    "rank": 17,
    "team_name": "学連選抜",
    "team_short_name": "学連",
    "runner_name": "上",
    "total_distance_km": 330.3,
    "latitude": 34.99796891845663,
    "longitude": 137.06609561779362,
    "is_shadow_confederation": false
  },
  {
    "rank": 18,
    "team_name": "東北大学",
    "team_short_name": "東北",
    "runner_name": "高畠",
    "total_distance_km": 291.9,
    "latitude": 34.786117352815005,
    "longitude": 137.37783972253084,
    "is_shadow_confederation": false
  }
]