[
  {
    "rank": 1,
    "team_name": "琉球大学",
    "team_short_name": "琉球",
    "runner_name": "西表島",
    "total_distance_km": 776.6,
    "latitude": 34.450387705853174,
    "longitude": 133.25236781904266,
    "is_shadow_confederation": false
  },
  {
    "rank": 2,
    "team_name": "鹿児島大学",
    "team_short_name": "鹿大",
    "runner_name": "鹿児島",
    "total_distance_km": 671.3,
    "latitude": 34.78070173794604,
    "longitude": 134.25250391713362,
    "is_shadow_confederation": false
  },
  {
    "rank": 3,
    "team_name": "熊本学園大学",
    "team_short_name": "熊学",
    "runner_name": "大分",
    "total_distance_km": 650.7,
    "latitude": 34.833220334556444,
    "longitude": 134.42887822855377,
    "is_shadow_confederation": false
  },
  {
    "rank": 4,
    "team_name": "福岡大学",
    "team_short_name": "福岡",
    "runner_name": "博多",
    "total_distance_km": 624.3,
    "latitude": 34.83334066493872,
    "longitude": 134.69105436742808,
    "is_shadow_confederation": false
  },
  {
    "rank": 5,
    "team_name": "四国大学",
    "team_short_name": "四国",
    "runner_name": "徳島",
    "total_distance_km": 601.4,
    "latitude": 34.72144316989972,
    "longitude": 134.89063605282766,
    "is_shadow_confederation": false
  },
  {
    "rank": 6,
    "team_name": "広島経済大学",
    "team_short_name": "広経",
    "runner_name": "高松（香川）",
    "total_distance_km": 582.4,
    "latitude": 34.628193006137266,
    "longitude": 135.05319449916055,
    "is_shadow_confederation": false
  },
  {
    "rank": 7,
    "team_name": "鳥取大学",
    "team_short_name": "鳥取",
    "runner_name": "松江",
    "total_distance_km": 566.0,
    "latitude": 34.69765556560348,
    "longitude": 135.2050846643181,
    "is_shadow_confederation": false
  },
  {
    "rank": 8,
    "team_name": "名古屋大学",
    "team_short_name": "名大",
    "runner_name": "豊田（愛知）",
    "total_distance_km": 564.8,
    "latitude": 34.702574619165226,
    "longitude": 135.21670790270048,
    "is_shadow_confederation": false
  },
  {
    "rank": 9,
    "team_name": "関西大学",
    "team_short_name": "関大",
    "runner_name": "豊中",
    "total_distance_km": 561.6,
    "latitude": 34.714522772146815,
    "longitude": 135.24682802111815,
    "is_shadow_confederation": false
  },
  {
    "rank": 10,
    "team_name": "立命館大学",
    "team_short_name": "立命",
    "runner_name": "彦根",
    "total_distance_km": 554.5,
    "latitude": 34.73522770791169,
    "longitude": 135.3198861717319,
    "is_shadow_confederation": false
  },
  {
    "rank": 11,
    "team_name": "三重大学",
    "team_short_name": "三重",
    "runner_name": "新宮",
    "total_distance_km": 551.7,
    "latitude": 34.73726790307714,
    "longitude": 135.34975329484044,
    "is_shadow_confederation": false
  },
  {
    "rank": 12,
    "team_name": "日本大学",
    "team_short_name": "日大",
    "runner_name": "八王子",
    "total_distance_km": 533.1,
    "latitude": 34.69899978047083,
    "longitude": 135.5347994158229,
    "is_shadow_confederation": false
  },
  {
    "rank": 13,
    "team_name": "上武大学",
    "team_short_name": "上武",
    "runner_name": "桐生",
    "total_distance_km": 531.3,
    "latitude": 34.707083224796044,
    "longitude": 135.54622752711603,
    "is_shadow_confederation": false
  },
  {
    "rank": 14,
    "team_name": "金沢大学",
    "team_short_name": "金沢",
    "runner_name": "福井",
    "total_distance_km": 529.5,
    "latitude": 34.72309742339295,
    "longitude": 135.54866181312758,
    "is_shadow_confederation": false
  },
  {
    "rank": 15,
    "team_name": "山梨学院大学",
    "team_short_name": "山学",
    "runner_name": "甲府",
    "total_distance_km": 505.8,
    "latitude": 34.86787091360851,
    "longitude": 135.7271312355686,
    "is_shadow_confederation": false
  },
  {
    "rank": 16,
    "team_name": "福島大学",
    "team_short_name": "福島",
    "runner_name": "福島",
    "total_distance_km": 469.2,
    "latitude": 34.98749548671669,
    "longitude": 135.9306666223427,
    "is_shadow_confederation": false
  },
  {
    "rank": 17,
    "team_name": "学連選抜",
    "team_short_name": "学連",
    "runner_name": "久世",
    "total_distance_km": 465.3,
    "latitude": 35.011698038068324,
    "longitude": 135.96139801292335,
    "is_shadow_confederation": false
  },
  {
    "rank": 18,
    "team_name": "東北大学",
    "team_short_name": "東北",
    "runner_name": "大館",
    "total_distance_km": 391.0,
    "latitude": 34.945596715263186,
    "longitude": 136.60498295706043,
    "is_shadow_confederation": false
  }
]