[
  {
    "rank": 1,
    "team_name": "福岡大学",
    "team_short_name": "福岡",
    "runner_name": "久留米",
    "total_distance_km": 90.8,
    "latitude": 35.226683131108025,
    "longitude": 139.09503973169862,
    "is_shadow_confederation": false
  },
  {
    "rank": 2,
    "team_name": "立命館大学",
    "team_short_name": "立命",
    "runner_name": "東近江",
    "total_distance_km": 89.9,
    "latitude": 35.229102077756394,
    "longitude": 139.10447638026164,
    "is_shadow_confederation": false
  },
  {
    "rank": 3,
    "team_name": "熊本学園大学",
    "team_short_name": "熊学",
    "runner_name": "甲佐",
    "total_distance_km": 89.0,
    "latitude": 35.23270311061273,
    "longitude": 139.1129679908097,
    "is_shadow_confederation": false
  },
  {
    "rank": 4,
    "team_name": "上武大学",
    "team_short_name": "上武",
    "runner_name": "佐野",
    "total_distance_km": 87.4,
    "latitude": 35.24282487084847,
    "longitude": 139.12497119330084,
    "is_shadow_confederation": false
  },
  {
    "rank": 5,
    "team_name": "四国大学",
    "team_short_name": "四国",
    "runner_name": "穴吹",
    "total_distance_km": 87.2,
    "latitude": 35.24386827457458,
    "longitude": 139.12676308372636,
    "is_shadow_confederation": false
  },
  {
    "rank": 6,
    "team_name": "名古屋大学",
    "team_short_name": "名大",
    "runner_name": "美濃加茂",
    "total_distance_km": 86.5,
    "latitude": 35.24682792662582,
    "longitude": 139.1333199622155,
    "is_shadow_confederation": false
  },
  {
    "rank": 7,
    "team_name": "日本大学",
    "team_short_name": "日大",
    "runner_name": "大子",
    "total_distance_km": 86.4,
    "latitude": 35.246596844032666,
    "longitude": 139.13438197929986,
    "is_shadow_confederation": false
  },
  {
    "rank": 8,
    "team_name": "福島大学",
    "team_short_name": "福島",
    "runner_name": "梁川",
    "total_distance_km": 85.5,
    "latitude": 35.24590760624969,
    "longitude": 139.14395892031368,
    "is_shadow_confederation": false
  },
  {
    "rank": 8,
    "team_name": "琉球大学",
    "team_short_name": "琉球",
    "runner_name": "北原",
    "total_distance_km": 85.5,
    "latitude": 35.24590760624969,
    "longitude": 139.14395892031368,
    "is_shadow_confederation": false
  },
  {
    "rank": 10,
    "team_name": "鹿児島大学",
    "team_short_name": "鹿大",
    "runner_name": "東市来",
    "total_distance_km": 85.4,
    "latitude": 35.245718871110284,
    "longitude": 139.14500992271113,
    "is_shadow_confederation": false
  },
  {
    "rank": 11,
    "team_name": "金沢大学",
    "team_short_name": "金沢",
    "runner_name": "秋ヶ島",
    "total_distance_km": 84.7,
    "latitude": 35.24695811024876,
    "longitude": 139.15254928024095,
    "is_shadow_confederation": false
  },
  {
    "rank": 12,
    "team_name": "関西大学",
    "team_short_name": "関大",
    "runner_name": "福崎",
    "total_distance_km": 84.6,
    "latitude": 35.24710625571696,
    "longitude": 139.15363308129776,
    "is_shadow_confederation": false
  },
  {
    "rank": 13,
    "team_name": "鳥取大学",
    "team_short_name": "鳥取",
    "runner_name": "川本",
    "total_distance_km": 84.3,
    "latitude": 35.247402449233775,
    "longitude": 139.15690450656962,
    "is_shadow_confederation": false
  },
  {
    "rank": 14,
    "team_name": "広島経済大学",
    "team_short_name": "広経",
    "runner_name": "三次",
    "total_distance_km": 84.1,
    "latitude": 35.24805800272305,
    "longitude": 139.15895156510686,
    "is_shadow_confederation": false
  },
  {
    "rank": 15,
    "team_name": "三重大学",
    "team_short_name": "三重",
    "runner_name": "粥見",
    "total_distance_km": 82.7,
    "latitude": 35.25565866844186,
    "longitude": 139.16982066822243,
    "is_shadow_confederation": false
  },
  {
    "rank": 16,
    "team_name": "山梨学院大学",
    "team_short_name": "山学",
    "runner_name": "長野",
    "total_distance_km": 80.5,
    "latitude": 35.26674451991534,
    "longitude": 139.189246873521,
    "is_shadow_confederation": false
  },
  {
    "rank": 17,
    "team_name": "東北大学",
    "team_short_name": "東北",
    "runner_name": "帯広",
    "total_distance_km": 59.2,
    "latitude": 35.31874747091282,
    "longitude": 139.4027483066515,
    "is_shadow_confederation": false
  },
  {
    "rank": 18,
    "team_name": "学連選抜",
    "team_short_name": "学連",
    "runner_name": "美幌",
    "total_distance_km": 41.8,
    "latitude": 35.411253509234015,
    "longitude": 139.5314647470029,
    "is_shadow_confederation": false
  }
]