[
  {
    "rank": 1,
    "team_name": "琉球大学",
    "team_short_name": "琉球",
    "runner_name": "波照間",
    "total_distance_km": 457.5,
    "latitude": 35.02544955519616,
    "longitude": 136.03818286337892,
    "is_shadow_confederation": false
  },
  {
    "rank": 2,
    "team_name": "鹿児島大学",
    "team_short_name": "鹿大",
    "runner_name": "西米良",
    "total_distance_km": 349.8,
    "latitude": 35.1156006240009,
    "longitude": 136.92018320503453,
    "is_shadow_confederation": false
  },
  {
    "rank": 3,
    "team_name": "熊本学園大学",
    "team_short_name": "熊学",
    "runner_name": "人吉",
    "total_distance_km": 343.8,
    "latitude": 35.07290982268319,
    "longitude": 136.95417429378801,
    "is_shadow_confederation": false
  },
  {
    "rank": 4,
    "team_name": "福岡大学",
    "team_short_name": "福岡",
    "runner_name": "黒木",
    "total_distance_km": 323.5,
    "latitude": 34.96843454437815,
    "longitude": 137.1305723942558,
    "is_shadow_confederation": false
  },
  {
    "rank": 5,
    "team_name": "名古屋大学",
    "team_short_name": "名大",
    "runner_name": "大垣",
    "total_distance_km": 299.1,
    "latitude": 34.83548763320096,
    "longitude": 137.32795939072182,
    "is_shadow_confederation": false
  },
  {
    "rank": 6,
    "team_name": "四国大学",
    "team_short_name": "四国",
    "runner_name": "御荘",
    "total_distance_km": 294.2,
    "latitude": 34.80261504724031,
    "longitude": 137.36263726897795,
    "is_shadow_confederation": false
  },
  {
    "rank": 7,
    "team_name": "日本大学",
    "team_short_name": "日大",
    "runner_name": "下館",
    "total_distance_km": 286.0,
    "latitude": 34.7464225092474,
    "longitude": 137.41416938466526,
    "is_shadow_confederation": false
  },
  {
    "rank": 8,
    "team_name": "上武大学",
    "team_short_name": "上武",
    "runner_name": "熊谷",
    "total_distance_km": 285.5,
    "latitude": 34.74289152622225,
    "longitude": 137.4172545975932,
    "is_shadow_confederation": false
  },
  {
    "rank": 9,
    "team_name": "三重大学",
    "team_short_name": "三重",
    "runner_name": "小俣",
    "total_distance_km": 282.4,
    "latitude": 34.72333603641917,
    "longitude": 137.43669710735776,
    "is_shadow_confederation": false
  },
  {
    "rank": 10,
    "team_name": "広島経済大学",
    "team_short_name": "広経",
    "runner_name": "府中（広島）",
    "total_distance_km": 277.1,
    "latitude": 34.700966052054554,
    "longitude": 137.4836489267723,
    "is_shadow_confederation": false
  },
  {
    "rank": 11,
    "team_name": "鳥取大学",
    "team_short_name": "鳥取",
    "runner_name": "広瀬",
    "total_distance_km": 270.1,
    "latitude": 34.68227668234489,
    "longitude": 137.54225189047833,
    "is_shadow_confederation": false
  },
  {
    "rank": 12,
    "team_name": "関西大学",
    "team_short_name": "関大",
    "runner_name": "上郡",
    "total_distance_km": 268.4,
    "latitude": 34.68770848267206,
    "longitude": 137.55959887308782,
    "is_shadow_confederation": false
  },
  {
    "rank": 13,
    "team_name": "立命館大学",
    "team_short_name": "立命",
    "runner_name": "京田辺",
    "total_distance_km": 256.7,
    "latitude": 34.687920459568346,
    "longitude": 137.6802879514633,
    "is_shadow_confederation": false
  },
  {
    "rank": 14,
    "team_name": "福島大学",
    "team_short_name": "福島",
    "runner_name": "津川",
    "total_distance_km": 242.1,
    "latitude": 34.72689631978739,
    "longitude": 137.81439046635506,
    "is_shadow_confederation": false
  },
  {
    "rank": 15,
    "team_name": "山梨学院大学",
    "team_short_name": "山学",
    "runner_name": "大月",
    "total_distance_km": 235.5,
    "latitude": 34.735956894427225,
    "longitude": 137.88133108417978,
    "is_shadow_confederation": false
  },
  {
    "rank": 16,
    "team_name": "金沢大学",
    "team_short_name": "金沢",
    "runner_name": "小浜",
    "total_distance_km": 217.9,
    "latitude": 34.784219,
    "longitude": 138.05769346771385,
    "is_shadow_confederation": false
  },
  {
    "rank": 17,
    "team_name": "東北大学",
    "team_short_name": "東北",
    "runner_name": "山形（山形）",
    "total_distance_km": 166.0,
    "latitude": 35.02119741205687,
    "longitude": 138.47731391323694,
    "is_shadow_confederation": false
  },
  {
    "rank": 18,
    "team_name": "学連選抜",
    "team_short_name": "学連",
    "runner_name": "美幌",
    "total_distance_km": 80.1,
    "latitude": 35.26838518292499,
    "longitude": 139.19313188892923,
    "is_shadow_confederation": false
  },
  {
    "rank": null,
    "team_name": "区間記録連合",
    "team_short_name": "区間記録",
    "runner_name": "桐生",
    "total_distance_km": 486.4,
    "latitude": 35.009422088698,
    "longitude": 135.7834939483111,
    "is_shadow_confederation": true
  }
]