[
  {
    "rank": 1,
    "team_name": "琉球大学",
    "team_short_name": "琉球",
    "runner_name": "西表島",
    "total_distance_km": 871.0,
    "latitude": 34.38927786517904,
    "longitude": 132.42043875160712,
    "is_shadow_confederation": false
  },
  {
    "rank": 2,
    "team_name": "熊本学園大学",
    "team_short_name": "熊学",
    "runner_name": "三角",
    "total_distance_km": 822.8,
    "latitude": 34.40677681374879,
    "longitude": 132.8494221670359,
    "is_shadow_confederation": false
  },
  {
    "rank": 3,
    "team_name": "福岡大学",
    "team_short_name": "福岡",
    "runner_name": "大牟田",
    "total_distance_km": 804.0,
    "latitude": 34.398881921554555,
    "longitude": 133.02184161074868,
    "is_shadow_confederation": false
  },
  {
    "rank": 4,
    "team_name": "名古屋大学",
    "team_short_name": "名大",
    "runner_name": "大府",
    "total_distance_km": 799.2,
    "latitude": 34.393984358635684,
    "longitude": 133.06807742444366,
    "is_shadow_confederation": false
  },
  {
    "rank": 5,
    "team_name": "鹿児島大学",
    "team_short_name": "鹿大",
    "runner_name": "さつま柏原",
    "total_distance_km": 798.2,
    "latitude": 34.399307995593446,
    "longitude": 133.07668162773962,
    "is_shadow_confederation": false
  },
  {
    "rank": 6,
    "team_name": "関西大学",
    "team_short_name": "関大",
    "runner_name": "郡家",
    "total_distance_km": 797.1,
    "latitude": 34.397301331040836,
    "longitude": 133.08825245201638,
    "is_shadow_confederation": false
  },
  {
    "rank": 7,
    "team_name": "鳥取大学",
    "team_short_name": "鳥取",
    "runner_name": "玖珂",
    "total_distance_km": 789.9,
    "latitude": 34.394691522017744,
    "longitude": 133.15403436779178,
    "is_shadow_confederation": false
  },
  {
    "rank": 8,
    "team_name": "広島経済大学",
    "team_short_name": "広経",
    "runner_name": "引田",
    "total_distance_km": 789.0,
    "latitude": 34.39653736761776,
    "longitude": 133.16351701189572,
    "is_shadow_confederation": false
  },
  {
    "rank": 9,
    "team_name": "立命館大学",
    "team_short_name": "立命",
    "runner_name": "京都",
    "total_distance_km": 787.8,
    "latitude": 34.39967765436641,
    "longitude": 133.1759313811872,
    "is_shadow_confederation": false
  },
  {
    "rank": 10,
    "team_name": "四国大学",
    "team_short_name": "四国",
    "runner_name": "江川崎",
    "total_distance_km": 782.9,
    "latitude": 34.409480260865685,
    "longitude": 133.22237252737403,
    "is_shadow_confederation": false
  },
  {
    "rank": 11,
    "team_name": "山梨学院大学",
    "team_short_name": "山学",
    "runner_name": "上田",
    "total_distance_km": 773.6,
    "latitude": 34.4606933485935,
    "longitude": 133.28208332538074,
    "is_shadow_confederation": false
  },
  {
    "rank": 12,
    "team_name": "上武大学",
    "team_short_name": "上武",
    "runner_name": "前橋",
    "total_distance_km": 773.1,
    "latitude": 34.46265577462251,
    "longitude": 133.28697675459682,
    "is_shadow_confederation": false
  },
  {
    "rank": 13,
    "team_name": "三重大学",
    "team_short_name": "三重",
    "runner_name": "和歌山",
    "total_distance_km": 767.8,
    "latitude": 34.48545240119742,
    "longitude": 133.33519486916686,
    "is_shadow_confederation": false
  },
  {
    "rank": 14,
    "team_name": "金沢大学",
    "team_short_name": "金沢",
    "runner_name": "小松",
    "total_distance_km": 765.8,
    "latitude": 34.48556724357483,
    "longitude": 133.35576477120287,
    "is_shadow_confederation": false
  },
  {
    "rank": 15,
    "team_name": "日本大学",
    "team_short_name": "日大",
    "runner_name": "練馬",
    "total_distance_km": 741.9,
    "latitude": 34.52675215428499,
    "longitude": 133.5880925640164,
    "is_shadow_confederation": false
  },
  {
    "rank": 16,
    "team_name": "学連選抜",
    "team_short_name": "学連",
    "runner_name": "加世田",
    "total_distance_km": 720.3,
    "latitude": 34.61463973479552,
    "longitude": 133.78484062217055,
    "is_shadow_confederation": false
  },
  {
    "rank": 17,
    "team_name": "福島大学",
    "team_short_name": "福島",
    "runner_name": "寺泊",
    "total_distance_km": 704.4,
    "latitude": 34.65843796946575,
    "longitude": 133.93945407849603,
    "is_shadow_confederation": false
  },
  {
    "rank": 18,
    "team_name": "東北大学",
    "team_short_name": "東北",
    "runner_name": "秋田",
    "total_distance_km": 697.3,
    "latitude": 34.68898582316642,
    "longitude": 134.00396654561794,
    "is_shadow_confederation": false
  }
]