[
  {
    "rank": 1,
    "team_name": "琉球大学",
    "team_short_name": "琉球",
    "runner_name": "名護",
    "total_distance_km": 407.6,
    "latitude": 34.85702033792925,
    "longitude": 136.48154016325287,
    "is_shadow_confederation": false
  },
  {
    "rank": 2,
    "team_name": "鹿児島大学",
    "team_short_name": "鹿大",
    "runner_name": "加久藤",
    "total_distance_km": 311.7,
    "latitude": 34.90875173003954,
    "longitude": 137.22938586878945,
    "is_shadow_confederation": false
  },
  {
    "rank": 3,
    "team_name": "熊本学園大学",
    "team_short_name": "熊学",
    "runner_name": "八代",
    "total_distance_km": 306.3,
    "latitude": 34.878969266104335,
    "longitude": 137.27228575995224,
    "is_shadow_confederation": false
  },
  {
    "rank": 4,
    "team_name": "福岡大学",
    "team_short_name": "福岡",
    "runner_name": "黒木",
    "total_distance_km": 288.7,
    "latitude": 34.76612709689955,
    "longitude": 137.3986633176492,
    "is_shadow_confederation": false
  },
  {
    "rank": 5,
    "team_name": "名古屋大学",
    "team_short_name": "名大",
    "runner_name": "大垣",
    "total_distance_km": 265.7,
    "latitude": 34.69383499476969,
    "longitude": 137.58548590783613,
    "is_shadow_confederation": false
  },
  {
    "rank": 6,
    "team_name": "四国大学",
    "team_short_name": "四国",
    "runner_name": "御荘",
    "total_distance_km": 258.1,
    "latitude": 34.6860462211645,
    "longitude": 137.66530134161619,
    "is_shadow_confederation": false
  },
  {
    "rank": 7,
    "team_name": "日本大学",
    "team_short_name": "日大",
    "runner_name": "下館",
    "total_distance_km": 256.1,
    "latitude": 34.68801981572142,
    "longitude": 137.68683467836084,
    "is_shadow_confederation": false
  },
  {
    "rank": 7,
    "team_name": "上武大学",
    "team_short_name": "上武",
    "runner_name": "熊谷",
    "total_distance_km": 256.1,
    "latitude": 34.68801981572142,
    "longitude": 137.68683467836084,
    "is_shadow_confederation": false
  },
  {
    "rank": 9,
    "team_name": "三重大学",
    "team_short_name": "三重",
    "runner_name": "小俣",
    "total_distance_km": 250.9,
    "latitude": 34.70780855460147,
    "longitude": 137.7275159836245,
    "is_shadow_confederation": false
  },
  {
    "rank": 10,
    "team_name": "広島経済大学",
    "team_short_name": "広経",
    "runner_name": "府中（広島）",
    "total_distance_km": 242.0,
    "latitude": 34.7266044987594,
    "longitude": 137.81542348608966,
    "is_shadow_confederation": false
  },
  {
    "rank": 11,
    "team_name": "鳥取大学",
    "team_short_name": "鳥取",
    "runner_name": "広瀬",
    "total_distance_km": 234.8,
    "latitude": 34.73917484585839,
    "longitude": 137.88790591843414,
    "is_shadow_confederation": false
  },
  {
    "rank": 12,
    "team_name": "関西大学",
    "team_short_name": "関大",
    "runner_name": "上郡",
    "total_distance_km": 233.5,
    "latitude": 34.74283694344958,
    "longitude": 137.9013527546704,
    "is_shadow_confederation": false
  },
  {
    "rank": 13,
    "team_name": "立命館大学",
    "team_short_name": "立命",
    "runner_name": "福知山",
    "total_distance_km": 222.8,
    "latitude": 34.776388554415085,
    "longitude": 138.00667466660042,
    "is_shadow_confederation": false
  },
  {
    "rank": 14,
    "team_name": "福島大学",
    "team_short_name": "福島",
    "runner_name": "石川",
    "total_distance_km": 211.9,
    "latitude": 34.82214531941998,
    "longitude": 138.0967284278094,
    "is_shadow_confederation": false
  },
  {
    "rank": 15,
    "team_name": "山梨学院大学",
    "team_short_name": "山学",
    "runner_name": "南信濃",
    "total_distance_km": 208.0,
    "latitude": 34.835104297226856,
    "longitude": 138.11694900703168,
    "is_shadow_confederation": false
  },
  {
    "rank": 16,
    "team_name": "金沢大学",
    "team_short_name": "金沢",
    "runner_name": "小浜",
    "total_distance_km": 190.0,
    "latitude": 34.902033806781084,
    "longitude": 138.28405294450297,
    "is_shadow_confederation": false
  },
  {
    "rank": 17,
    "team_name": "東北大学",
    "team_short_name": "東北",
    "runner_name": "山形（山形）",
    "total_distance_km": 139.9,
    "latitude": 35.14458243412186,
    "longitude": 138.68353703824883,
    "is_shadow_confederation": false
  },
  {
    "rank": 18,
    "team_name": "学連選抜",
    "team_short_name": "学連",
    "runner_name": "美幌",
    "total_distance_km": 59.6,
    "latitude": 35.31830884822803,
    "longitude": 139.3983821710066,
    "is_shadow_confederation": false
  },
  {
    "rank": null,
    "team_name": "区間記録連合",
    "team_short_name": "区間記録",
    "runner_name": "風屋",
    "total_distance_km": 407.6,
    "latitude": 34.85702033792925,
    "longitude": 136.48154016325287,
    "is_shadow_confederation": true
  }
]