[
  {
    "rank": 1,
    "team_name": "琉球大学",
    "team_short_name": "琉球",
    "runner_name": "久米島",
    "total_distance_km": 661.5,
    "latitude": 34.84244719749835,
    "longitude": 134.31998511144027,
    "is_shadow_confederation": false
  },
  {
    "rank": 2,
    "team_name": "鹿児島大学",
    "team_short_name": "鹿大",
    "runner_name": "西都",
    "total_distance_km": 529.5,
    "latitude": 34.72309742339295,
    "longitude": 135.54866181312758,
    "is_shadow_confederation": false
  },
  {
    "rank": 3,
    "team_name": "熊本学園大学",
    "team_short_name": "熊学",
    "runner_name": "熊本",
    "total_distance_km": 518.0,
    "latitude": 34.79971979076522,
    "longitude": 135.6292527227432,
    "is_shadow_confederation": false
  },
  {
    "rank": 4,
    "team_name": "福岡大学",
    "team_short_name": "福岡",
    "runner_name": "前原",
    "total_distance_km": 492.8,
    "latitude": 34.97940906709918,
    "longitude": 135.7483743067746,
    "is_shadow_confederation": false
  },
  {
    "rank": 5,
    "team_name": "四国大学",
    "team_short_name": "四国",
    "runner_name": "大洲",
    "total_distance_km": 455.9,
    "latitude": 35.0194721796493,
    "longitude": 136.05410774177037,
    "is_shadow_confederation": false
  },
  {
    "rank": 6,
    "team_name": "名古屋大学",
    "team_short_name": "名大",
    "runner_name": "多治見",
    "total_distance_km": 454.1,
    "latitude": 35.01037175537557,
    "longitude": 136.07043405805794,
    "is_shadow_confederation": false
  },
  {
    "rank": 7,
    "team_name": "広島経済大学",
    "team_short_name": "広経",
    "runner_name": "高梁",
    "total_distance_km": 444.3,
    "latitude": 34.97782049088491,
    "longitude": 136.16535242104433,
    "is_shadow_confederation": false
  },
  {
    "rank": 8,
    "team_name": "上武大学",
    "team_short_name": "上武",
    "runner_name": "桐生",
    "total_distance_km": 443.9,
    "latitude": 34.976187288499126,
    "longitude": 136.16922474755185,
    "is_shadow_confederation": false
  },
  {
    "rank": 9,
    "team_name": "日本大学",
    "team_short_name": "日大",
    "runner_name": "牛久",
    "total_distance_km": 442.1,
    "latitude": 34.966157471776775,
    "longitude": 136.18453530858292,
    "is_shadow_confederation": false
  },
  {
    "rank": 10,
    "team_name": "鳥取大学",
    "team_short_name": "鳥取",
    "runner_name": "境",
    "total_distance_km": 437.0,
    "latitude": 34.9475159471135,
    "longitude": 136.23388316923464,
    "is_shadow_confederation": false
  },
  {
    "rank": 11,
    "team_name": "三重大学",
    "team_short_name": "三重",
    "runner_name": "奈良",
    "total_distance_km": 433.3,
    "latitude": 34.93812848565325,
    "longitude": 136.27195301254085,
    "is_shadow_confederation": false
  },
  {
    "rank": 12,
    "team_name": "関西大学",
    "team_short_name": "関大",
    "runner_name": "枚方",
    "total_distance_km": 428.7,
    "latitude": 34.91894823137184,
    "longitude": 136.3143161218101,
    "is_shadow_confederation": false
  },
  {
    "rank": 13,
    "team_name": "立命館大学",
    "team_short_name": "立命",
    "runner_name": "米原",
    "total_distance_km": 404.7,
    "latitude": 34.87704588594322,
    "longitude": 136.50029914029682,
    "is_shadow_confederation": false
  },
  {
    "rank": 14,
    "team_name": "山梨学院大学",
    "team_short_name": "山学",
    "runner_name": "浜松",
    "total_distance_km": 392.6,
    "latitude": 34.934250884975576,
    "longitude": 136.59524669202767,
    "is_shadow_confederation": false
  },
  {
    "rank": 15,
    "team_name": "福島大学",
    "team_short_name": "福島",
    "runner_name": "長岡",
    "total_distance_km": 374.2,
    "latitude": 35.0731287641142,
    "longitude": 136.68599948620945,
    "is_shadow_confederation": false
  },
  {
    "rank": 16,
    "team_name": "金沢大学",
    "team_short_name": "金沢",
    "runner_name": "志賀",
    "total_distance_km": 346.7,
    "latitude": 35.090156698760815,
    "longitude": 136.93153784030878,
    "is_shadow_confederation": false
  },
  {
    "rank": 17,
    "team_name": "東北大学",
    "team_short_name": "東北",
    "runner_name": "高畠",
    "total_distance_km": 298.2,
    "latitude": 34.829426584610076,
    "longitude": 137.33398502498224,
    "is_shadow_confederation": false
  },
  {
    "rank": 18,
    "team_name": "学連選抜",
    "team_short_name": "学連",
    "runner_name": "新潟",
    "total_distance_km": 194.3,
    "latitude": 34.88309107879557,
    "longitude": 138.24372412577395,
    "is_shadow_confederation": false
  },
  {
    "rank": null,
    "team_name": "区間記録連合",
    "team_short_name": "区間記録",
    "runner_name": "勝沼",
    "total_distance_km": 661.5,
    "latitude": 34.84244719749835,
    "longitude": 134.31998511144027,
    "is_shadow_confederation": true
  }
]