[
  {
    "rank": 1,
    "team_name": "琉球大学",
    "team_short_name": "琉球",
    "runner_name": "西表島",
    "total_distance_km": 778.6,
    "latitude": 34.441938587329446,
    "longitude": 133.23340329105952,
    "is_shadow_confederation": false
  },
  {
    "rank": 2,
    "team_name": "熊本学園大学",
    "team_short_name": "熊学",
    "runner_name": "犬飼",
    "total_distance_km": 734.0,
    "latitude": 34.554515210901364,
    "longitude": 133.6637710038599,
    "is_shadow_confederation": false
  },
  {
    "rank": 3,
    "team_name": "福岡大学",
    "team_short_name": "福岡",
    "runner_name": "口之津",
    "total_distance_km": 715.4,
    "latitude": 34.639803434593794,
    "longitude": 133.82677501702744,
    "is_shadow_confederation": false
  },
  {
    "rank": 4,
    "team_name": "名古屋大学",
    "team_short_name": "名大",
    "runner_name": "名古屋",
    "total_distance_km": 715.1,
    "latitude": 34.640776336237955,
    "longitude": 133.8298280129259,
    "is_shadow_confederation": false
  },
  {
    "rank": 5,
    "team_name": "鹿児島大学",
    "team_short_name": "鹿大",
    "runner_name": "鹿児島",
    "total_distance_km": 713.4,
    "latitude": 34.64602007069823,
    "longitude": 133.8471918489877,
    "is_shadow_confederation": false
  },
  {
    "rank": 6,
    "team_name": "関西大学",
    "team_short_name": "関大",
    "runner_name": "八尾（大阪）",
    "total_distance_km": 712.1,
    "latitude": 34.64547492474667,
    "longitude": 133.8610191859793,
    "is_shadow_confederation": false
  },
  {
    "rank": 7,
    "team_name": "鳥取大学",
    "team_short_name": "鳥取",
    "runner_name": "米子",
    "total_distance_km": 707.3,
    "latitude": 34.656119342230106,
    "longitude": 133.90994833560282,
    "is_shadow_confederation": false
  },
  {
    "rank": 8,
    "team_name": "立命館大学",
    "team_short_name": "立命",
    "runner_name": "長浜（滋賀）",
    "total_distance_km": 705.1,
    "latitude": 34.65607653578198,
    "longitude": 133.9339456900909,
    "is_shadow_confederation": false
  },
  {
    "rank": 9,
    "team_name": "広島経済大学",
    "team_short_name": "広経",
    "runner_name": "福山",
    "total_distance_km": 705.0,
    "latitude": 34.656062002505195,
    "longitude": 133.93503643639409,
    "is_shadow_confederation": false
  },
  {
    "rank": 10,
    "team_name": "四国大学",
    "team_short_name": "四国",
    "runner_name": "新居浜",
    "total_distance_km": 704.5,
    "latitude": 34.65759957337827,
    "longitude": 133.93906620427197,
    "is_shadow_confederation": false
  },
  {
    "rank": 11,
    "team_name": "上武大学",
    "team_short_name": "上武",
    "runner_name": "小山",
    "total_distance_km": 691.5,
    "latitude": 34.70534049871728,
    "longitude": 134.06146201167024,
    "is_shadow_confederation": false
  },
  {
    "rank": 12,
    "team_name": "山梨学院大学",
    "team_short_name": "山学",
    "runner_name": "三島",
    "total_distance_km": 691.0,
    "latitude": 34.705231537832724,
    "longitude": 134.06687846891364,
    "is_shadow_confederation": false
  },
  {
    "rank": 13,
    "team_name": "三重大学",
    "team_short_name": "三重",
    "runner_name": "津",
    "total_distance_km": 686.3,
    "latitude": 34.725841508243164,
    "longitude": 134.10680599663996,
    "is_shadow_confederation": false
  },
  {
    "rank": 14,
    "team_name": "金沢大学",
    "team_short_name": "金沢",
    "runner_name": "敦賀",
    "total_distance_km": 685.6,
    "latitude": 34.72749069883209,
    "longitude": 134.11418317647258,
    "is_shadow_confederation": false
  },
  {
    "rank": 15,
    "team_name": "日本大学",
    "team_short_name": "日大",
    "runner_name": "八王子",
    "total_distance_km": 661.3,
    "latitude": 34.84253824398246,
    "longitude": 134.32204099518313,
    "is_shadow_confederation": false
  },
  {
    "rank": 16,
    "team_name": "学連選抜",
    "team_short_name": "学連",
    "runner_name": "多度津",
    "total_distance_km": 633.9,
    "latitude": 34.83033624870548,
    "longitude": 134.6022507130218,
    "is_shadow_confederation": false
  },
  {
    "rank": 17,
    "team_name": "福島大学",
    "team_short_name": "福島",
    "runner_name": "浪江",
    "total_distance_km": 625.7,
    "latitude": 34.836127997444066,
    "longitude": 134.67613885150317,
    "is_shadow_confederation": false
  },
  {
    "rank": 18,
    "team_name": "東北大学",
    "team_short_name": "東北",
    "runner_name": "丸森",
    "total_distance_km": 620.0,
    "latitude": 34.82075978579958,
    "longitude": 134.73527082731,
    "is_shadow_confederation": false
  }
]