[
  {
    "rank": 1,
    "team_name": "名古屋大学",
    "team_short_name": "名大",
    "runner_name": "大垣",
    "total_distance_km": 239.0,
    "latitude": 34.72464816986833,
    "longitude": 137.84748662035062,
    "is_shadow_confederation": false
  },
  {
    "rank": 2,
    "team_name": "熊本学園大学",
    "team_short_name": "熊学",
    "runner_name": "岱明",
    "total_distance_km": 232.5,
    "latitude": 34.745637538693174,
    "longitude": 137.9117124538938,
    "is_shadow_confederation": false
  },
  {
    "rank": 3,
    "team_name": "四国大学",
    "team_short_name": "四国",
    "runner_name": "大三島",
    "total_distance_km": 231.7,
    "latitude": 34.74916894879549,
    "longitude": 137.9193298957771,
    "is_shadow_confederation": false
  },
  {
    "rank": 4,
    "team_name": "福岡大学",
    "team_short_name": "福岡",
    "runner_name": "福岡",
    "total_distance_km": 231.4,
    "latitude": 34.75034791211892,
    "longitude": 137.92227815872008,
    "is_shadow_confederation": false
  },
  {
    "rank": 5,
    "team_name": "琉球大学",
    "team_short_name": "琉球",
    "runner_name": "仲筋",
    "total_distance_km": 228.8,
    "latitude": 34.760467069619196,
    "longitude": 137.94740757193148,
    "is_shadow_confederation": false
  },
  {
    "rank": 6,
    "team_name": "鳥取大学",
    "team_short_name": "鳥取",
    "runner_name": "鳥取",
    "total_distance_km": 228.7,
    "latitude": 34.760721880038666,
    "longitude": 137.94845527579187,
    "is_shadow_confederation": false
  },
  {
    "rank": 7,
    "team_name": "広島経済大学",
    "team_short_name": "広経",
    "runner_name": "加計",
    "total_distance_km": 228.5,
    "latitude": 34.76123150087761,
    "longitude": 137.95055068351263,
    "is_shadow_confederation": false
  },
  {
    "rank": 8,
    "team_name": "立命館大学",
    "team_short_name": "立命",
    "runner_name": "福知山",
    "total_distance_km": 228.0,
    "latitude": 34.762438840261666,
    "longitude": 137.95581176102334,
    "is_shadow_confederation": false
  },
  {
    "rank": 8,
    "team_name": "金沢大学",
    "team_short_name": "金沢",
    "runner_name": "小浜",
    "total_distance_km": 228.0,
    "latitude": 34.762438840261666,
    "longitude": 137.95581176102334,
    "is_shadow_confederation": false
  },
  {
    "rank": 10,
    "team_name": "関西大学",
    "team_short_name": "関大",
    "runner_name": "和田山",
    "total_distance_km": 227.9,
    "latitude": 34.76266690374559,
    "longitude": 137.95686850908123,
    "is_shadow_confederation": false
  },
  {
    "rank": 11,
    "team_name": "上武大学",
    "team_short_name": "上武",
    "runner_name": "越谷",
    "total_distance_km": 226.7,
    "latitude": 34.76301223378294,
    "longitude": 137.9698567418859,
    "is_shadow_confederation": false
  },
  {
    "rank": 12,
    "team_name": "日本大学",
    "team_short_name": "日大",
    "runner_name": "古河",
    "total_distance_km": 223.7,
    "latitude": 34.775966928209144,
    "longitude": 137.9970041872464,
    "is_shadow_confederation": false
  },
  {
    "rank": 13,
    "team_name": "鹿児島大学",
    "team_short_name": "鹿大",
    "runner_name": "川内（鹿児島）",
    "total_distance_km": 222.7,
    "latitude": 34.77648217502154,
    "longitude": 138.00776122829672,
    "is_shadow_confederation": false
  },
  {
    "rank": 14,
    "team_name": "三重大学",
    "team_short_name": "三重",
    "runner_name": "五條",
    "total_distance_km": 220.8,
    "latitude": 34.7776241579083,
    "longitude": 138.02803655994705,
    "is_shadow_confederation": false
  },
  {
    "rank": 15,
    "team_name": "山梨学院大学",
    "team_short_name": "山学",
    "runner_name": "南信濃",
    "total_distance_km": 216.8,
    "latitude": 34.78751871002146,
    "longitude": 138.06879176519973,
    "is_shadow_confederation": false
  },
  {
    "rank": 16,
    "team_name": "福島大学",
    "team_short_name": "福島",
    "runner_name": "石川",
    "total_distance_km": 215.5,
    "latitude": 34.79796107360512,
    "longitude": 138.0743444389313,
    "is_shadow_confederation": false
  },
  {
    "rank": 17,
    "team_name": "東北大学",
    "team_short_name": "東北",
    "runner_name": "山形（山形）",
    "total_distance_km": 184.1,
    "latitude": 34.94022800591796,
    "longitude": 138.3191953943645,
    "is_shadow_confederation": false
  },
  {
    "rank": 18,
    "team_name": "学連選抜",
    "team_short_name": "学連",
    "runner_name": "新潟",
    "total_distance_km": 179.8,
    "latitude": 34.948803624513694,
    "longitude": 138.35863266288246,
    "is_shadow_confederation": false
  },
  {
    "rank": null,
    "team_name": "区間記録連合",
    "team_short_name": "区間記録",
    "runner_name": "伊勢崎",
    "total_distance_km": 251.2,
    "latitude": 34.7051856171919,
    "longitude": 137.72831310042173,
    "is_shadow_confederation": true
  }
]