[
  {
    "rank": 1,
    "team_name": "名古屋大学",
    "team_short_name": "名大",
    "runner_name": "大垣",
    "total_distance_km": 313.3,
    "latitude": 34.91596718268987,
    "longitude": 137.2146742414103,
    "is_shadow_confederation": false
  },
  {
    "rank": 2,
    "team_name": "四国大学",
    "team_short_name": "四国",
    "runner_name": "御荘",
    "total_distance_km": 309.2,
    "latitude": 34.89632977089289,
    "longitude": 137.25097120896783,
    "is_shadow_confederation": false
  },
  {
    "rank": 3,
    "team_name": "熊本学園大学",
    "team_short_name": "熊学",
    "runner_name": "八代",
    "total_distance_km": 306.7,
    "latitude": 34.88136136563944,
    "longitude": 137.26901197468808,
    "is_shadow_confederation": false
  },
  {
    "rank": 4,
    "team_name": "立命館大学",
    "team_short_name": "立命",
    "runner_name": "京田辺",
    "total_distance_km": 306.6,
    "latitude": 34.880763340755664,
    "longitude": 137.26983042100412,
    "is_shadow_confederation": false
  },
  {
    "rank": 5,
    "team_name": "福岡大学",
    "team_short_name": "福岡",
    "runner_name": "黒木",
    "total_distance_km": 305.9,
    "latitude": 34.87678315732335,
    "longitude": 137.2757509658526,
    "is_shadow_confederation": false
  },
  {
    "rank": 6,
    "team_name": "関西大学",
    "team_short_name": "関大",
    "runner_name": "上郡",
    "total_distance_km": 303.2,
    "latitude": 34.86442686406247,
    "longitude": 137.3011594833127,
    "is_shadow_confederation": false
  },
  {
    "rank": 7,
    "team_name": "鳥取大学",
    "team_short_name": "鳥取",
    "runner_name": "広瀬",
    "total_distance_km": 301.7,
    "latitude": 34.85530721992867,
    "longitude": 137.31294297360395,
    "is_shadow_confederation": false
  },
  {
    "rank": 7,
    "team_name": "日本大学",
    "team_short_name": "日大",
    "runner_name": "下館",
    "total_distance_km": 301.7,
    "latitude": 34.85530721992867,
    "longitude": 137.31294297360395,
    "is_shadow_confederation": false
  },
  {
    "rank": 9,
    "team_name": "広島経済大学",
    "team_short_name": "広経",
    "runner_name": "府中（広島）",
    "total_distance_km": 300.6,
    "latitude": 34.84723694666598,
    "longitude": 137.3198503533145,
    "is_shadow_confederation": false
  },
  {
    "rank": 10,
    "team_name": "琉球大学",
    "team_short_name": "琉球",
    "runner_name": "盛山",
    "total_distance_km": 299.2,
    "latitude": 34.83628512488335,
    "longitude": 137.327449801084,
    "is_shadow_confederation": false
  },
  {
    "rank": 11,
    "team_name": "上武大学",
    "team_short_name": "上武",
    "runner_name": "熊谷",
    "total_distance_km": 299.0,
    "latitude": 34.83469014151857,
    "longitude": 137.32846898035962,
    "is_shadow_confederation": false
  },
  {
    "rank": 12,
    "team_name": "三重大学",
    "team_short_name": "三重",
    "runner_name": "小俣",
    "total_distance_km": 298.7,
    "latitude": 34.832297666471405,
    "longitude": 137.32999774927302,
    "is_shadow_confederation": false
  },
  {
    "rank": 13,
    "team_name": "金沢大学",
    "team_short_name": "金沢",
    "runner_name": "七尾",
    "total_distance_km": 295.3,
    "latitude": 34.81070075477743,
    "longitude": 137.35568378117028,
    "is_shadow_confederation": false
  },
  {
    "rank": 14,
    "team_name": "鹿児島大学",
    "team_short_name": "鹿大",
    "runner_name": "加久藤",
    "total_distance_km": 294.7,
    "latitude": 34.80630632402154,
    "longitude": 137.35950198018602,
    "is_shadow_confederation": false
  },
  {
    "rank": 15,
    "team_name": "山梨学院大学",
    "team_short_name": "山学",
    "runner_name": "大月",
    "total_distance_km": 294.0,
    "latitude": 34.801138536527816,
    "longitude": 137.3638913844947,
    "is_shadow_confederation": false
  },
  {
    "rank": 16,
    "team_name": "福島大学",
    "team_short_name": "福島",
    "runner_name": "津川",
    "total_distance_km": 282.0,
    "latitude": 34.72217824853982,
    "longitude": 137.44083221936145,
    "is_shadow_confederation": false
  },
  {
    "rank": 17,
    "team_name": "東北大学",
    "team_short_name": "東北",
    "runner_name": "高畠",
    "total_distance_km": 253.1,
    "latitude": 34.6923200140949,
    "longitude": 137.717270075604,
    "is_shadow_confederation": false
  },
  {
    "rank": 18,
    "team_name": "学連選抜",
    "team_short_name": "学連",
    "runner_name": "大村",
    "total_distance_km": 249.1,
    "latitude": 34.70858791386677,
    "longitude": 137.74669134618335,
    "is_shadow_confederation": false
  },
  {
    "rank": null,
    "team_name": "区間記録連合",
    "team_short_name": "区間記録",
    "runner_name": "伊勢崎",
    "total_distance_km": 313.3,
    "latitude": 34.91596718268987,
    "longitude": 137.2146742414103,
    "is_shadow_confederation": true
  }
]