[
  {
    "rank": 1,
    "team_name": "琉球大学",
    "team_short_name": "琉球",
    "runner_name": "久米島",
    "total_distance_km": 582.1,
    "latitude": 34.62835389601562,
    "longitude": 135.05646022935977,
    "is_shadow_confederation": false
  },
  {
    "rank": 2,
    "team_name": "熊本学園大学",
    "team_short_name": "熊学",
    "runner_name": "大分",
    "total_distance_km": 550.8,
    "latitude": 34.73577260902059,
    "longitude": 135.35940252940782,
    "is_shadow_confederation": false
  },
  {
    "rank": 3,
    "team_name": "福岡大学",
    "team_short_name": "福岡",
    "runner_name": "前原",
    "total_distance_km": 534.6,
    "latitude": 34.69723047322445,
    "longitude": 135.5187976489088,
    "is_shadow_confederation": false
  },
  {
    "rank": 4,
    "team_name": "立命館大学",
    "team_short_name": "立命",
    "runner_name": "舞鶴",
    "total_distance_km": 527.9,
    "latitude": 34.73443370636304,
    "longitude": 135.55867368239836,
    "is_shadow_confederation": false
  },
  {
    "rank": 5,
    "team_name": "四国大学",
    "team_short_name": "四国",
    "runner_name": "大洲",
    "total_distance_km": 524.8,
    "latitude": 34.753567080353896,
    "longitude": 135.58334619711462,
    "is_shadow_confederation": false
  },
  {
    "rank": 6,
    "team_name": "関西大学",
    "team_short_name": "関大",
    "runner_name": "枚方",
    "total_distance_km": 523.1,
    "latitude": 34.76428675727399,
    "longitude": 135.59634597213036,
    "is_shadow_confederation": false
  },
  {
    "rank": 7,
    "team_name": "鹿児島大学",
    "team_short_name": "鹿大",
    "runner_name": "西都",
    "total_distance_km": 522.9,
    "latitude": 34.765223881338,
    "longitude": 135.59821226077818,
    "is_shadow_confederation": false
  },
  {
    "rank": 8,
    "team_name": "広島経済大学",
    "team_short_name": "広経",
    "runner_name": "高梁",
    "total_distance_km": 521.2,
    "latitude": 34.77516422984192,
    "longitude": 135.61233403478448,
    "is_shadow_confederation": false
  },
  {
    "rank": 9,
    "team_name": "鳥取大学",
    "team_short_name": "鳥取",
    "runner_name": "境",
    "total_distance_km": 520.4,
    "latitude": 34.78032053128223,
    "longitude": 135.61834571288207,
    "is_shadow_confederation": false
  },
  {
    "rank": 10,
    "team_name": "名古屋大学",
    "team_short_name": "名大",
    "runner_name": "多治見",
    "total_distance_km": 518.8,
    "latitude": 34.793163779061516,
    "longitude": 135.62599307800832,
    "is_shadow_confederation": false
  },
  {
    "rank": 11,
    "team_name": "三重大学",
    "team_short_name": "三重",
    "runner_name": "奈良",
    "total_distance_km": 511.4,
    "latitude": 34.83026844407646,
    "longitude": 135.68827250326004,
    "is_shadow_confederation": false
  },
  {
    "rank": 12,
    "team_name": "山梨学院大学",
    "team_short_name": "山学",
    "runner_name": "甲府",
    "total_distance_km": 511.0,
    "latitude": 34.83302522872134,
    "longitude": 135.6910774564023,
    "is_shadow_confederation": false
  },
  {
    "rank": 13,
    "team_name": "金沢大学",
    "team_short_name": "金沢",
    "runner_name": "福井",
    "total_distance_km": 509.6,
    "latitude": 34.84338833963731,
    "longitude": 135.69977507461903,
    "is_shadow_confederation": false
  },
  {
    "rank": 14,
    "team_name": "上武大学",
    "team_short_name": "上武",
    "runner_name": "桐生",
    "total_distance_km": 508.4,
    "latitude": 34.853210956462505,
    "longitude": 135.70514192809623,
    "is_shadow_confederation": false
  },
  {
    "rank": 15,
    "team_name": "日本大学",
    "team_short_name": "日大",
    "runner_name": "牛久",
    "total_distance_km": 490.5,
    "latitude": 34.99569297299163,
    "longitude": 135.75255591886443,
    "is_shadow_confederation": false
  },
  {
    "rank": 16,
    "team_name": "東北大学",
    "team_short_name": "東北",
    "runner_name": "一関",
    "total_distance_km": 462.0,
    "latitude": 35.025403826427905,
    "longitude": 135.99187388278767,
    "is_shadow_confederation": false
  },
  {
    "rank": 17,
    "team_name": "福島大学",
    "team_short_name": "福島",
    "runner_name": "福島",
    "total_distance_km": 461.8,
    "latitude": 35.02628588592169,
    "longitude": 135.99378518039632,
    "is_shadow_confederation": false
  },
  {
    "rank": 18,
    "team_name": "学連選抜",
    "team_short_name": "学連",
    "runner_name": "久世",
    "total_distance_km": 452.2,
    "latitude": 35.000772058692455,
    "longitude": 136.08767224917375,
    "is_shadow_confederation": false
  }
]