[
  {
    "rank": 1,
    "team_name": "琉球大学",
    "team_short_name": "琉球",
    "runner_name": "盛山",
    "total_distance_km": 332.3,
    "latitude": 35.008966570383734,
    "longitude": 137.04928753040213,
    "is_shadow_confederation": false
  },
  {
    "rank": 2,
    "team_name": "熊本学園大学",
    "team_short_name": "熊学",
    "runner_name": "八代",
    "total_distance_km": 303.5,
    "latitude": 34.865692283509844,
    "longitude": 137.29825990816317,
    "is_shadow_confederation": false
  },
  {
    "rank": 3,
    "team_name": "鹿児島大学",
    "team_short_name": "鹿大",
    "runner_name": "加久藤",
    "total_distance_km": 295.4,
    "latitude": 34.811394397052496,
    "longitude": 137.3549857361612,
    "is_shadow_confederation": false
  },
  {
    "rank": 4,
    "team_name": "福岡大学",
    "team_short_name": "福岡",
    "runner_name": "黒木",
    "total_distance_km": 288.9,
    "latitude": 34.7665689286045,
    "longitude": 137.39654525613759,
    "is_shadow_confederation": false
  },
  {
    "rank": 5,
    "team_name": "四国大学",
    "team_short_name": "四国",
    "runner_name": "御荘",
    "total_distance_km": 273.1,
    "latitude": 34.680093197923235,
    "longitude": 137.5101695811398,
    "is_shadow_confederation": false
  },
  {
    "rank": 6,
    "team_name": "広島経済大学",
    "team_short_name": "広経",
    "runner_name": "府中（広島）",
    "total_distance_km": 260.5,
    "latitude": 34.6829682956278,
    "longitude": 137.6394897586576,
    "is_shadow_confederation": false
  },
  {
    "rank": 7,
    "team_name": "三重大学",
    "team_short_name": "三重",
    "runner_name": "小俣",
    "total_distance_km": 250.4,
    "latitude": 34.708052,
    "longitude": 137.73259590794615,
    "is_shadow_confederation": false
  },
  {
    "rank": 8,
    "team_name": "鳥取大学",
    "team_short_name": "鳥取",
    "runner_name": "広瀬",
    "total_distance_km": 248.8,
    "latitude": 34.70936296752253,
    "longitude": 137.74982871544043,
    "is_shadow_confederation": false
  },
  {
    "rank": 9,
    "team_name": "名古屋大学",
    "team_short_name": "名大",
    "runner_name": "大垣",
    "total_distance_km": 246.8,
    "latitude": 34.717385269184675,
    "longitude": 137.76931943783626,
    "is_shadow_confederation": false
  },
  {
    "rank": 10,
    "team_name": "立命館大学",
    "team_short_name": "立命",
    "runner_name": "京田辺",
    "total_distance_km": 246.2,
    "latitude": 34.719529452646995,
    "longitude": 137.77533294183158,
    "is_shadow_confederation": false
  },
  {
    "rank": 11,
    "team_name": "関西大学",
    "team_short_name": "関大",
    "runner_name": "上郡",
    "total_distance_km": 246.1,
    "latitude": 34.71988681655738,
    "longitude": 137.77633519249747,
    "is_shadow_confederation": false
  },
  {
    "rank": 12,
    "team_name": "金沢大学",
    "team_short_name": "金沢",
    "runner_name": "七尾",
    "total_distance_km": 239.6,
    "latitude": 34.725516852059,
    "longitude": 137.84105381013953,
    "is_shadow_confederation": false
  },
  {
    "rank": 13,
    "team_name": "上武大学",
    "team_short_name": "上武",
    "runner_name": "熊谷",
    "total_distance_km": 230.2,
    "latitude": 34.75626308136831,
    "longitude": 137.9330850430392,
    "is_shadow_confederation": false
  },
  {
    "rank": 14,
    "team_name": "日本大学",
    "team_short_name": "日大",
    "runner_name": "下館",
    "total_distance_km": 224.1,
    "latitude": 34.77539408193739,
    "longitude": 137.9927037169048,
    "is_shadow_confederation": false
  },
  {
    "rank": 15,
    "team_name": "山梨学院大学",
    "team_short_name": "山学",
    "runner_name": "南信濃",
    "total_distance_km": 214.8,
    "latitude": 34.80365951658576,
    "longitude": 138.0762082921135,
    "is_shadow_confederation": false
  },
  {
    "rank": 16,
    "team_name": "福島大学",
    "team_short_name": "福島",
    "runner_name": "石川",
    "total_distance_km": 206.1,
    "latitude": 34.83876000713911,
    "longitude": 138.13456326936856,
    "is_shadow_confederation": false
  },
  {
    "rank": 17,
    "team_name": "東北大学",
    "team_short_name": "東北",
    "runner_name": "山形（山形）",
    "total_distance_km": 161.2,
    "latitude": 35.04686128111264,
    "longitude": 138.51142028204785,
    "is_shadow_confederation": false
  },
  {
    "rank": 18,
    "team_name": "学連選抜",
    "team_short_name": "学連",
    "runner_name": "新潟",
    "total_distance_km": 152.6,
    "latitude": 35.106972336598126,
    "longitude": 138.5611978428736,
    "is_shadow_confederation": false
  }
]