[
  {
    "rank": 1,
    "team_name": "琉球大学",
    "team_short_name": "琉球",
    "runner_name": "名護",
    "total_distance_km": 421.9,
    "latitude": 34.88283088514608,
    "longitude": 136.3583192735415,
    "is_shadow_confederation": false
  },
  {
    "rank": 2,
    "team_name": "熊本学園大学",
    "team_short_name": "熊学",
    "runner_name": "人吉",
    "total_distance_km": 385.3,
    "latitude": 34.98813526728223,
    "longitude": 136.63728486532963,
    "is_shadow_confederation": false
  },
  {
    "rank": 3,
    "team_name": "鹿児島大学",
    "team_short_name": "鹿大",
    "runner_name": "西米良",
    "total_distance_km": 370.6,
    "latitude": 35.09836766001756,
    "longitude": 136.70408536193057,
    "is_shadow_confederation": false
  },
  {
    "rank": 4,
    "team_name": "福岡大学",
    "team_short_name": "福岡",
    "runner_name": "朝倉",
    "total_distance_km": 363.5,
    "latitude": 35.12297441460208,
    "longitude": 136.77403573540622,
    "is_shadow_confederation": false
  },
  {
    "rank": 5,
    "team_name": "四国大学",
    "team_short_name": "四国",
    "runner_name": "松山",
    "total_distance_km": 346.0,
    "latitude": 35.084500714525234,
    "longitude": 136.9348376893433,
    "is_shadow_confederation": false
  },
  {
    "rank": 6,
    "team_name": "広島経済大学",
    "team_short_name": "広経",
    "runner_name": "大竹",
    "total_distance_km": 336.2,
    "latitude": 35.03222207031247,
    "longitude": 137.01767835095583,
    "is_shadow_confederation": false
  },
  {
    "rank": 7,
    "team_name": "立命館大学",
    "team_short_name": "立命",
    "runner_name": "京田辺",
    "total_distance_km": 321.3,
    "latitude": 34.958814288343774,
    "longitude": 137.15138037163527,
    "is_shadow_confederation": false
  },
  {
    "rank": 8,
    "team_name": "鳥取大学",
    "team_short_name": "鳥取",
    "runner_name": "広瀬",
    "total_distance_km": 320.4,
    "latitude": 34.95785385703076,
    "longitude": 137.16115341797646,
    "is_shadow_confederation": false
  },
  {
    "rank": 9,
    "team_name": "関西大学",
    "team_short_name": "関大",
    "runner_name": "上郡",
    "total_distance_km": 319.8,
    "latitude": 34.956094456255876,
    "longitude": 137.16736314758185,
    "is_shadow_confederation": false
  },
  {
    "rank": 10,
    "team_name": "名古屋大学",
    "team_short_name": "名大",
    "runner_name": "大垣",
    "total_distance_km": 315.8,
    "latitude": 34.932191557135326,
    "longitude": 137.1966869823827,
    "is_shadow_confederation": false
  },
  {
    "rank": 11,
    "team_name": "三重大学",
    "team_short_name": "三重",
    "runner_name": "小俣",
    "total_distance_km": 310.9,
    "latitude": 34.90362455747989,
    "longitude": 137.23519430575993,
    "is_shadow_confederation": false
  },
  {
    "rank": 12,
    "team_name": "金沢大学",
    "team_short_name": "金沢",
    "runner_name": "七尾",
    "total_distance_km": 298.0,
    "latitude": 34.82849015858484,
    "longitude": 137.33585327234505,
    "is_shadow_confederation": false
  },
  {
    "rank": 13,
    "team_name": "上武大学",
    "team_short_name": "上武",
    "runner_name": "熊谷",
    "total_distance_km": 285.1,
    "latitude": 34.74038703572259,
    "longitude": 137.42039700580648,
    "is_shadow_confederation": false
  },
  {
    "rank": 14,
    "team_name": "日本大学",
    "team_short_name": "日大",
    "runner_name": "下館",
    "total_distance_km": 282.5,
    "latitude": 34.72364977877952,
    "longitude": 137.43567358399403,
    "is_shadow_confederation": false
  },
  {
    "rank": 15,
    "team_name": "山梨学院大学",
    "team_short_name": "山学",
    "runner_name": "大月",
    "total_distance_km": 265.5,
    "latitude": 34.693719607506104,
    "longitude": 137.58765881564867,
    "is_shadow_confederation": false
  },
  {
    "rank": 16,
    "team_name": "福島大学",
    "team_short_name": "福島",
    "runner_name": "津川",
    "total_distance_km": 264.1,
    "latitude": 34.690324022056224,
    "longitude": 137.60202775705557,
    "is_shadow_confederation": false
  },
  {
    "rank": 17,
    "team_name": "東北大学",
    "team_short_name": "東北",
    "runner_name": "山形（山形）",
    "total_distance_km": 213.7,
    "latitude": 34.81139935883114,
    "longitude": 138.08289730223282,
    "is_shadow_confederation": false
  },
  {
    "rank": 18,
    "team_name": "学連選抜",
    "team_short_name": "学連",
    "runner_name": "新潟",
    "total_distance_km": 212.4,
    "latitude": 34.81938863570308,
    "longitude": 138.09249662456162,
    "is_shadow_confederation": false
  }
]