[
  {
    "rank": 1,
    "team_name": "琉球大学",
    "team_short_name": "琉球",
    "runner_name": "久米島",
    "total_distance_km": 614.4,
    "latitude": 34.79496984522708,
    "longitude": 134.78459850333692,
    "is_shadow_confederation": false
  },
  {
    "rank": 2,
    "team_name": "熊本学園大学",
    "team_short_name": "熊学",
    "runner_name": "熊本",
    "total_distance_km": 535.5,
    "latitude": 34.69744750063051,
    "longitude": 135.50905890985473,
    "is_shadow_confederation": false
  },
  {
    "rank": 3,
    "team_name": "鹿児島大学",
    "team_short_name": "鹿大",
    "runner_name": "西都",
    "total_distance_km": 521.2,
    "latitude": 34.77516422984192,
    "longitude": 135.61233403478448,
    "is_shadow_confederation": false
  },
  {
    "rank": 4,
    "team_name": "福岡大学",
    "team_short_name": "福岡",
    "runner_name": "前原",
    "total_distance_km": 505.5,
    "latitude": 34.870154721741486,
    "longitude": 135.7288884053197,
    "is_shadow_confederation": false
  },
  {
    "rank": 5,
    "team_name": "四国大学",
    "team_short_name": "四国",
    "runner_name": "大洲",
    "total_distance_km": 484.8,
    "latitude": 35.000764546036265,
    "longitude": 135.79330051044624,
    "is_shadow_confederation": false
  },
  {
    "rank": 6,
    "team_name": "広島経済大学",
    "team_short_name": "広経",
    "runner_name": "高梁",
    "total_distance_km": 465.5,
    "latitude": 35.010454472219216,
    "longitude": 135.95981160688092,
    "is_shadow_confederation": false
  },
  {
    "rank": 7,
    "team_name": "鳥取大学",
    "team_short_name": "鳥取",
    "runner_name": "境",
    "total_distance_km": 455.8,
    "latitude": 35.01896660052298,
    "longitude": 136.0550147593419,
    "is_shadow_confederation": false
  },
  {
    "rank": 8,
    "team_name": "名古屋大学",
    "team_short_name": "名大",
    "runner_name": "多治見",
    "total_distance_km": 455.0,
    "latitude": 35.014921967512436,
    "longitude": 136.06227089991415,
    "is_shadow_confederation": false
  },
  {
    "rank": 9,
    "team_name": "関西大学",
    "team_short_name": "関大",
    "runner_name": "枚方",
    "total_distance_km": 454.7,
    "latitude": 35.01340523013348,
    "longitude": 136.06499195262876,
    "is_shadow_confederation": false
  },
  {
    "rank": 10,
    "team_name": "立命館大学",
    "team_short_name": "立命",
    "runner_name": "舞鶴",
    "total_distance_km": 445.4,
    "latitude": 34.98078745198562,
    "longitude": 136.1538580579717,
    "is_shadow_confederation": false
  },
  {
    "rank": 11,
    "team_name": "三重大学",
    "team_short_name": "三重",
    "runner_name": "奈良",
    "total_distance_km": 440.2,
    "latitude": 34.95789623891438,
    "longitude": 136.20206101091,
    "is_shadow_confederation": false
  },
  {
    "rank": 12,
    "team_name": "日本大学",
    "team_short_name": "日大",
    "runner_name": "牛久",
    "total_distance_km": 426.4,
    "latitude": 34.905030791407725,
    "longitude": 136.33157371152146,
    "is_shadow_confederation": false
  },
  {
    "rank": 13,
    "team_name": "金沢大学",
    "team_short_name": "金沢",
    "runner_name": "福井",
    "total_distance_km": 424.9,
    "latitude": 34.89337426786576,
    "longitude": 136.338358,
    "is_shadow_confederation": false
  },
  {
    "rank": 14,
    "team_name": "上武大学",
    "team_short_name": "上武",
    "runner_name": "桐生",
    "total_distance_km": 423.4,
    "latitude": 34.88917490363564,
    "longitude": 136.34535438862366,
    "is_shadow_confederation": false
  },
  {
    "rank": 15,
    "team_name": "山梨学院大学",
    "team_short_name": "山学",
    "runner_name": "浜松",
    "total_distance_km": 406.1,
    "latitude": 34.8681145836448,
    "longitude": 136.4904440209181,
    "is_shadow_confederation": false
  },
  {
    "rank": 16,
    "team_name": "福島大学",
    "team_short_name": "福島",
    "runner_name": "長岡",
    "total_distance_km": 373.3,
    "latitude": 35.079609063787075,
    "longitude": 136.68856657264232,
    "is_shadow_confederation": false
  },
  {
    "rank": 17,
    "team_name": "学連選抜",
    "team_short_name": "学連",
    "runner_name": "上",
    "total_distance_km": 352.0,
    "latitude": 35.1239319745803,
    "longitude": 136.89919234555762,
    "is_shadow_confederation": false
  },
  {
    "rank": 18,
    "team_name": "東北大学",
    "team_short_name": "東北",
    "runner_name": "高畠",
    "total_distance_km": 315.5,
    "latitude": 34.92968067394825,
    "longitude": 137.19788868847263,
    "is_shadow_confederation": false
  }
]