[
  {
    "rank": 1,
    "team_name": "琉球大学",
    "team_short_name": "琉球",
    "runner_name": "仲筋",
    "total_distance_km": 139.4,
    "latitude": 35.146150830305736,
    "longitude": 138.68804323618366,
    "is_shadow_confederation": false
  },
  {
    "rank": 2,
    "team_name": "熊本学園大学",
    "team_short_name": "熊学",
    "runner_name": "岱明",
    "total_distance_km": 137.7,
    "latitude": 35.14322772420163,
    "longitude": 138.70547217101895,
    "is_shadow_confederation": false
  },
  {
    "rank": 3,
    "team_name": "福岡大学",
    "team_short_name": "福岡",
    "runner_name": "福岡",
    "total_distance_km": 135.3,
    "latitude": 35.137804404969884,
    "longitude": 138.7307405682974,
    "is_shadow_confederation": false
  },
  {
    "rank": 4,
    "team_name": "名古屋大学",
    "team_short_name": "名大",
    "runner_name": "美濃",
    "total_distance_km": 133.3,
    "latitude": 35.133724098654874,
    "longitude": 138.75208813912207,
    "is_shadow_confederation": false
  },
  {
    "rank": 5,
    "team_name": "鹿児島大学",
    "team_short_name": "鹿大",
    "runner_name": "川内（鹿児島）",
    "total_distance_km": 131.3,
    "latitude": 35.12925732947302,
    "longitude": 138.77333476120717,
    "is_shadow_confederation": false
  },
  {
    "rank": 6,
    "team_name": "立命館大学",
    "team_short_name": "立命",
    "runner_name": "福知山",
    "total_distance_km": 130.7,
    "latitude": 35.12775076351916,
    "longitude": 138.7796571055675,
    "is_shadow_confederation": false
  },
  {
    "rank": 7,
    "team_name": "四国大学",
    "team_short_name": "四国",
    "runner_name": "大三島",
    "total_distance_km": 128.8,
    "latitude": 35.1222310066989,
    "longitude": 138.79933521052104,
    "is_shadow_confederation": false
  },
  {
    "rank": 8,
    "team_name": "三重大学",
    "team_short_name": "三重",
    "runner_name": "五條",
    "total_distance_km": 127.8,
    "latitude": 35.118250738897565,
    "longitude": 138.80917528912104,
    "is_shadow_confederation": false
  },
  {
    "rank": 9,
    "team_name": "金沢大学",
    "team_short_name": "金沢",
    "runner_name": "小浜",
    "total_distance_km": 127.2,
    "latitude": 35.11584895330673,
    "longitude": 138.81507264275095,
    "is_shadow_confederation": false
  },
  {
    "rank": 10,
    "team_name": "関西大学",
    "team_short_name": "関大",
    "runner_name": "和田山",
    "total_distance_km": 125.2,
    "latitude": 35.106648751791035,
    "longitude": 138.83389675343835,
    "is_shadow_confederation": false
  },
  {
    "rank": 11,
    "team_name": "広島経済大学",
    "team_short_name": "広経",
    "runner_name": "加計",
    "total_distance_km": 122.1,
    "latitude": 35.099726952068565,
    "longitude": 138.86541800979344,
    "is_shadow_confederation": false
  },
  {
    "rank": 12,
    "team_name": "鳥取大学",
    "team_short_name": "鳥取",
    "runner_name": "鳥取",
    "total_distance_km": 120.4,
    "latitude": 35.10457293773845,
    "longitude": 138.8824441450344,
    "is_shadow_confederation": false
  },
  {
    "rank": 13,
    "team_name": "山梨学院大学",
    "team_short_name": "山学",
    "runner_name": "南信濃",
    "total_distance_km": 120.3,
    "latitude": 35.10476894192056,
    "longitude": 138.8835147307976,
    "is_shadow_confederation": false
  },
  {
    "rank": 14,
    "team_name": "上武大学",
    "team_short_name": "上武",
    "runner_name": "越谷",
    "total_distance_km": 116.3,
    "latitude": 35.12039347180699,
    "longitude": 138.9212377581634,
    "is_shadow_confederation": false
  },
  {
    "rank": 15,
    "team_name": "日本大学",
    "team_short_name": "日大",
    "runner_name": "古河",
    "total_distance_km": 113.5,
    "latitude": 35.13199557713358,
    "longitude": 138.9469743108556,
    "is_shadow_confederation": false
  },
  {
    "rank": 16,
    "team_name": "福島大学",
    "team_short_name": "福島",
    "runner_name": "梁川",
    "total_distance_km": 107.0,
    "latitude": 35.15934656937269,
    "longitude": 138.99640129625112,
    "is_shadow_confederation": false
  },
  {
    "rank": 17,
    "team_name": "東北大学",
    "team_short_name": "東北",
    "runner_name": "帯広",
    "total_distance_km": 83.6,
    "latitude": 35.25074911090443,
    "longitude": 139.1622543204784,
    "is_shadow_confederation": false
  },
  {
    "rank": 18,
    "team_name": "学連選抜",
    "team_short_name": "学連",
    "runner_name": "美幌",
    "total_distance_km": 69.1,
    "latitude": 35.30635111098736,
    "longitude": 139.30045365469834,
    "is_shadow_confederation": false
  }
]