[
  {
    "rank": 1,
    "team_name": "熊本学園大学",
    "team_short_name": "熊学",
    "runner_name": "岱明",
    "total_distance_km": 141.5,
    "latitude": 35.139286320766885,
    "longitude": 138.66727331452086,
    "is_shadow_confederation": false
  },
  {
    "rank": 1,
    "team_name": "福岡大学",
    "team_short_name": "福岡",
    "runner_name": "福岡",
    "total_distance_km": 141.5,
    "latitude": 35.139286320766885,
    "longitude": 138.66727331452086,
    "is_shadow_confederation": false
  },
  {
    "rank": 3,
    "team_name": "琉球大学",
    "team_short_name": "琉球",
    "runner_name": "仲筋",
    "total_distance_km": 140.9,
    "latitude": 35.14118802589432,
    "longitude": 138.6734366492792,
    "is_shadow_confederation": false
  },
  {
    "rank": 4,
    "team_name": "立命館大学",
    "team_short_name": "立命",
    "runner_name": "福知山",
    "total_distance_km": 137.3,
    "latitude": 35.142233923998624,
    "longitude": 138.70960303308672,
    "is_shadow_confederation": false
  },
  {
    "rank": 5,
    "team_name": "鹿児島大学",
    "team_short_name": "鹿大",
    "runner_name": "川内（鹿児島）",
    "total_distance_km": 136.1,
    "latitude": 35.13985966201015,
    "longitude": 138.72235908159882,
    "is_shadow_confederation": false
  },
  {
    "rank": 6,
    "team_name": "名古屋大学",
    "team_short_name": "名大",
    "runner_name": "美濃",
    "total_distance_km": 133.3,
    "latitude": 35.133724098654874,
    "longitude": 138.75208813912207,
    "is_shadow_confederation": false
  },
  {
    "rank": 7,
    "team_name": "三重大学",
    "team_short_name": "三重",
    "runner_name": "五條",
    "total_distance_km": 132.5,
    "latitude": 35.13183999566279,
    "longitude": 138.7605579665147,
    "is_shadow_confederation": false
  },
  {
    "rank": 8,
    "team_name": "四国大学",
    "team_short_name": "四国",
    "runner_name": "大三島",
    "total_distance_km": 131.1,
    "latitude": 35.12875514082174,
    "longitude": 138.77544220932728,
    "is_shadow_confederation": false
  },
  {
    "rank": 9,
    "team_name": "関西大学",
    "team_short_name": "関大",
    "runner_name": "和田山",
    "total_distance_km": 130.6,
    "latitude": 35.12749966919352,
    "longitude": 138.78071082962757,
    "is_shadow_confederation": false
  },
  {
    "rank": 10,
    "team_name": "金沢大学",
    "team_short_name": "金沢",
    "runner_name": "小浜",
    "total_distance_km": 128.8,
    "latitude": 35.1222310066989,
    "longitude": 138.79933521052104,
    "is_shadow_confederation": false
  },
  {
    "rank": 11,
    "team_name": "広島経済大学",
    "team_short_name": "広経",
    "runner_name": "加計",
    "total_distance_km": 128.4,
    "latitude": 35.12065252448839,
    "longitude": 138.80327793549114,
    "is_shadow_confederation": false
  },
  {
    "rank": 12,
    "team_name": "鳥取大学",
    "team_short_name": "鳥取",
    "runner_name": "鳥取",
    "total_distance_km": 127.0,
    "latitude": 35.11504835810979,
    "longitude": 138.81703842729425,
    "is_shadow_confederation": false
  },
  {
    "rank": 13,
    "team_name": "山梨学院大学",
    "team_short_name": "山学",
    "runner_name": "南信濃",
    "total_distance_km": 121.4,
    "latitude": 35.100448151675344,
    "longitude": 138.87304506827405,
    "is_shadow_confederation": false
  },
  {
    "rank": 14,
    "team_name": "上武大学",
    "team_short_name": "上武",
    "runner_name": "越谷",
    "total_distance_km": 119.9,
    "latitude": 35.105329315888035,
    "longitude": 138.8878332441501,
    "is_shadow_confederation": false
  },
  {
    "rank": 15,
    "team_name": "日本大学",
    "team_short_name": "日大",
    "runner_name": "古河",
    "total_distance_km": 117.0,
    "latitude": 35.119130321627004,
    "longitude": 138.91371398283042,
    "is_shadow_confederation": false
  },
  {
    "rank": 16,
    "team_name": "福島大学",
    "team_short_name": "福島",
    "runner_name": "梁川",
    "total_distance_km": 109.6,
    "latitude": 35.14725916454807,
    "longitude": 138.97934994906845,
    "is_shadow_confederation": false
  },
  {
    "rank": 17,
    "team_name": "東北大学",
    "team_short_name": "東北",
    "runner_name": "帯広",
    "total_distance_km": 92.9,
    "latitude": 35.219545108463514,
    "longitude": 139.07508528665088,
    "is_shadow_confederation": false
  },
  {
    "rank": 18,
    "team_name": "学連選抜",
    "team_short_name": "学連",
    "runner_name": "美幌",
    "total_distance_km": 76.7,
    "latitude": 35.283723862099436,
    "longitude": 139.22367069146222,
    "is_shadow_confederation": false
  }
]