[
  {
    "rank": 1,
    "team_name": "琉球大学",
    "team_short_name": "琉球",
    "runner_name": "大原",
    "total_distance_km": 922.1,
    "latitude": 34.09851882639881,
    "longitude": 132.08461343758927,
    "is_shadow_confederation": false
  },
  {
    "rank": 2,
    "team_name": "鹿児島大学",
    "team_short_name": "鹿大",
    "runner_name": "さつま柏原",
    "total_distance_km": 774.7,
    "latitude": 34.45646031441767,
    "longitude": 133.2712651559018,
    "is_shadow_confederation": false
  },
  {
    "rank": 3,
    "team_name": "熊本学園大学",
    "team_short_name": "熊学",
    "runner_name": "三角",
    "total_distance_km": 749.0,
    "latitude": 34.49855027502245,
    "longitude": 133.52123956987666,
    "is_shadow_confederation": false
  },
  {
    "rank": 4,
    "team_name": "福岡大学",
    "team_short_name": "福岡",
    "runner_name": "大牟田",
    "total_distance_km": 735.4,
    "latitude": 34.54618564182588,
    "longitude": 133.65237467976405,
    "is_shadow_confederation": false
  },
  {
    "rank": 5,
    "team_name": "四国大学",
    "team_short_name": "四国",
    "runner_name": "新居浜",
    "total_distance_km": 696.7,
    "latitude": 34.692133314412175,
    "longitude": 134.00929157395296,
    "is_shadow_confederation": false
  },
  {
    "rank": 6,
    "team_name": "広島経済大学",
    "team_short_name": "広経",
    "runner_name": "福山",
    "total_distance_km": 677.1,
    "latitude": 34.75118980333214,
    "longitude": 134.20202541366973,
    "is_shadow_confederation": false
  },
  {
    "rank": 7,
    "team_name": "鳥取大学",
    "team_short_name": "鳥取",
    "runner_name": "米子",
    "total_distance_km": 663.3,
    "latitude": 34.83029509913202,
    "longitude": 134.31009317263437,
    "is_shadow_confederation": false
  },
  {
    "rank": 8,
    "team_name": "関西大学",
    "team_short_name": "関大",
    "runner_name": "八尾（大阪）",
    "total_distance_km": 661.1,
    "latitude": 34.84222655415654,
    "longitude": 134.3241702671765,
    "is_shadow_confederation": false
  },
  {
    "rank": 9,
    "team_name": "名古屋大学",
    "team_short_name": "名大",
    "runner_name": "名古屋",
    "total_distance_km": 660.7,
    "latitude": 34.84335998260426,
    "longitude": 134.32804464891507,
    "is_shadow_confederation": false
  },
  {
    "rank": 10,
    "team_name": "三重大学",
    "team_short_name": "三重",
    "runner_name": "津",
    "total_distance_km": 651.8,
    "latitude": 34.83289544290708,
    "longitude": 134.4170966991897,
    "is_shadow_confederation": false
  },
  {
    "rank": 11,
    "team_name": "立命館大学",
    "team_short_name": "立命",
    "runner_name": "彦根",
    "total_distance_km": 637.7,
    "latitude": 34.83291109270085,
    "longitude": 134.56176964890597,
    "is_shadow_confederation": false
  },
  {
    "rank": 12,
    "team_name": "上武大学",
    "team_short_name": "上武",
    "runner_name": "伊勢崎",
    "total_distance_km": 618.6,
    "latitude": 34.81272650392213,
    "longitude": 134.74682874505675,
    "is_shadow_confederation": false
  },
  {
    "rank": 13,
    "team_name": "金沢大学",
    "team_short_name": "金沢",
    "runner_name": "富山",
    "total_distance_km": 618.2,
    "latitude": 34.810040630621565,
    "longitude": 134.74974548343582,
    "is_shadow_confederation": false
  },
  {
    "rank": 14,
    "team_name": "日本大学",
    "team_short_name": "日大",
    "runner_name": "八王子",
    "total_distance_km": 616.6,
    "latitude": 34.80049919930824,
    "longitude": 134.76283885355426,
    "is_shadow_confederation": false
  },
  {
    "rank": 15,
    "team_name": "山梨学院大学",
    "team_short_name": "山学",
    "runner_name": "静岡",
    "total_distance_km": 600.9,
    "latitude": 34.718339232478854,
    "longitude": 134.89459389106565,
    "is_shadow_confederation": false
  },
  {
    "rank": 16,
    "team_name": "学連選抜",
    "team_short_name": "学連",
    "runner_name": "多度津",
    "total_distance_km": 562.8,
    "latitude": 34.710318958872065,
    "longitude": 135.23475820445503,
    "is_shadow_confederation": false
  },
  {
    "rank": 17,
    "team_name": "福島大学",
    "team_short_name": "福島",
    "runner_name": "浪江",
    "total_distance_km": 543.2,
    "latitude": 34.71945615825609,
    "longitude": 135.43917106801106,
    "is_shadow_confederation": false
  },
  {
    "rank": 18,
    "team_name": "東北大学",
    "team_short_name": "東北",
    "runner_name": "一関",
    "total_distance_km": 464.3,
    "latitude": 35.0181956973088,
    "longitude": 135.96895390985472,
    "is_shadow_confederation": false
  }
]