[
  {
    "rank": 1,
    "team_name": "琉球大学",
    "team_short_name": "琉球",
    "runner_name": "盛山",
    "total_distance_km": 262.8,
    "latitude": 34.68518782889917,
    "longitude": 137.61476984279918,
    "is_shadow_confederation": false
  },
  {
    "rank": 2,
    "team_name": "鹿児島大学",
    "team_short_name": "鹿大",
    "runner_name": "川内（鹿児島）",
    "total_distance_km": 196.1,
    "latitude": 34.872554200356724,
    "longitude": 138.22954453862505,
    "is_shadow_confederation": false
  },
  {
    "rank": 3,
    "team_name": "熊本学園大学",
    "team_short_name": "熊学",
    "runner_name": "岱明",
    "total_distance_km": 188.5,
    "latitude": 34.914313883844024,
    "longitude": 138.2900271222275,
    "is_shadow_confederation": false
  },
  {
    "rank": 4,
    "team_name": "福岡大学",
    "team_short_name": "福岡",
    "runner_name": "福岡",
    "total_distance_km": 175.6,
    "latitude": 34.97418538773876,
    "longitude": 138.39178927700814,
    "is_shadow_confederation": false
  },
  {
    "rank": 5,
    "team_name": "名古屋大学",
    "team_short_name": "名大",
    "runner_name": "美濃",
    "total_distance_km": 163.1,
    "latitude": 35.03810890933693,
    "longitude": 138.49527829276218,
    "is_shadow_confederation": false
  },
  {
    "rank": 6,
    "team_name": "上武大学",
    "team_short_name": "上武",
    "runner_name": "越谷",
    "total_distance_km": 155.2,
    "latitude": 35.08696982955593,
    "longitude": 138.54865613048509,
    "is_shadow_confederation": false
  },
  {
    "rank": 7,
    "team_name": "三重大学",
    "team_short_name": "三重",
    "runner_name": "五條",
    "total_distance_km": 154.8,
    "latitude": 35.09045303730688,
    "longitude": 138.5497887978457,
    "is_shadow_confederation": false
  },
  {
    "rank": 8,
    "team_name": "四国大学",
    "team_short_name": "四国",
    "runner_name": "大三島",
    "total_distance_km": 153.9,
    "latitude": 35.09820401801301,
    "longitude": 138.5526302401782,
    "is_shadow_confederation": false
  },
  {
    "rank": 8,
    "team_name": "日本大学",
    "team_short_name": "日大",
    "runner_name": "古河",
    "total_distance_km": 153.9,
    "latitude": 35.09820401801301,
    "longitude": 138.5526302401782,
    "is_shadow_confederation": false
  },
  {
    "rank": 10,
    "team_name": "関西大学",
    "team_short_name": "関大",
    "runner_name": "和田山",
    "total_distance_km": 141.7,
    "latitude": 35.13865241905774,
    "longitude": 138.66521886960143,
    "is_shadow_confederation": false
  },
  {
    "rank": 11,
    "team_name": "鳥取大学",
    "team_short_name": "鳥取",
    "runner_name": "鳥取",
    "total_distance_km": 139.5,
    "latitude": 35.14633490585771,
    "longitude": 138.68696898493178,
    "is_shadow_confederation": false
  },
  {
    "rank": 12,
    "team_name": "広島経済大学",
    "team_short_name": "広経",
    "runner_name": "加計",
    "total_distance_km": 137.8,
    "latitude": 35.143216803180856,
    "longitude": 138.70442468786382,
    "is_shadow_confederation": false
  },
  {
    "rank": 13,
    "team_name": "立命館大学",
    "team_short_name": "立命",
    "runner_name": "福知山",
    "total_distance_km": 131.5,
    "latitude": 35.12975951812431,
    "longitude": 138.77122731308705,
    "is_shadow_confederation": false
  },
  {
    "rank": 14,
    "team_name": "福島大学",
    "team_short_name": "福島",
    "runner_name": "石川",
    "total_distance_km": 128.8,
    "latitude": 35.1222310066989,
    "longitude": 138.79933521052104,
    "is_shadow_confederation": false
  },
  {
    "rank": 15,
    "team_name": "金沢大学",
    "team_short_name": "金沢",
    "runner_name": "秋ヶ島",
    "total_distance_km": 107.0,
    "latitude": 35.15934656937269,
    "longitude": 138.99640129625112,
    "is_shadow_confederation": false
  },
  {
    "rank": 16,
    "team_name": "山梨学院大学",
    "team_short_name": "山学",
    "runner_name": "長野",
    "total_distance_km": 103.3,
    "latitude": 35.17532472415484,
    "longitude": 139.01403071873685,
    "is_shadow_confederation": false
  },
  {
    "rank": 17,
    "team_name": "東北大学",
    "team_short_name": "東北",
    "runner_name": "帯広",
    "total_distance_km": 81.7,
    "latitude": 35.26072584589144,
    "longitude": 139.1787130065588,
    "is_shadow_confederation": false
  },
  {
    "rank": 18,
    "team_name": "学連選抜",
    "team_short_name": "学連",
    "runner_name": "美幌",
    "total_distance_km": 24.0,
    "latitude": 35.497153306693285,
    "longitude": 139.6713562242102,
    "is_shadow_confederation": false
  },
  {
    "rank": null,
    "team_name": "区間記録連合",
    "team_short_name": "区間記録",
    "runner_name": "伊勢崎",
    "total_distance_km": 290.2,
    "latitude": 34.77412854147259,
    "longitude": 137.38940821275787,
    "is_shadow_confederation": true
  }
]