[
  {
    "rank": 1,
    "team_name": "名古屋大学",
    "team_short_name": "名大",
    "runner_name": "美濃加茂",
    "total_distance_km": 90.5,
    "latitude": 35.22748944665748,
    "longitude": 139.09818528121963,
    "is_shadow_confederation": false
  },
  {
    "rank": 2,
    "team_name": "福岡大学",
    "team_short_name": "福岡",
    "runner_name": "久留米",
    "total_distance_km": 87.2,
    "latitude": 35.24386827457458,
    "longitude": 139.12676308372636,
    "is_shadow_confederation": false
  },
  {
    "rank": 3,
    "team_name": "琉球大学",
    "team_short_name": "琉球",
    "runner_name": "北原",
    "total_distance_km": 86.7,
    "latitude": 35.24647678388987,
    "longitude": 139.1312428097902,
    "is_shadow_confederation": false
  },
  {
    "rank": 4,
    "team_name": "立命館大学",
    "team_short_name": "立命",
    "runner_name": "東近江",
    "total_distance_km": 86.1,
    "latitude": 35.24656765391549,
    "longitude": 139.13764803058703,
    "is_shadow_confederation": false
  },
  {
    "rank": 5,
    "team_name": "鳥取大学",
    "team_short_name": "鳥取",
    "runner_name": "川本",
    "total_distance_km": 85.9,
    "latitude": 35.2469930781143,
    "longitude": 139.13977563474347,
    "is_shadow_confederation": false
  },
  {
    "rank": 6,
    "team_name": "広島経済大学",
    "team_short_name": "広経",
    "runner_name": "三次",
    "total_distance_km": 85.3,
    "latitude": 35.245909636811746,
    "longitude": 139.14608376534733,
    "is_shadow_confederation": false
  },
  {
    "rank": 6,
    "team_name": "関西大学",
    "team_short_name": "関大",
    "runner_name": "福崎",
    "total_distance_km": 85.3,
    "latitude": 35.245909636811746,
    "longitude": 139.14608376534733,
    "is_shadow_confederation": false
  },
  {
    "rank": 8,
    "team_name": "三重大学",
    "team_short_name": "三重",
    "runner_name": "粥見",
    "total_distance_km": 84.3,
    "latitude": 35.247402449233775,
    "longitude": 139.15690450656962,
    "is_shadow_confederation": false
  },
  {
    "rank": 9,
    "team_name": "山梨学院大学",
    "team_short_name": "山学",
    "runner_name": "長野",
    "total_distance_km": 83.9,
    "latitude": 35.24888011379938,
    "longitude": 139.16089684075212,
    "is_shadow_confederation": false
  },
  {
    "rank": 10,
    "team_name": "金沢大学",
    "team_short_name": "金沢",
    "runner_name": "秋ヶ島",
    "total_distance_km": 83.6,
    "latitude": 35.25074911090443,
    "longitude": 139.1622543204784,
    "is_shadow_confederation": false
  },
  {
    "rank": 11,
    "team_name": "四国大学",
    "team_short_name": "四国",
    "runner_name": "穴吹",
    "total_distance_km": 81.8,
    "latitude": 35.26007170008527,
    "longitude": 139.17795874072746,
    "is_shadow_confederation": false
  },
  {
    "rank": 12,
    "team_name": "上武大学",
    "team_short_name": "上武",
    "runner_name": "佐野",
    "total_distance_km": 81.1,
    "latitude": 35.26469069271083,
    "longitude": 139.18314688373997,
    "is_shadow_confederation": false
  },
  {
    "rank": 13,
    "team_name": "日本大学",
    "team_short_name": "日大",
    "runner_name": "大子",
    "total_distance_km": 80.1,
    "latitude": 35.26838518292499,
    "longitude": 139.19313188892923,
    "is_shadow_confederation": false
  },
  {
    "rank": 14,
    "team_name": "熊本学園大学",
    "team_short_name": "熊学",
    "runner_name": "甲佐",
    "total_distance_km": 79.8,
    "latitude": 35.269944329065574,
    "longitude": 139.1958257264782,
    "is_shadow_confederation": false
  },
  {
    "rank": 15,
    "team_name": "鹿児島大学",
    "team_short_name": "鹿大",
    "runner_name": "東市来",
    "total_distance_km": 76.9,
    "latitude": 35.282951870186416,
    "longitude": 139.22170304308207,
    "is_shadow_confederation": false
  },
  {
    "rank": 16,
    "team_name": "福島大学",
    "team_short_name": "福島",
    "runner_name": "梁川",
    "total_distance_km": 72.1,
    "latitude": 35.30200891346072,
    "longitude": 139.26860225061301,
    "is_shadow_confederation": false
  },
  {
    "rank": 17,
    "team_name": "学連選抜",
    "team_short_name": "学連",
    "runner_name": "美幌",
    "total_distance_km": 70.9,
    "latitude": 35.30447476204951,
    "longitude": 139.28122800641134,
    "is_shadow_confederation": false
  },
  {
    "rank": 18,
    "team_name": "東北大学",
    "team_short_name": "東北",
    "runner_name": "帯広",
    "total_distance_km": 68.1,
    "latitude": 35.30768602391836,
    "longitude": 139.311159757147,
    "is_shadow_confederation": false
  },
  {
    "rank": null,
    "team_name": "区間記録連合",
    "team_short_name": "区間記録",
    "runner_name": "梁川",
    "total_distance_km": 117.0,
    "latitude": 35.119130321627004,
    "longitude": 138.91371398283042,
    "is_shadow_confederation": true
  }
]