[
  {
    "rank": 1,
    "team_name": "琉球大学",
    "team_short_name": "琉球",
    "runner_name": "大原",
    "total_distance_km": 892.9,
    "latitude": 34.26931864939793,
    "longitude": 132.25256351286876,
    "is_shadow_confederation": false
  },
  {
    "rank": 2,
    "team_name": "鹿児島大学",
    "team_short_name": "鹿大",
    "runner_name": "さつま柏原",
    "total_distance_km": 757.6,
    "latitude": 34.498349416137536,
    "longitude": 133.43837909157185,
    "is_shadow_confederation": false
  },
  {
    "rank": 3,
    "team_name": "熊本学園大学",
    "team_short_name": "熊学",
    "runner_name": "犬飼",
    "total_distance_km": 732.7,
    "latitude": 34.55707671204166,
    "longitude": 133.67678312956218,
    "is_shadow_confederation": false
  },
  {
    "rank": 4,
    "team_name": "福岡大学",
    "team_short_name": "福岡",
    "runner_name": "口之津",
    "total_distance_km": 716.1,
    "latitude": 34.637533330757414,
    "longitude": 133.81965135993107,
    "is_shadow_confederation": false
  },
  {
    "rank": 5,
    "team_name": "四国大学",
    "team_short_name": "四国",
    "runner_name": "新居浜",
    "total_distance_km": 680.4,
    "latitude": 34.74070711683598,
    "longitude": 134.1684122359722,
    "is_shadow_confederation": false
  },
  {
    "rank": 6,
    "team_name": "広島経済大学",
    "team_short_name": "広経",
    "runner_name": "福山",
    "total_distance_km": 659.5,
    "latitude": 34.83978558169883,
    "longitude": 134.3397263419108,
    "is_shadow_confederation": false
  },
  {
    "rank": 7,
    "team_name": "名古屋大学",
    "team_short_name": "名大",
    "runner_name": "豊田（愛知）",
    "total_distance_km": 643.6,
    "latitude": 34.82252876310393,
    "longitude": 134.49966583415892,
    "is_shadow_confederation": false
  },
  {
    "rank": 8,
    "team_name": "関西大学",
    "team_short_name": "関大",
    "runner_name": "豊中",
    "total_distance_km": 643.5,
    "latitude": 34.82269104613891,
    "longitude": 134.50074104926284,
    "is_shadow_confederation": false
  },
  {
    "rank": 9,
    "team_name": "鳥取大学",
    "team_short_name": "鳥取",
    "runner_name": "松江",
    "total_distance_km": 643.4,
    "latitude": 34.822853329173874,
    "longitude": 134.50181626436677,
    "is_shadow_confederation": false
  },
  {
    "rank": 10,
    "team_name": "三重大学",
    "team_short_name": "三重",
    "runner_name": "新宮",
    "total_distance_km": 633.8,
    "latitude": 34.829876856027596,
    "longitude": 134.60319127514398,
    "is_shadow_confederation": false
  },
  {
    "rank": 11,
    "team_name": "立命館大学",
    "team_short_name": "立命",
    "runner_name": "彦根",
    "total_distance_km": 622.4,
    "latitude": 34.82862906388855,
    "longitude": 134.71091857632192,
    "is_shadow_confederation": false
  },
  {
    "rank": 12,
    "team_name": "上武大学",
    "team_short_name": "上武",
    "runner_name": "伊勢崎",
    "total_distance_km": 603.9,
    "latitude": 34.73782793832163,
    "longitude": 134.87294721258937,
    "is_shadow_confederation": false
  },
  {
    "rank": 13,
    "team_name": "日本大学",
    "team_short_name": "日大",
    "runner_name": "八王子",
    "total_distance_km": 603.8,
    "latitude": 34.7370696929401,
    "longitude": 134.87353770087495,
    "is_shadow_confederation": false
  },
  {
    "rank": 14,
    "team_name": "金沢大学",
    "team_short_name": "金沢",
    "runner_name": "富山",
    "total_distance_km": 600.0,
    "latitude": 34.71216391450597,
    "longitude": 134.90088541165957,
    "is_shadow_confederation": false
  },
  {
    "rank": 15,
    "team_name": "山梨学院大学",
    "team_short_name": "山学",
    "runner_name": "静岡",
    "total_distance_km": 584.5,
    "latitude": 34.63342297492763,
    "longitude": 135.03243593246253,
    "is_shadow_confederation": false
  },
  {
    "rank": 16,
    "team_name": "学連選抜",
    "team_short_name": "学連",
    "runner_name": "多度津",
    "total_distance_km": 545.6,
    "latitude": 34.721689730681675,
    "longitude": 135.41333797160448,
    "is_shadow_confederation": false
  },
  {
    "rank": 17,
    "team_name": "福島大学",
    "team_short_name": "福島",
    "runner_name": "福島",
    "total_distance_km": 525.8,
    "latitude": 34.747395024227814,
    "longitude": 135.57538732139972,
    "is_shadow_confederation": false
  },
  {
    "rank": 18,
    "team_name": "東北大学",
    "team_short_name": "東北",
    "runner_name": "一関",
    "total_distance_km": 450.4,
    "latitude": 34.99133045910602,
    "longitude": 136.10367868883694,
    "is_shadow_confederation": false
  }
]