[
  {
    "rank": 1,
    "team_name": "琉球大学",
    "team_short_name": "琉球",
    "runner_name": "波照間",
    "total_distance_km": 516.3,
    "latitude": 34.80390417962915,
    "longitude": 135.64618766638384,
    "is_shadow_confederation": false
  },
  {
    "rank": 2,
    "team_name": "熊本学園大学",
    "team_short_name": "熊学",
    "runner_name": "熊本",
    "total_distance_km": 494.7,
    "latitude": 34.96400493446509,
    "longitude": 135.74592018370188,
    "is_shadow_confederation": false
  },
  {
    "rank": 3,
    "team_name": "福岡大学",
    "team_short_name": "福岡",
    "runner_name": "前原",
    "total_distance_km": 478.4,
    "latitude": 34.99410449198209,
    "longitude": 135.8556551468865,
    "is_shadow_confederation": false
  },
  {
    "rank": 4,
    "team_name": "鹿児島大学",
    "team_short_name": "鹿大",
    "runner_name": "西都",
    "total_distance_km": 472.0,
    "latitude": 34.97790809737398,
    "longitude": 135.9036024547153,
    "is_shadow_confederation": false
  },
  {
    "rank": 5,
    "team_name": "立命館大学",
    "team_short_name": "立命",
    "runner_name": "舞鶴",
    "total_distance_km": 470.8,
    "latitude": 34.97952191697907,
    "longitude": 135.91618968713522,
    "is_shadow_confederation": false
  },
  {
    "rank": 6,
    "team_name": "名古屋大学",
    "team_short_name": "名大",
    "runner_name": "多治見",
    "total_distance_km": 470.4,
    "latitude": 34.98200008141317,
    "longitude": 135.91937161847375,
    "is_shadow_confederation": false
  },
  {
    "rank": 7,
    "team_name": "関西大学",
    "team_short_name": "関大",
    "runner_name": "枚方",
    "total_distance_km": 470.2,
    "latitude": 34.983023279896365,
    "longitude": 135.92115732824678,
    "is_shadow_confederation": false
  },
  {
    "rank": 8,
    "team_name": "広島経済大学",
    "team_short_name": "広経",
    "runner_name": "高梁",
    "total_distance_km": 466.3,
    "latitude": 35.00550803648956,
    "longitude": 135.95348297303102,
    "is_shadow_confederation": false
  },
  {
    "rank": 9,
    "team_name": "四国大学",
    "team_short_name": "四国",
    "runner_name": "大洲",
    "total_distance_km": 465.9,
    "latitude": 35.00807695650355,
    "longitude": 135.95652025512305,
    "is_shadow_confederation": false
  },
  {
    "rank": 10,
    "team_name": "鳥取大学",
    "team_short_name": "鳥取",
    "runner_name": "境",
    "total_distance_km": 464.4,
    "latitude": 35.01746712069537,
    "longitude": 135.9683087916794,
    "is_shadow_confederation": false
  },
  {
    "rank": 11,
    "team_name": "上武大学",
    "team_short_name": "上武",
    "runner_name": "桐生",
    "total_distance_km": 459.9,
    "latitude": 35.030995048592715,
    "longitude": 136.01350458665158,
    "is_shadow_confederation": false
  },
  {
    "rank": 12,
    "team_name": "山梨学院大学",
    "team_short_name": "山学",
    "runner_name": "甲府",
    "total_distance_km": 457.2,
    "latitude": 35.02437375761741,
    "longitude": 136.04119885106076,
    "is_shadow_confederation": false
  },
  {
    "rank": 13,
    "team_name": "三重大学",
    "team_short_name": "三重",
    "runner_name": "奈良",
    "total_distance_km": 456.3,
    "latitude": 35.021146364881176,
    "longitude": 136.0502468141063,
    "is_shadow_confederation": false
  },
  {
    "rank": 14,
    "team_name": "金沢大学",
    "team_short_name": "金沢",
    "runner_name": "福井",
    "total_distance_km": 454.1,
    "latitude": 35.01037175537557,
    "longitude": 136.07043405805794,
    "is_shadow_confederation": false
  },
  {
    "rank": 15,
    "team_name": "日本大学",
    "team_short_name": "日大",
    "runner_name": "牛久",
    "total_distance_km": 448.7,
    "latitude": 34.98516530368033,
    "longitude": 136.1189555104228,
    "is_shadow_confederation": false
  },
  {
    "rank": 16,
    "team_name": "福島大学",
    "team_short_name": "福島",
    "runner_name": "福島",
    "total_distance_km": 425.2,
    "latitude": 34.89565382129152,
    "longitude": 136.3368125246899,
    "is_shadow_confederation": false
  },
  {
    "rank": 17,
    "team_name": "東北大学",
    "team_short_name": "東北",
    "runner_name": "大館",
    "total_distance_km": 417.5,
    "latitude": 34.85599984797923,
    "longitude": 136.38223274961967,
    "is_shadow_confederation": false
  },
  {
    "rank": 18,
    "team_name": "学連選抜",
    "team_short_name": "学連",
    "runner_name": "上",
    "total_distance_km": 404.1,
    "latitude": 34.87699201024211,
    "longitude": 136.50667409143793,
    "is_shadow_confederation": false
  }
]