[
  {
    "rank": 1,
    "team_name": "琉球大学",
    "team_short_name": "琉球",
    "runner_name": "ゴール",
    "total_distance_km": 1057.8,
    "latitude": 33.950916,
    "longitude": 130.924104,
    "is_shadow_confederation": false
  },
  {
    "rank": 2,
    "team_name": "鹿児島大学",
    "team_short_name": "鹿大",
    "runner_name": "ゴール",
    "total_distance_km": 1056.2,
    "latitude": 33.95222710186592,
    "longitude": 130.9325647285639,
    "is_shadow_confederation": false
  },
  {
    "rank": 3,
    "team_name": "熊本学園大学",
    "team_short_name": "熊学",
    "runner_name": "ゴール",
    "total_distance_km": 1071.9,
    "latitude": 33.950916,
    "longitude": 130.924104,
    "is_shadow_confederation": false
  },
  {
    "rank": 4,
    "team_name": "福岡大学",
    "team_short_name": "福岡",
    "runner_name": "ゴール",
    "total_distance_km": 1073.5,
    "latitude": 33.950916,
    "longitude": 130.924104,
    "is_shadow_confederation": false
  },
  {
    "rank": 5,
    "team_name": "四国大学",
    "team_short_name": "四国",
    "runner_name": "ゴール",
    "total_distance_km": 1062.7,
    "latitude": 33.950916,
    "longitude": 130.924104,
    "is_shadow_confederation": false
  },
  {
    "rank": 6,
    "team_name": "広島経済大学",
    "team_short_name": "広経",
    "runner_name": "ゴール",
    "total_distance_km": 1055.6,
    "latitude": 33.952056066892375,
    "longitude": 130.9387977096387,
    "is_shadow_confederation": false
  },
  {
    "rank": 7,
    "team_name": "関西大学",
    "team_short_name": "関大",
    "runner_name": "大阪",
    "total_distance_km": 1050.3,
    "latitude": 33.98177212108472,
    "longitude": 130.98127080361792,
    "is_shadow_confederation": false
  },
  {
    "rank": 8,
    "team_name": "鳥取大学",
    "team_short_name": "鳥取",
    "runner_name": "山口（山口）",
    "total_distance_km": 1043.5,
    "latitude": 34.03453967097539,
    "longitude": 131.00926350952543,
    "is_shadow_confederation": false
  },
  {
    "rank": 9,
    "team_name": "名古屋大学",
    "team_short_name": "名大",
    "runner_name": "岐阜",
    "total_distance_km": 1038.8,
    "latitude": 34.07041863959311,
    "longitude": 131.03414063383275,
    "is_shadow_confederation": false
  },
  {
    "rank": 10,
    "team_name": "三重大学",
    "team_short_name": "三重",
    "runner_name": "桑名",
    "total_distance_km": 1037.2,
    "latitude": 34.06551444224925,
    "longitude": 131.04978895318774,
    "is_shadow_confederation": false
  },
  {
    "rank": 11,
    "team_name": "日本大学",
    "team_short_name": "日大",
    "runner_name": "青梅",
    "total_distance_km": 1005.7,
    "latitude": 34.05664883007354,
    "longitude": 131.3333397055916,
    "is_shadow_confederation": false
  },
  {
    "rank": 12,
    "team_name": "上武大学",
    "team_short_name": "上武",
    "runner_name": "鳩山",
    "total_distance_km": 999.5,
    "latitude": 34.082267953010145,
    "longitude": 131.38682454904443,
    "is_shadow_confederation": false
  },
  {
    "rank": 13,
    "team_name": "立命館大学",
    "team_short_name": "立命",
    "runner_name": "大津（滋賀）",
    "total_distance_km": 998.0,
    "latitude": 34.09459888542084,
    "longitude": 131.3928006507628,
    "is_shadow_confederation": false
  },
  {
    "rank": 14,
    "team_name": "金沢大学",
    "team_short_name": "金沢",
    "runner_name": "加賀中津原",
    "total_distance_km": 969.1,
    "latitude": 34.06307719129635,
    "longitude": 131.6600838540252,
    "is_shadow_confederation": false
  },
  {
    "rank": 15,
    "team_name": "山梨学院大学",
    "team_short_name": "山学",
    "runner_name": "勝沼",
    "total_distance_km": 955.5,
    "latitude": 34.06949021810067,
    "longitude": 131.78703838339698,
    "is_shadow_confederation": false
  },
  {
    "rank": 16,
    "team_name": "学連選抜",
    "team_short_name": "学連",
    "runner_name": "恵那",
    "total_distance_km": 940.2,
    "latitude": 34.032012220790754,
    "longitude": 131.92614020856394,
    "is_shadow_confederation": false
  },
  {
    "rank": 17,
    "team_name": "福島大学",
    "team_short_name": "福島",
    "runner_name": "喜多方",
    "total_distance_km": 834.1,
    "latitude": 34.412413017720475,
    "longitude": 132.73836460701594,
    "is_shadow_confederation": false
  },
  {
    "rank": 18,
    "team_name": "東北大学",
    "team_short_name": "東北",
    "runner_name": "東根",
    "total_distance_km": 750.1,
    "latitude": 34.500428435058616,
    "longitude": 133.50953484865295,
    "is_shadow_confederation": false
  }
]