[
  {
    "rank": 1,
    "team_name": "琉球大学",
    "team_short_name": "琉球",
    "runner_name": "那覇",
    "total_distance_km": 749.9,
    "latitude": 34.49975104156005,
    "longitude": 133.51155301411075,
    "is_shadow_confederation": false
  },
  {
    "rank": 2,
    "team_name": "鹿児島大学",
    "team_short_name": "鹿大",
    "runner_name": "笠利",
    "total_distance_km": 652.0,
    "latitude": 34.832624722271504,
    "longitude": 134.4149380789515,
    "is_shadow_confederation": false
  },
  {
    "rank": 3,
    "team_name": "熊本学園大学",
    "team_short_name": "熊学",
    "runner_name": "大分",
    "total_distance_km": 635.1,
    "latitude": 34.83306286832256,
    "longitude": 134.58996472301868,
    "is_shadow_confederation": false
  },
  {
    "rank": 4,
    "team_name": "福岡大学",
    "team_short_name": "福岡",
    "runner_name": "博多",
    "total_distance_km": 610.1,
    "latitude": 34.77601269771671,
    "longitude": 134.82460891629765,
    "is_shadow_confederation": false
  },
  {
    "rank": 5,
    "team_name": "四国大学",
    "team_short_name": "四国",
    "runner_name": "徳島",
    "total_distance_km": 585.9,
    "latitude": 34.64167161266394,
    "longitude": 135.02123472285285,
    "is_shadow_confederation": false
  },
  {
    "rank": 6,
    "team_name": "広島経済大学",
    "team_short_name": "広経",
    "runner_name": "高松（香川）",
    "total_distance_km": 566.2,
    "latitude": 34.69682617689143,
    "longitude": 135.2031466781212,
    "is_shadow_confederation": false
  },
  {
    "rank": 7,
    "team_name": "名古屋大学",
    "team_short_name": "名大",
    "runner_name": "豊田（愛知）",
    "total_distance_km": 553.8,
    "latitude": 34.737123686547875,
    "longitude": 135.32717657781748,
    "is_shadow_confederation": false
  },
  {
    "rank": 8,
    "team_name": "鳥取大学",
    "team_short_name": "鳥取",
    "runner_name": "松江",
    "total_distance_km": 553.0,
    "latitude": 34.73849674905596,
    "longitude": 135.33566933398583,
    "is_shadow_confederation": false
  },
  {
    "rank": 9,
    "team_name": "関西大学",
    "team_short_name": "関大",
    "runner_name": "豊中",
    "total_distance_km": 550.4,
    "latitude": 34.73495204679745,
    "longitude": 135.3636556179074,
    "is_shadow_confederation": false
  },
  {
    "rank": 10,
    "team_name": "立命館大学",
    "team_short_name": "立命",
    "runner_name": "舞鶴",
    "total_distance_km": 539.9,
    "latitude": 34.70160003883862,
    "longitude": 135.4664437324867,
    "is_shadow_confederation": false
  },
  {
    "rank": 11,
    "team_name": "三重大学",
    "team_short_name": "三重",
    "runner_name": "奈良",
    "total_distance_km": 533.8,
    "latitude": 34.697475814398864,
    "longitude": 135.5273855059799,
    "is_shadow_confederation": false
  },
  {
    "rank": 12,
    "team_name": "日本大学",
    "team_short_name": "日大",
    "runner_name": "牛久",
    "total_distance_km": 522.3,
    "latitude": 34.76868324917815,
    "longitude": 135.60323962368918,
    "is_shadow_confederation": false
  },
  {
    "rank": 13,
    "team_name": "金沢大学",
    "team_short_name": "金沢",
    "runner_name": "福井",
    "total_distance_km": 519.2,
    "latitude": 34.78974627675773,
    "longitude": 135.62459963561056,
    "is_shadow_confederation": false
  },
  {
    "rank": 13,
    "team_name": "上武大学",
    "team_short_name": "上武",
    "runner_name": "桐生",
    "total_distance_km": 519.2,
    "latitude": 34.78974627675773,
    "longitude": 135.62459963561056,
    "is_shadow_confederation": false
  },
  {
    "rank": 15,
    "team_name": "山梨学院大学",
    "team_short_name": "山学",
    "runner_name": "甲府",
    "total_distance_km": 492.0,
    "latitude": 34.982307187632934,
    "longitude": 135.75380907179996,
    "is_shadow_confederation": false
  },
  {
    "rank": 16,
    "team_name": "福島大学",
    "team_short_name": "福島",
    "runner_name": "福島",
    "total_distance_km": 457.0,
    "latitude": 35.02365655923158,
    "longitude": 136.04320950951532,
    "is_shadow_confederation": false
  },
  {
    "rank": 17,
    "team_name": "学連選抜",
    "team_short_name": "学連",
    "runner_name": "久世",
    "total_distance_km": 456.3,
    "latitude": 35.021146364881176,
    "longitude": 136.0502468141063,
    "is_shadow_confederation": false
  },
  {
    "rank": 18,
    "team_name": "東北大学",
    "team_short_name": "東北",
    "runner_name": "大館",
    "total_distance_km": 387.2,
    "latitude": 34.97449716730851,
    "longitude": 136.62522964603608,
    "is_shadow_confederation": false
  }
]