[
  {
    "rank": 1,
    "team_name": "琉球大学",
    "team_short_name": "琉球",
    "runner_name": "ゴール",
    "total_distance_km": 1057.8,
    "latitude": 33.950916,
    "longitude": 130.924104,
    "is_shadow_confederation": false
  },
  {
    "rank": 2,
    "team_name": "鹿児島大学",
    "team_short_name": "鹿大",
    "runner_name": "指宿",
    "total_distance_km": 1051.8,
    "latitude": 33.97289572457369,
    "longitude": 130.96944601305015,
    "is_shadow_confederation": false
  },
  {
    "rank": 3,
    "team_name": "熊本学園大学",
    "team_short_name": "熊学",
    "runner_name": "日田",
    "total_distance_km": 987.0,
    "latitude": 34.05826946465788,
    "longitude": 131.49584926013335,
    "is_shadow_confederation": false
  },
  {
    "rank": 4,
    "team_name": "福岡大学",
    "team_short_name": "福岡",
    "runner_name": "太宰府",
    "total_distance_km": 980.1,
    "latitude": 34.05559817940792,
    "longitude": 131.56045801860174,
    "is_shadow_confederation": false
  },
  {
    "rank": 5,
    "team_name": "四国大学",
    "team_short_name": "四国",
    "runner_name": "西条",
    "total_distance_km": 947.9,
    "latitude": 34.02844991930987,
    "longitude": 131.84584536994987,
    "is_shadow_confederation": false
  },
  {
    "rank": 6,
    "team_name": "広島経済大学",
    "team_short_name": "広経",
    "runner_name": "滝宮",
    "total_distance_km": 921.3,
    "latitude": 34.10090405338106,
    "longitude": 132.0924941073467,
    "is_shadow_confederation": false
  },
  {
    "rank": 7,
    "team_name": "鳥取大学",
    "team_short_name": "鳥取",
    "runner_name": "津和野",
    "total_distance_km": 905.5,
    "latitude": 34.17492191934602,
    "longitude": 132.22205040255608,
    "is_shadow_confederation": false
  },
  {
    "rank": 8,
    "team_name": "名古屋大学",
    "team_short_name": "名大",
    "runner_name": "揖斐川",
    "total_distance_km": 900.3,
    "latitude": 34.215892903147484,
    "longitude": 132.22572882985105,
    "is_shadow_confederation": false
  },
  {
    "rank": 9,
    "team_name": "関西大学",
    "team_short_name": "関大",
    "runner_name": "西脇",
    "total_distance_km": 898.8,
    "latitude": 34.22843175914032,
    "longitude": 132.22083875966928,
    "is_shadow_confederation": false
  },
  {
    "rank": 10,
    "team_name": "三重大学",
    "team_short_name": "三重",
    "runner_name": "上野",
    "total_distance_km": 886.8,
    "latitude": 34.305894736382434,
    "longitude": 132.29835862433416,
    "is_shadow_confederation": false
  },
  {
    "rank": 11,
    "team_name": "日本大学",
    "team_short_name": "日大",
    "runner_name": "海老名",
    "total_distance_km": 855.8,
    "latitude": 34.3872310376183,
    "longitude": 132.561732012105,
    "is_shadow_confederation": false
  },
  {
    "rank": 12,
    "team_name": "立命館大学",
    "team_short_name": "立命",
    "runner_name": "園部",
    "total_distance_km": 853.7,
    "latitude": 34.39919107070277,
    "longitude": 132.57870910929876,
    "is_shadow_confederation": false
  },
  {
    "rank": 13,
    "team_name": "上武大学",
    "team_short_name": "上武",
    "runner_name": "館林",
    "total_distance_km": 851.5,
    "latitude": 34.41595983361002,
    "longitude": 132.58782009762612,
    "is_shadow_confederation": false
  },
  {
    "rank": 14,
    "team_name": "金沢大学",
    "team_short_name": "金沢",
    "runner_name": "小松",
    "total_distance_km": 845.2,
    "latitude": 34.434212774342704,
    "longitude": 132.64390008574213,
    "is_shadow_confederation": false
  },
  {
    "rank": 15,
    "team_name": "山梨学院大学",
    "team_short_name": "山学",
    "runner_name": "上田",
    "total_distance_km": 828.0,
    "latitude": 34.39986760555676,
    "longitude": 132.7981456485732,
    "is_shadow_confederation": false
  },
  {
    "rank": 16,
    "team_name": "学連選抜",
    "team_short_name": "学連",
    "runner_name": "飯塚",
    "total_distance_km": 816.2,
    "latitude": 34.39485958597803,
    "longitude": 132.90957484900542,
    "is_shadow_confederation": false
  },
  {
    "rank": 17,
    "team_name": "福島大学",
    "team_short_name": "福島",
    "runner_name": "喜多方",
    "total_distance_km": 750.5,
    "latitude": 34.50178322205574,
    "longitude": 133.50549851773738,
    "is_shadow_confederation": false
  },
  {
    "rank": 18,
    "team_name": "東北大学",
    "team_short_name": "東北",
    "runner_name": "秋田",
    "total_distance_km": 654.5,
    "latitude": 34.8286267213337,
    "longitude": 134.38862868358024,
    "is_shadow_confederation": false
  }
]