[
  {
    "rank": 1,
    "team_name": "琉球大学",
    "team_short_name": "琉球",
    "runner_name": "那覇",
    "total_distance_km": 721.3,
    "latitude": 34.60832769583003,
    "longitude": 133.77708555075012,
    "is_shadow_confederation": false
  },
  {
    "rank": 2,
    "team_name": "熊本学園大学",
    "team_short_name": "熊学",
    "runner_name": "犬飼",
    "total_distance_km": 668.2,
    "latitude": 34.801130478155564,
    "longitude": 134.27281829445008,
    "is_shadow_confederation": false
  },
  {
    "rank": 3,
    "team_name": "福岡大学",
    "team_short_name": "福岡",
    "runner_name": "博多",
    "total_distance_km": 661.4,
    "latitude": 34.84279578805911,
    "longitude": 134.32099338697475,
    "is_shadow_confederation": false
  },
  {
    "rank": 4,
    "team_name": "鹿児島大学",
    "team_short_name": "鹿大",
    "runner_name": "笠利",
    "total_distance_km": 655.5,
    "latitude": 34.82686301395813,
    "longitude": 134.37801868386816,
    "is_shadow_confederation": false
  },
  {
    "rank": 5,
    "team_name": "名古屋大学",
    "team_short_name": "名大",
    "runner_name": "豊田（愛知）",
    "total_distance_km": 653.1,
    "latitude": 34.830099633483314,
    "longitude": 134.40362090354762,
    "is_shadow_confederation": false
  },
  {
    "rank": 6,
    "team_name": "関西大学",
    "team_short_name": "関大",
    "runner_name": "豊中",
    "total_distance_km": 648.6,
    "latitude": 34.82678957982295,
    "longitude": 134.45016381331604,
    "is_shadow_confederation": false
  },
  {
    "rank": 7,
    "team_name": "四国大学",
    "team_short_name": "四国",
    "runner_name": "徳島",
    "total_distance_km": 646.1,
    "latitude": 34.81847230479815,
    "longitude": 134.4730783471215,
    "is_shadow_confederation": false
  },
  {
    "rank": 8,
    "team_name": "鳥取大学",
    "team_short_name": "鳥取",
    "runner_name": "松江",
    "total_distance_km": 645.8,
    "latitude": 34.81829036283201,
    "longitude": 134.47634998777988,
    "is_shadow_confederation": false
  },
  {
    "rank": 9,
    "team_name": "広島経済大学",
    "team_short_name": "広経",
    "runner_name": "高松（香川）",
    "total_distance_km": 644.8,
    "latitude": 34.819706074129904,
    "longitude": 134.48708812835093,
    "is_shadow_confederation": false
  },
  {
    "rank": 10,
    "team_name": "立命館大学",
    "team_short_name": "立命",
    "runner_name": "彦根",
    "total_distance_km": 643.8,
    "latitude": 34.822204197034,
    "longitude": 134.49751540395107,
    "is_shadow_confederation": false
  },
  {
    "rank": 11,
    "team_name": "山梨学院大学",
    "team_short_name": "山学",
    "runner_name": "静岡",
    "total_distance_km": 637.3,
    "latitude": 34.83340950695929,
    "longitude": 134.5660933829569,
    "is_shadow_confederation": false
  },
  {
    "rank": 12,
    "team_name": "上武大学",
    "team_short_name": "上武",
    "runner_name": "伊勢崎",
    "total_distance_km": 634.6,
    "latitude": 34.833078991458834,
    "longitude": 134.59541831610505,
    "is_shadow_confederation": false
  },
  {
    "rank": 13,
    "team_name": "三重大学",
    "team_short_name": "三重",
    "runner_name": "新宮",
    "total_distance_km": 634.5,
    "latitude": 34.83288356931341,
    "longitude": 134.59648553165368,
    "is_shadow_confederation": false
  },
  {
    "rank": 14,
    "team_name": "金沢大学",
    "team_short_name": "金沢",
    "runner_name": "富山",
    "total_distance_km": 626.1,
    "latitude": 34.837541805581736,
    "longitude": 134.67211591680854,
    "is_shadow_confederation": false
  },
  {
    "rank": 15,
    "team_name": "日本大学",
    "team_short_name": "日大",
    "runner_name": "八王子",
    "total_distance_km": 604.7,
    "latitude": 34.74303446262772,
    "longitude": 134.86693410398297,
    "is_shadow_confederation": false
  },
  {
    "rank": 16,
    "team_name": "福島大学",
    "team_short_name": "福島",
    "runner_name": "浪江",
    "total_distance_km": 574.5,
    "latitude": 34.65377902050184,
    "longitude": 135.130915854097,
    "is_shadow_confederation": false
  },
  {
    "rank": 17,
    "team_name": "学連選抜",
    "team_short_name": "学連",
    "runner_name": "多度津",
    "total_distance_km": 573.7,
    "latitude": 34.65810858938219,
    "longitude": 135.13789500147175,
    "is_shadow_confederation": false
  },
  {
    "rank": 18,
    "team_name": "東北大学",
    "team_short_name": "東北",
    "runner_name": "丸森",
    "total_distance_km": 566.7,
    "latitude": 34.694787677951744,
    "longitude": 135.19827968629073,
    "is_shadow_confederation": false
  }
]