[
  {
    "rank": 1,
    "team_name": "琉球大学",
    "team_short_name": "琉球",
    "runner_name": "名護",
    "total_distance_km": 388.2,
    "latitude": 34.965842424306565,
    "longitude": 136.62248054828117,
    "is_shadow_confederation": false
  },
  {
    "rank": 2,
    "team_name": "熊本学園大学",
    "team_short_name": "熊学",
    "runner_name": "人吉",
    "total_distance_km": 376.7,
    "latitude": 35.0516010262298,
    "longitude": 136.68116989280784,
    "is_shadow_confederation": false
  },
  {
    "rank": 3,
    "team_name": "福岡大学",
    "team_short_name": "福岡",
    "runner_name": "朝倉",
    "total_distance_km": 373.3,
    "latitude": 35.079609063787075,
    "longitude": 136.68856657264232,
    "is_shadow_confederation": false
  },
  {
    "rank": 4,
    "team_name": "立命館大学",
    "team_short_name": "立命",
    "runner_name": "米原",
    "total_distance_km": 367.4,
    "latitude": 35.1133387346524,
    "longitude": 136.7328913332919,
    "is_shadow_confederation": false
  },
  {
    "rank": 5,
    "team_name": "四国大学",
    "team_short_name": "四国",
    "runner_name": "松山",
    "total_distance_km": 362.5,
    "latitude": 35.12444681051367,
    "longitude": 136.78484699624155,
    "is_shadow_confederation": false
  },
  {
    "rank": 6,
    "team_name": "鳥取大学",
    "team_short_name": "鳥取",
    "runner_name": "防府",
    "total_distance_km": 361.5,
    "latitude": 35.12521642527598,
    "longitude": 136.7957780108524,
    "is_shadow_confederation": false
  },
  {
    "rank": 7,
    "team_name": "広島経済大学",
    "team_short_name": "広経",
    "runner_name": "大竹",
    "total_distance_km": 360.6,
    "latitude": 35.12590907856207,
    "longitude": 136.80561592400215,
    "is_shadow_confederation": false
  },
  {
    "rank": 8,
    "team_name": "関西大学",
    "team_short_name": "関大",
    "runner_name": "柏原",
    "total_distance_km": 360.2,
    "latitude": 35.126216924466995,
    "longitude": 136.80998832984648,
    "is_shadow_confederation": false
  },
  {
    "rank": 9,
    "team_name": "名古屋大学",
    "team_short_name": "名大",
    "runner_name": "愛西",
    "total_distance_km": 359.4,
    "latitude": 35.1263288248122,
    "longitude": 136.81875498464498,
    "is_shadow_confederation": false
  },
  {
    "rank": 10,
    "team_name": "鹿児島大学",
    "team_short_name": "鹿大",
    "runner_name": "西米良",
    "total_distance_km": 356.6,
    "latitude": 35.12416576320523,
    "longitude": 136.84898514665502,
    "is_shadow_confederation": false
  },
  {
    "rank": 11,
    "team_name": "山梨学院大学",
    "team_short_name": "山学",
    "runner_name": "浜松",
    "total_distance_km": 351.9,
    "latitude": 35.12393605314836,
    "longitude": 136.90028942292219,
    "is_shadow_confederation": false
  },
  {
    "rank": 12,
    "team_name": "三重大学",
    "team_short_name": "三重",
    "runner_name": "風屋",
    "total_distance_km": 350.3,
    "latitude": 35.11733979297619,
    "longitude": 136.91512312018324,
    "is_shadow_confederation": false
  },
  {
    "rank": 12,
    "team_name": "上武大学",
    "team_short_name": "上武",
    "runner_name": "寄居",
    "total_distance_km": 350.3,
    "latitude": 35.11733979297619,
    "longitude": 136.91512312018324,
    "is_shadow_confederation": false
  },
  {
    "rank": 14,
    "team_name": "金沢大学",
    "team_short_name": "金沢",
    "runner_name": "志賀",
    "total_distance_km": 349.0,
    "latitude": 35.10945134523866,
    "longitude": 136.9228652653446,
    "is_shadow_confederation": false
  },
  {
    "rank": 15,
    "team_name": "日本大学",
    "team_short_name": "日大",
    "runner_name": "小田原",
    "total_distance_km": 343.6,
    "latitude": 35.0717693984666,
    "longitude": 136.95587260120246,
    "is_shadow_confederation": false
  },
  {
    "rank": 16,
    "team_name": "福島大学",
    "team_short_name": "福島",
    "runner_name": "津川",
    "total_distance_km": 318.7,
    "latitude": 34.95198711548558,
    "longitude": 137.17818171253901,
    "is_shadow_confederation": false
  },
  {
    "rank": 17,
    "team_name": "東北大学",
    "team_short_name": "東北",
    "runner_name": "高畠",
    "total_distance_km": 304.6,
    "latitude": 34.87041572707823,
    "longitude": 137.2876858664225,
    "is_shadow_confederation": false
  },
  {
    "rank": 18,
    "team_name": "学連選抜",
    "team_short_name": "学連",
    "runner_name": "大村",
    "total_distance_km": 297.1,
    "latitude": 34.82318631572865,
    "longitude": 137.34311897100704,
    "is_shadow_confederation": false
  }
]