[
  {
    "rank": 1,
    "team_name": "琉球大学",
    "team_short_name": "琉球",
    "runner_name": "盛山",
    "total_distance_km": 244.9,
    "latitude": 34.725869743310916,
    "longitude": 137.78702779382564,
    "current_leg": 3,
    "is_shadow_confederation": false
  },
  {
    "rank": 2,
    "team_name": "名古屋大学",
    "team_short_name": "名大",
    "runner_name": "美濃",
    "total_distance_km": 223.9,
    "latitude": 34.775552347821105,
    "longitude": 137.99487781406097,
    "current_leg": 3,
    "is_shadow_confederation": false
  },
  {
    "rank": 3,
    "team_name": "鹿児島大学",
    "team_short_name": "鹿大",
    "runner_name": "川内（鹿児島）",
    "total_distance_km": 213.5,
    "latitude": 34.81294189677938,
    "longitude": 138.0839198587432,
    "current_leg": 3,
    "is_shadow_confederation": false
  },
  {
    "rank": 4,
    "team_name": "金沢大学",
    "team_short_name": "金沢",
    "runner_name": "小浜",
    "total_distance_km": 212.7,
    "latitude": 34.818148999519124,
    "longitude": 138.08965817644642,
    "current_leg": 3,
    "is_shadow_confederation": false
  },
  {
    "rank": 4,
    "team_name": "熊本学園大学",
    "team_short_name": "熊学",
    "runner_name": "岱明",
    "total_distance_km": 212.7,
    "latitude": 34.818148999519124,
    "longitude": 138.08965817644642,
    "current_leg": 3,
    "is_shadow_confederation": false
  },
  {
    "rank": 6,
    "team_name": "福岡大学",
    "team_short_name": "福岡",
    "runner_name": "福岡",
    "total_distance_km": 212.2,
    "latitude": 34.820316714315375,
    "longitude": 138.09432745789988,
    "current_leg": 3,
    "is_shadow_confederation": false
  },
  {
    "rank": 7,
    "team_name": "山梨学院大学",
    "team_short_name": "山学",
    "runner_name": "南信濃",
    "total_distance_km": 212.0,
    "latitude": 34.82159132885372,
    "longitude": 138.0958734808967,
    "current_leg": 3,
    "is_shadow_confederation": false
  },
  {
    "rank": 8,
    "team_name": "立命館大学",
    "team_short_name": "立命",
    "runner_name": "福知山",
    "total_distance_km": 211.5,
    "latitude": 34.82110409051318,
    "longitude": 138.1007366857873,
    "current_leg": 3,
    "is_shadow_confederation": false
  },
  {
    "rank": 9,
    "team_name": "日本大学",
    "team_short_name": "日大",
    "runner_name": "古河",
    "total_distance_km": 210.9,
    "latitude": 34.82093285826898,
    "longitude": 138.10726708241873,
    "current_leg": 3,
    "is_shadow_confederation": false
  },
  {
    "rank": 10,
    "team_name": "上武大学",
    "team_short_name": "上武",
    "runner_name": "越谷",
    "total_distance_km": 210.3,
    "latitude": 34.81876174439169,
    "longitude": 138.11317170340465,
    "current_leg": 3,
    "is_shadow_confederation": false
  },
  {
    "rank": 11,
    "team_name": "三重大学",
    "team_short_name": "三重",
    "runner_name": "五條",
    "total_distance_km": 209.1,
    "latitude": 34.82576549591773,
    "longitude": 138.1209109638614,
    "current_leg": 2,
    "is_shadow_confederation": false
  },
  {
    "rank": 12,
    "team_name": "鳥取大学",
    "team_short_name": "鳥取",
    "runner_name": "鳥取",
    "total_distance_km": 208.6,
    "latitude": 34.83004321947858,
    "longitude": 138.11926179694672,
    "current_leg": 2,
    "is_shadow_confederation": false
  },
  {
    "rank": 13,
    "team_name": "関西大学",
    "team_short_name": "関大",
    "runner_name": "和田山",
    "total_distance_km": 204.8,
    "latitude": 34.84317707441907,
    "longitude": 138.14772748247438,
    "current_leg": 2,
    "is_shadow_confederation": false
  },
  {
    "rank": 14,
    "team_name": "四国大学",
    "team_short_name": "四国",
    "runner_name": "大三島",
    "total_distance_km": 201.9,
    "latitude": 34.84857671361402,
    "longitude": 138.17817956248194,
    "current_leg": 2,
    "is_shadow_confederation": false
  },
  {
    "rank": 15,
    "team_name": "広島経済大学",
    "team_short_name": "広経",
    "runner_name": "加計",
    "total_distance_km": 195.5,
    "latitude": 34.87700829231122,
    "longitude": 138.23326717352242,
    "current_leg": 2,
    "is_shadow_confederation": false
  },
  {
    "rank": 16,
    "team_name": "福島大学",
    "team_short_name": "福島",
    "runner_name": "石川",
    "total_distance_km": 183.0,
    "latitude": 34.94466024227331,
    "longitude": 138.32949106261967,
    "current_leg": 2,
    "is_shadow_confederation": false
  },
  {
    "rank": 17,
    "team_name": "東北大学",
    "team_short_name": "東北",
    "runner_name": "山形（山形）",
    "total_distance_km": 181.9,
    "latitude": 34.95105657677281,
    "longitude": 138.3364564016427,
    "current_leg": 2,
    "is_shadow_confederation": false
  },
  {
    "rank": 18,
    "team_name": "学連選抜",
    "team_short_name": "学連",
    "runner_name": "新潟",
    "total_distance_km": 176.8,
    "latitude": 34.967545999700405,
    "longitude": 138.3817073107881,
    "current_leg": 2,
    "is_shadow_confederation": false
  },
  {
    "rank": null,
    "team_name": "区間記録連合",
    "team_short_name": "区間記録",
    "runner_name": "伊勢崎",
    "total_distance_km": 249.1,
    "latitude": 34.70858791386677,
    "longitude": 137.74669134618335,
    "current_leg": 3,
    "is_shadow_confederation": true
  }
]