[
  {
    "rank": 1,
    "team_name": "琉球大学",
    "team_short_name": "琉球",
    "runner_name": "ゴール",
    "total_distance_km": 1082.6,
    "latitude": 33.950916,
    "longitude": 130.924104,
    "is_shadow_confederation": false
  },
  {
    "rank": 2,
    "team_name": "鹿児島大学",
    "team_short_name": "鹿大",
    "runner_name": "ゴール",
    "total_distance_km": 1062.6,
    "latitude": 33.950916,
    "longitude": 130.924104,
    "is_shadow_confederation": false
  },
  {
    "rank": 3,
    "team_name": "熊本学園大学",
    "team_short_name": "熊学",
    "runner_name": "日田",
    "total_distance_km": 1055.6,
    "latitude": 33.952056066892375,
    "longitude": 130.9387977096387,
    "is_shadow_confederation": false
  },
  {
    "rank": 4,
    "team_name": "福岡大学",
    "team_short_name": "福岡",
    "runner_name": "太宰府",
    "total_distance_km": 1029.8,
    "latitude": 34.04406482880946,
    "longitude": 131.11190355747297,
    "is_shadow_confederation": false
  },
  {
    "rank": 5,
    "team_name": "名古屋大学",
    "team_short_name": "名大",
    "runner_name": "岐阜",
    "total_distance_km": 1001.3,
    "latitude": 34.07110212022202,
    "longitude": 131.37282868946573,
    "is_shadow_confederation": false
  },
  {
    "rank": 6,
    "team_name": "日本大学",
    "team_short_name": "日大",
    "runner_name": "青梅",
    "total_distance_km": 977.3,
    "latitude": 34.055578581936494,
    "longitude": 131.5898242291286,
    "is_shadow_confederation": false
  },
  {
    "rank": 7,
    "team_name": "上武大学",
    "team_short_name": "上武",
    "runner_name": "鳩山",
    "total_distance_km": 969.3,
    "latitude": 34.0614735783886,
    "longitude": 131.6591400295637,
    "is_shadow_confederation": false
  },
  {
    "rank": 8,
    "team_name": "四国大学",
    "team_short_name": "四国",
    "runner_name": "中村",
    "total_distance_km": 968.7,
    "latitude": 34.065867566590086,
    "longitude": 131.66279793858388,
    "is_shadow_confederation": false
  },
  {
    "rank": 9,
    "team_name": "関西大学",
    "team_short_name": "関大",
    "runner_name": "西脇",
    "total_distance_km": 952.8,
    "latitude": 34.054095791601846,
    "longitude": 131.80663687718635,
    "is_shadow_confederation": false
  },
  {
    "rank": 10,
    "team_name": "広島経済大学",
    "team_short_name": "広経",
    "runner_name": "滝宮",
    "total_distance_km": 940.9,
    "latitude": 34.03094683817394,
    "longitude": 131.91867448064946,
    "is_shadow_confederation": false
  },
  {
    "rank": 11,
    "team_name": "三重大学",
    "team_short_name": "三重",
    "runner_name": "上野",
    "total_distance_km": 930.3,
    "latitude": 34.08644526359786,
    "longitude": 132.0007172122603,
    "is_shadow_confederation": false
  },
  {
    "rank": 12,
    "team_name": "山梨学院大学",
    "team_short_name": "山学",
    "runner_name": "佐久間",
    "total_distance_km": 930.1,
    "latitude": 34.08762519583823,
    "longitude": 132.00235583797183,
    "is_shadow_confederation": false
  },
  {
    "rank": 13,
    "team_name": "鳥取大学",
    "team_short_name": "鳥取",
    "runner_name": "津和野",
    "total_distance_km": 921.1,
    "latitude": 34.10143989953206,
    "longitude": 132.09450527261257,
    "is_shadow_confederation": false
  },
  {
    "rank": 14,
    "team_name": "立命館大学",
    "team_short_name": "立命",
    "runner_name": "園部",
    "total_distance_km": 903.7,
    "latitude": 34.186488556362896,
    "longitude": 132.2303184218836,
    "is_shadow_confederation": false
  },
  {
    "rank": 15,
    "team_name": "福島大学",
    "team_short_name": "福島",
    "runner_name": "喜多方",
    "total_distance_km": 836.4,
    "latitude": 34.422831435089456,
    "longitude": 132.71707148941678,
    "is_shadow_confederation": false
  },
  {
    "rank": 16,
    "team_name": "金沢大学",
    "team_short_name": "金沢",
    "runner_name": "小松",
    "total_distance_km": 829.3,
    "latitude": 34.40016331058051,
    "longitude": 132.78411732375804,
    "is_shadow_confederation": false
  },
  {
    "rank": 17,
    "team_name": "東北大学",
    "team_short_name": "東北",
    "runner_name": "秋田",
    "total_distance_km": 740.1,
    "latitude": 34.53454649477501,
    "longitude": 133.60515428218497,
    "is_shadow_confederation": false
  },
  {
    "rank": 18,
    "team_name": "学連選抜",
    "team_short_name": "学連",
    "runner_name": "加世田",
    "total_distance_km": 688.1,
    "latitude": 34.71364140504811,
    "longitude": 134.0950051510069,
    "is_shadow_confederation": false
  },
  {
    "rank": null,
    "team_name": "区間記録連合",
    "team_short_name": "区間記録",
    "runner_name": "ゴール",
    "total_distance_km": 1082.6,
    "latitude": 33.950916,
    "longitude": 130.924104,
    "is_shadow_confederation": true
  }
]