[
  {
    "rank": 1,
    "team_name": "琉球大学",
    "team_short_name": "琉球",
    "runner_name": "那覇",
    "total_distance_km": 668.0,
    "latitude": 34.802364795046984,
    "longitude": 134.27441126326812,
    "is_shadow_confederation": false
  },
  {
    "rank": 2,
    "team_name": "鹿児島大学",
    "team_short_name": "鹿大",
    "runner_name": "笠利",
    "total_distance_km": 574.9,
    "latitude": 34.651614236061654,
    "longitude": 135.12742628040962,
    "is_shadow_confederation": false
  },
  {
    "rank": 3,
    "team_name": "熊本学園大学",
    "team_short_name": "熊学",
    "runner_name": "大分",
    "total_distance_km": 574.7,
    "latitude": 34.652696628281745,
    "longitude": 135.1291710672533,
    "is_shadow_confederation": false
  },
  {
    "rank": 4,
    "team_name": "福岡大学",
    "team_short_name": "福岡",
    "runner_name": "博多",
    "total_distance_km": 544.5,
    "latitude": 34.719499806916964,
    "longitude": 135.42497881326113,
    "is_shadow_confederation": false
  },
  {
    "rank": 5,
    "team_name": "四国大学",
    "team_short_name": "四国",
    "runner_name": "大洲",
    "total_distance_km": 523.7,
    "latitude": 34.76107435611091,
    "longitude": 135.59113877915019,
    "is_shadow_confederation": false
  },
  {
    "rank": 6,
    "team_name": "広島経済大学",
    "team_short_name": "広経",
    "runner_name": "高梁",
    "total_distance_km": 503.9,
    "latitude": 34.882335031784024,
    "longitude": 135.7382599773255,
    "is_shadow_confederation": false
  },
  {
    "rank": 7,
    "team_name": "名古屋大学",
    "team_short_name": "名大",
    "runner_name": "多治見",
    "total_distance_km": 494.5,
    "latitude": 34.96580291323488,
    "longitude": 135.7458109095227,
    "is_shadow_confederation": false
  },
  {
    "rank": 8,
    "team_name": "鳥取大学",
    "team_short_name": "鳥取",
    "runner_name": "境",
    "total_distance_km": 493.6,
    "latitude": 34.973912184847244,
    "longitude": 135.74608841087854,
    "is_shadow_confederation": false
  },
  {
    "rank": 9,
    "team_name": "関西大学",
    "team_short_name": "関大",
    "runner_name": "枚方",
    "total_distance_km": 488.5,
    "latitude": 35.001746121579366,
    "longitude": 135.76885359726646,
    "is_shadow_confederation": false
  },
  {
    "rank": 10,
    "team_name": "立命館大学",
    "team_short_name": "立命",
    "runner_name": "舞鶴",
    "total_distance_km": 481.0,
    "latitude": 34.99062866716258,
    "longitude": 135.8292585239177,
    "is_shadow_confederation": false
  },
  {
    "rank": 11,
    "team_name": "三重大学",
    "team_short_name": "三重",
    "runner_name": "奈良",
    "total_distance_km": 474.8,
    "latitude": 34.994522490350576,
    "longitude": 135.88404483525665,
    "is_shadow_confederation": false
  },
  {
    "rank": 12,
    "team_name": "日本大学",
    "team_short_name": "日大",
    "runner_name": "牛久",
    "total_distance_km": 466.2,
    "latitude": 35.006221390040444,
    "longitude": 135.9541526518747,
    "is_shadow_confederation": false
  },
  {
    "rank": 13,
    "team_name": "上武大学",
    "team_short_name": "上武",
    "runner_name": "桐生",
    "total_distance_km": 461.3,
    "latitude": 35.02846522577989,
    "longitude": 135.99858079373095,
    "is_shadow_confederation": false
  },
  {
    "rank": 14,
    "team_name": "金沢大学",
    "team_short_name": "金沢",
    "runner_name": "福井",
    "total_distance_km": 458.2,
    "latitude": 35.02795974954657,
    "longitude": 136.03114555878798,
    "is_shadow_confederation": false
  },
  {
    "rank": 15,
    "team_name": "山梨学院大学",
    "team_short_name": "山学",
    "runner_name": "甲府",
    "total_distance_km": 439.3,
    "latitude": 34.95666531448691,
    "longitude": 136.2116529824883,
    "is_shadow_confederation": false
  },
  {
    "rank": 16,
    "team_name": "福島大学",
    "team_short_name": "福島",
    "runner_name": "長岡",
    "total_distance_km": 403.0,
    "latitude": 34.878478417794604,
    "longitude": 136.51857004330725,
    "is_shadow_confederation": false
  },
  {
    "rank": 17,
    "team_name": "学連選抜",
    "team_short_name": "学連",
    "runner_name": "上",
    "total_distance_km": 394.7,
    "latitude": 34.920388741365066,
    "longitude": 136.58049071953272,
    "is_shadow_confederation": false
  },
  {
    "rank": 18,
    "team_name": "東北大学",
    "team_short_name": "東北",
    "runner_name": "大館",
    "total_distance_km": 336.9,
    "latitude": 35.03717367679408,
    "longitude": 137.0129340860921,
    "is_shadow_confederation": false
  }
]