[
  {
    "rank": 1,
    "team_name": "琉球大学",
    "team_short_name": "琉球",
    "runner_name": "名護",
    "total_distance_km": 387.3,
    "latitude": 34.97360005310402,
    "longitude": 136.62512314158883,
    "is_shadow_confederation": false
  },
  {
    "rank": 2,
    "team_name": "熊本学園大学",
    "team_short_name": "熊学",
    "runner_name": "人吉",
    "total_distance_km": 376.7,
    "latitude": 35.0516010262298,
    "longitude": 136.68116989280784,
    "is_shadow_confederation": false
  },
  {
    "rank": 3,
    "team_name": "福岡大学",
    "team_short_name": "福岡",
    "runner_name": "朝倉",
    "total_distance_km": 367.7,
    "latitude": 35.1125870514096,
    "longitude": 136.72973015982885,
    "is_shadow_confederation": false
  },
  {
    "rank": 4,
    "team_name": "立命館大学",
    "team_short_name": "立命",
    "runner_name": "米原",
    "total_distance_km": 364.4,
    "latitude": 35.12077243382409,
    "longitude": 136.7645330656597,
    "is_shadow_confederation": false
  },
  {
    "rank": 5,
    "team_name": "四国大学",
    "team_short_name": "四国",
    "runner_name": "松山",
    "total_distance_km": 359.6,
    "latitude": 35.12635498114107,
    "longitude": 136.8165609739456,
    "is_shadow_confederation": false
  },
  {
    "rank": 6,
    "team_name": "鳥取大学",
    "team_short_name": "鳥取",
    "runner_name": "防府",
    "total_distance_km": 359.5,
    "latitude": 35.126341902976634,
    "longitude": 136.8176579792953,
    "is_shadow_confederation": false
  },
  {
    "rank": 7,
    "team_name": "広島経済大学",
    "team_short_name": "広経",
    "runner_name": "大竹",
    "total_distance_km": 357.8,
    "latitude": 35.124186277309704,
    "longitude": 136.83582006469885,
    "is_shadow_confederation": false
  },
  {
    "rank": 8,
    "team_name": "名古屋大学",
    "team_short_name": "名大",
    "runner_name": "愛西",
    "total_distance_km": 357.0,
    "latitude": 35.124172601240055,
    "longitude": 136.84459678600297,
    "is_shadow_confederation": false
  },
  {
    "rank": 9,
    "team_name": "鹿児島大学",
    "team_short_name": "鹿大",
    "runner_name": "西米良",
    "total_distance_km": 356.6,
    "latitude": 35.12416576320523,
    "longitude": 136.84898514665502,
    "is_shadow_confederation": false
  },
  {
    "rank": 10,
    "team_name": "関西大学",
    "team_short_name": "関大",
    "runner_name": "柏原",
    "total_distance_km": 355.4,
    "latitude": 35.12451544475674,
    "longitude": 136.86213766013006,
    "is_shadow_confederation": false
  },
  {
    "rank": 11,
    "team_name": "山梨学院大学",
    "team_short_name": "山学",
    "runner_name": "浜松",
    "total_distance_km": 350.6,
    "latitude": 35.11905848817107,
    "longitude": 136.91271197751146,
    "is_shadow_confederation": false
  },
  {
    "rank": 12,
    "team_name": "金沢大学",
    "team_short_name": "金沢",
    "runner_name": "志賀",
    "total_distance_km": 348.8,
    "latitude": 35.10766180112259,
    "longitude": 136.92313016090608,
    "is_shadow_confederation": false
  },
  {
    "rank": 13,
    "team_name": "三重大学",
    "team_short_name": "三重",
    "runner_name": "風屋",
    "total_distance_km": 348.2,
    "latitude": 35.102496236131444,
    "longitude": 136.9248138860674,
    "is_shadow_confederation": false
  },
  {
    "rank": 14,
    "team_name": "上武大学",
    "team_short_name": "上武",
    "runner_name": "寄居",
    "total_distance_km": 346.3,
    "latitude": 35.08686615546198,
    "longitude": 136.93333089477315,
    "is_shadow_confederation": false
  },
  {
    "rank": 15,
    "team_name": "日本大学",
    "team_short_name": "日大",
    "runner_name": "小田原",
    "total_distance_km": 341.5,
    "latitude": 35.062831934547816,
    "longitude": 136.97596416830564,
    "is_shadow_confederation": false
  },
  {
    "rank": 16,
    "team_name": "福島大学",
    "team_short_name": "福島",
    "runner_name": "津川",
    "total_distance_km": 313.1,
    "latitude": 34.91516005618256,
    "longitude": 137.2166312217025,
    "is_shadow_confederation": false
  },
  {
    "rank": 17,
    "team_name": "東北大学",
    "team_short_name": "東北",
    "runner_name": "高畠",
    "total_distance_km": 300.8,
    "latitude": 34.84879200174463,
    "longitude": 137.31874399578652,
    "is_shadow_confederation": false
  },
  {
    "rank": 18,
    "team_name": "学連選抜",
    "team_short_name": "学連",
    "runner_name": "大村",
    "total_distance_km": 294.2,
    "latitude": 34.80261504724031,
    "longitude": 137.36263726897795,
    "is_shadow_confederation": false
  }
]