[
  {
    "rank": 1,
    "team_name": "琉球大学",
    "team_short_name": "琉球",
    "runner_name": "波照間",
    "total_distance_km": 485.3,
    "latitude": 35.00459117479634,
    "longitude": 135.79098516961793,
    "is_shadow_confederation": false
  },
  {
    "rank": 2,
    "team_name": "熊本学園大学",
    "team_short_name": "熊学",
    "runner_name": "熊本",
    "total_distance_km": 472.1,
    "latitude": 34.97785891658226,
    "longitude": 135.90250894524974,
    "is_shadow_confederation": false
  },
  {
    "rank": 3,
    "team_name": "福岡大学",
    "team_short_name": "福岡",
    "runner_name": "前原",
    "total_distance_km": 456.0,
    "latitude": 35.01997775877562,
    "longitude": 136.05320072419883,
    "is_shadow_confederation": false
  },
  {
    "rank": 4,
    "team_name": "鹿児島大学",
    "team_short_name": "鹿大",
    "runner_name": "西都",
    "total_distance_km": 449.6,
    "latitude": 34.9867434439819,
    "longitude": 136.11042922332368,
    "is_shadow_confederation": false
  },
  {
    "rank": 5,
    "team_name": "立命館大学",
    "team_short_name": "立命",
    "runner_name": "舞鶴",
    "total_distance_km": 448.6,
    "latitude": 34.98572457823935,
    "longitude": 136.11981443300243,
    "is_shadow_confederation": false
  },
  {
    "rank": 6,
    "team_name": "名古屋大学",
    "team_short_name": "名大",
    "runner_name": "多治見",
    "total_distance_km": 446.5,
    "latitude": 34.983322945953745,
    "longitude": 136.14221794890824,
    "is_shadow_confederation": false
  },
  {
    "rank": 7,
    "team_name": "関西大学",
    "team_short_name": "関大",
    "runner_name": "枚方",
    "total_distance_km": 445.5,
    "latitude": 34.98104817956371,
    "longitude": 136.15280969538875,
    "is_shadow_confederation": false
  },
  {
    "rank": 8,
    "team_name": "四国大学",
    "team_short_name": "四国",
    "runner_name": "大洲",
    "total_distance_km": 444.6,
    "latitude": 34.978645448330155,
    "longitude": 136.1622235969349,
    "is_shadow_confederation": false
  },
  {
    "rank": 9,
    "team_name": "広島経済大学",
    "team_short_name": "広経",
    "runner_name": "高梁",
    "total_distance_km": 444.2,
    "latitude": 34.97754550506982,
    "longitude": 136.16639536241416,
    "is_shadow_confederation": false
  },
  {
    "rank": 10,
    "team_name": "鳥取大学",
    "team_short_name": "鳥取",
    "runner_name": "境",
    "total_distance_km": 439.9,
    "latitude": 34.958079250236956,
    "longitude": 136.205330936098,
    "is_shadow_confederation": false
  },
  {
    "rank": 11,
    "team_name": "上武大学",
    "team_short_name": "上武",
    "runner_name": "桐生",
    "total_distance_km": 436.6,
    "latitude": 34.9463936352987,
    "longitude": 136.2380130080841,
    "is_shadow_confederation": false
  },
  {
    "rank": 12,
    "team_name": "三重大学",
    "team_short_name": "三重",
    "runner_name": "奈良",
    "total_distance_km": 434.0,
    "latitude": 34.93823546734179,
    "longitude": 136.26434756946315,
    "is_shadow_confederation": false
  },
  {
    "rank": 12,
    "team_name": "山梨学院大学",
    "team_short_name": "山学",
    "runner_name": "甲府",
    "total_distance_km": 434.0,
    "latitude": 34.93823546734179,
    "longitude": 136.26434756946315,
    "is_shadow_confederation": false
  },
  {
    "rank": 14,
    "team_name": "金沢大学",
    "team_short_name": "金沢",
    "runner_name": "福井",
    "total_distance_km": 431.8,
    "latitude": 34.934941903408514,
    "longitude": 136.2873326556459,
    "is_shadow_confederation": false
  },
  {
    "rank": 15,
    "team_name": "日本大学",
    "team_short_name": "日大",
    "runner_name": "牛久",
    "total_distance_km": 427.7,
    "latitude": 34.912407308201054,
    "longitude": 136.32159914152012,
    "is_shadow_confederation": false
  },
  {
    "rank": 16,
    "team_name": "福島大学",
    "team_short_name": "福島",
    "runner_name": "長岡",
    "total_distance_km": 407.7,
    "latitude": 34.85654311305272,
    "longitude": 136.48061246007637,
    "is_shadow_confederation": false
  },
  {
    "rank": 17,
    "team_name": "東北大学",
    "team_short_name": "東北",
    "runner_name": "大館",
    "total_distance_km": 395.5,
    "latitude": 34.9153678238112,
    "longitude": 136.57476781605226,
    "is_shadow_confederation": false
  },
  {
    "rank": 18,
    "team_name": "学連選抜",
    "team_short_name": "学連",
    "runner_name": "上",
    "total_distance_km": 383.7,
    "latitude": 34.998863467925695,
    "longitude": 136.64888616372167,
    "is_shadow_confederation": false
  }
]