[
  {
    "rank": 1,
    "team_name": "琉球大学",
    "team_short_name": "琉球",
    "runner_name": "石垣島",
    "total_distance_km": 1004.5,
    "latitude": 34.055340798399754,
    "longitude": 131.3461691247571,
    "is_shadow_confederation": false
  },
  {
    "rank": 2,
    "team_name": "鹿児島大学",
    "team_short_name": "鹿大",
    "runner_name": "さつま柏原",
    "total_distance_km": 837.4,
    "latitude": 34.42791042659583,
    "longitude": 132.70808390063183,
    "is_shadow_confederation": false
  },
  {
    "rank": 3,
    "team_name": "熊本学園大学",
    "team_short_name": "熊学",
    "runner_name": "三角",
    "total_distance_km": 808.5,
    "latitude": 34.40529598326297,
    "longitude": 132.97889628943813,
    "is_shadow_confederation": false
  },
  {
    "rank": 4,
    "team_name": "福岡大学",
    "team_short_name": "福岡",
    "runner_name": "大牟田",
    "total_distance_km": 796.3,
    "latitude": 34.39788335530495,
    "longitude": 133.09655040967615,
    "is_shadow_confederation": false
  },
  {
    "rank": 5,
    "team_name": "四国大学",
    "team_short_name": "四国",
    "runner_name": "江川崎",
    "total_distance_km": 752.4,
    "latitude": 34.508755831841185,
    "longitude": 133.4905084706159,
    "is_shadow_confederation": false
  },
  {
    "rank": 6,
    "team_name": "広島経済大学",
    "team_short_name": "広経",
    "runner_name": "福山",
    "total_distance_km": 737.0,
    "latitude": 34.53834027870575,
    "longitude": 133.63823459790436,
    "is_shadow_confederation": false
  },
  {
    "rank": 7,
    "team_name": "鳥取大学",
    "team_short_name": "鳥取",
    "runner_name": "米子",
    "total_distance_km": 720.4,
    "latitude": 34.61395907183047,
    "longitude": 133.7841257679474,
    "is_shadow_confederation": false
  },
  {
    "rank": 8,
    "team_name": "関西大学",
    "team_short_name": "関大",
    "runner_name": "八尾（大阪）",
    "total_distance_km": 718.6,
    "latitude": 34.62537155918251,
    "longitude": 133.79680903181963,
    "is_shadow_confederation": false
  },
  {
    "rank": 9,
    "team_name": "名古屋大学",
    "team_short_name": "名大",
    "runner_name": "名古屋",
    "total_distance_km": 718.1,
    "latitude": 34.62793757592545,
    "longitude": 133.80129180251458,
    "is_shadow_confederation": false
  },
  {
    "rank": 10,
    "team_name": "三重大学",
    "team_short_name": "三重",
    "runner_name": "津",
    "total_distance_km": 707.9,
    "latitude": 34.655224624645754,
    "longitude": 133.90361030248607,
    "is_shadow_confederation": false
  },
  {
    "rank": 11,
    "team_name": "立命館大学",
    "team_short_name": "立命",
    "runner_name": "長浜（滋賀）",
    "total_distance_km": 689.8,
    "latitude": 34.708517845305835,
    "longitude": 134.07934027865306,
    "is_shadow_confederation": false
  },
  {
    "rank": 12,
    "team_name": "上武大学",
    "team_short_name": "上武",
    "runner_name": "小山",
    "total_distance_km": 673.9,
    "latitude": 34.76780483924471,
    "longitude": 134.22948950917075,
    "is_shadow_confederation": false
  },
  {
    "rank": 13,
    "team_name": "金沢大学",
    "team_short_name": "金沢",
    "runner_name": "敦賀",
    "total_distance_km": 669.4,
    "latitude": 34.79405646054148,
    "longitude": 134.26314308931688,
    "is_shadow_confederation": false
  },
  {
    "rank": 14,
    "team_name": "日本大学",
    "team_short_name": "日大",
    "runner_name": "練馬",
    "total_distance_km": 668.5,
    "latitude": 34.79927900281843,
    "longitude": 134.27042884122304,
    "is_shadow_confederation": false
  },
  {
    "rank": 15,
    "team_name": "山梨学院大学",
    "team_short_name": "山学",
    "runner_name": "三島",
    "total_distance_km": 661.0,
    "latitude": 34.84258748285552,
    "longitude": 134.32511725774359,
    "is_shadow_confederation": false
  },
  {
    "rank": 16,
    "team_name": "学連選抜",
    "team_short_name": "学連",
    "runner_name": "多度津",
    "total_distance_km": 619.9,
    "latitude": 34.82037324480529,
    "longitude": 134.736258308107,
    "is_shadow_confederation": false
  },
  {
    "rank": 17,
    "team_name": "福島大学",
    "team_short_name": "福島",
    "runner_name": "浪江",
    "total_distance_km": 592.2,
    "latitude": 34.66545086043925,
    "longitude": 134.96295494834797,
    "is_shadow_confederation": false
  },
  {
    "rank": 18,
    "team_name": "東北大学",
    "team_short_name": "東北",
    "runner_name": "一関",
    "total_distance_km": 503.6,
    "latitude": 34.884618839917,
    "longitude": 135.7400171470766,
    "is_shadow_confederation": false
  }
]