[
  {
    "rank": 1,
    "team_name": "琉球大学",
    "team_short_name": "琉球",
    "runner_name": "北原",
    "total_distance_km": 101.2,
    "latitude": 35.184343054203,
    "longitude": 139.02528665530548,
    "is_shadow_confederation": false
  },
  {
    "rank": 2,
    "team_name": "鹿児島大学",
    "team_short_name": "鹿大",
    "runner_name": "東市来",
    "total_distance_km": 74.0,
    "latitude": 35.29508963760536,
    "longitude": 139.24953128171865,
    "is_shadow_confederation": false
  },
  {
    "rank": 3,
    "team_name": "熊本学園大学",
    "team_short_name": "熊学",
    "runner_name": "甲佐",
    "total_distance_km": 68.0,
    "latitude": 35.30755950606367,
    "longitude": 139.31224843547682,
    "is_shadow_confederation": false
  },
  {
    "rank": 4,
    "team_name": "福岡大学",
    "team_short_name": "福岡",
    "runner_name": "久留米",
    "total_distance_km": 66.1,
    "latitude": 35.3135339296417,
    "longitude": 139.329445607133,
    "is_shadow_confederation": false
  },
  {
    "rank": 5,
    "team_name": "四国大学",
    "team_short_name": "四国",
    "runner_name": "穴吹",
    "total_distance_km": 57.7,
    "latitude": 35.318177032398005,
    "longitude": 139.4190942291116,
    "is_shadow_confederation": false
  },
  {
    "rank": 6,
    "team_name": "三重大学",
    "team_short_name": "三重",
    "runner_name": "粥見",
    "total_distance_km": 56.2,
    "latitude": 35.32161366358643,
    "longitude": 139.43445950391595,
    "is_shadow_confederation": false
  },
  {
    "rank": 7,
    "team_name": "関西大学",
    "team_short_name": "関大",
    "runner_name": "福崎",
    "total_distance_km": 52.4,
    "latitude": 35.334567015818386,
    "longitude": 139.4715057199062,
    "is_shadow_confederation": false
  },
  {
    "rank": 8,
    "team_name": "名古屋大学",
    "team_short_name": "名大",
    "runner_name": "美濃加茂",
    "total_distance_km": 52.2,
    "latitude": 35.33547906957131,
    "longitude": 139.47327933997934,
    "is_shadow_confederation": false
  },
  {
    "rank": 9,
    "team_name": "日本大学",
    "team_short_name": "日大",
    "runner_name": "大子",
    "total_distance_km": 51.5,
    "latitude": 35.340297250468545,
    "longitude": 139.47800605618633,
    "is_shadow_confederation": false
  },
  {
    "rank": 10,
    "team_name": "上武大学",
    "team_short_name": "上武",
    "runner_name": "佐野",
    "total_distance_km": 51.0,
    "latitude": 35.34258238106255,
    "longitude": 139.48251717058085,
    "is_shadow_confederation": false
  },
  {
    "rank": 11,
    "team_name": "立命館大学",
    "team_short_name": "立命",
    "runner_name": "東近江",
    "total_distance_km": 46.3,
    "latitude": 35.37847717963758,
    "longitude": 139.50767557779582,
    "is_shadow_confederation": false
  },
  {
    "rank": 12,
    "team_name": "鳥取大学",
    "team_short_name": "鳥取",
    "runner_name": "川本",
    "total_distance_km": 43.8,
    "latitude": 35.39447851767524,
    "longitude": 139.52601997063033,
    "is_shadow_confederation": false
  },
  {
    "rank": 13,
    "team_name": "広島経済大学",
    "team_short_name": "広経",
    "runner_name": "三次",
    "total_distance_km": 43.1,
    "latitude": 35.40035486001456,
    "longitude": 139.52776360253606,
    "is_shadow_confederation": false
  },
  {
    "rank": 14,
    "team_name": "福島大学",
    "team_short_name": "福島",
    "runner_name": "梁川",
    "total_distance_km": 41.3,
    "latitude": 35.41363945854297,
    "longitude": 139.5358184323351,
    "is_shadow_confederation": false
  },
  {
    "rank": 15,
    "team_name": "金沢大学",
    "team_short_name": "金沢",
    "runner_name": "秋ヶ島",
    "total_distance_km": 36.5,
    "latitude": 35.435050217296116,
    "longitude": 139.57612253255564,
    "is_shadow_confederation": false
  },
  {
    "rank": 16,
    "team_name": "山梨学院大学",
    "team_short_name": "山学",
    "runner_name": "長野",
    "total_distance_km": 29.7,
    "latitude": 35.46656870814538,
    "longitude": 139.6240990142698,
    "is_shadow_confederation": false
  },
  {
    "rank": 17,
    "team_name": "東北大学",
    "team_short_name": "東北",
    "runner_name": "帯広",
    "total_distance_km": 22.5,
    "latitude": 35.50800102061793,
    "longitude": 139.68115884228558,
    "is_shadow_confederation": false
  },
  {
    "rank": 18,
    "team_name": "学連選抜",
    "team_short_name": "学連",
    "runner_name": "美幌",
    "total_distance_km": 2.3,
    "latitude": 35.67059908802053,
    "longitude": 139.75203940217116,
    "is_shadow_confederation": false
  }
]