[
  {
    "rank": 1,
    "team_name": "琉球大学",
    "team_short_name": "琉球",
    "runner_name": "仲筋",
    "total_distance_km": 207.6,
    "latitude": 34.83806361265126,
    "longitude": 138.11890220262532,
    "is_shadow_confederation": false
  },
  {
    "rank": 2,
    "team_name": "鹿児島大学",
    "team_short_name": "鹿大",
    "runner_name": "川内（鹿児島）",
    "total_distance_km": 147.2,
    "latitude": 35.11564756600044,
    "longitude": 138.61773487191653,
    "is_shadow_confederation": false
  },
  {
    "rank": 3,
    "team_name": "熊本学園大学",
    "team_short_name": "熊学",
    "runner_name": "岱明",
    "total_distance_km": 143.8,
    "latitude": 35.13186559096231,
    "longitude": 138.64370953033426,
    "is_shadow_confederation": false
  },
  {
    "rank": 4,
    "team_name": "福岡大学",
    "team_short_name": "福岡",
    "runner_name": "福岡",
    "total_distance_km": 133.3,
    "latitude": 35.133724098654874,
    "longitude": 138.75208813912207,
    "is_shadow_confederation": false
  },
  {
    "rank": 5,
    "team_name": "名古屋大学",
    "team_short_name": "名大",
    "runner_name": "美濃",
    "total_distance_km": 119.8,
    "latitude": 35.105369854307334,
    "longitude": 138.8889289737776,
    "is_shadow_confederation": false
  },
  {
    "rank": 6,
    "team_name": "四国大学",
    "team_short_name": "四国",
    "runner_name": "大三島",
    "total_distance_km": 118.9,
    "latitude": 35.10945119078093,
    "longitude": 138.8971051978885,
    "is_shadow_confederation": false
  },
  {
    "rank": 7,
    "team_name": "上武大学",
    "team_short_name": "上武",
    "runner_name": "越谷",
    "total_distance_km": 117.0,
    "latitude": 35.119130321627004,
    "longitude": 138.91371398283042,
    "is_shadow_confederation": false
  },
  {
    "rank": 8,
    "team_name": "三重大学",
    "team_short_name": "三重",
    "runner_name": "五條",
    "total_distance_km": 115.7,
    "latitude": 35.122063323517985,
    "longitude": 138.92746272362677,
    "is_shadow_confederation": false
  },
  {
    "rank": 9,
    "team_name": "日本大学",
    "team_short_name": "日大",
    "runner_name": "古河",
    "total_distance_km": 114.4,
    "latitude": 35.127179378913475,
    "longitude": 138.93981135069342,
    "is_shadow_confederation": false
  },
  {
    "rank": 10,
    "team_name": "関西大学",
    "team_short_name": "関大",
    "runner_name": "和田山",
    "total_distance_km": 102.9,
    "latitude": 35.17820295711322,
    "longitude": 139.01439645268948,
    "is_shadow_confederation": false
  },
  {
    "rank": 11,
    "team_name": "広島経済大学",
    "team_short_name": "広経",
    "runner_name": "三次",
    "total_distance_km": 98.6,
    "latitude": 35.192729985369795,
    "longitude": 139.0483173022222,
    "is_shadow_confederation": false
  },
  {
    "rank": 12,
    "team_name": "立命館大学",
    "team_short_name": "立命",
    "runner_name": "東近江",
    "total_distance_km": 98.4,
    "latitude": 35.193908163410754,
    "longitude": 139.04995505301332,
    "is_shadow_confederation": false
  },
  {
    "rank": 13,
    "team_name": "鳥取大学",
    "team_short_name": "鳥取",
    "runner_name": "川本",
    "total_distance_km": 97.9,
    "latitude": 35.19757857437809,
    "longitude": 139.0526690569013,
    "is_shadow_confederation": false
  },
  {
    "rank": 14,
    "team_name": "福島大学",
    "team_short_name": "福島",
    "runner_name": "梁川",
    "total_distance_km": 96.3,
    "latitude": 35.21019789949849,
    "longitude": 139.05922244103164,
    "is_shadow_confederation": false
  },
  {
    "rank": 15,
    "team_name": "金沢大学",
    "team_short_name": "金沢",
    "runner_name": "秋ヶ島",
    "total_distance_km": 76.1,
    "latitude": 35.28585155128386,
    "longitude": 139.2297084094975,
    "is_shadow_confederation": false
  },
  {
    "rank": 16,
    "team_name": "山梨学院大学",
    "team_short_name": "山学",
    "runner_name": "長野",
    "total_distance_km": 70.1,
    "latitude": 35.30392618640815,
    "longitude": 139.28999147168736,
    "is_shadow_confederation": false
  },
  {
    "rank": 17,
    "team_name": "東北大学",
    "team_short_name": "東北",
    "runner_name": "帯広",
    "total_distance_km": 60.6,
    "latitude": 35.31721229151605,
    "longitude": 139.3874668318944,
    "is_shadow_confederation": false
  },
  {
    "rank": 18,
    "team_name": "学連選抜",
    "team_short_name": "学連",
    "runner_name": "美幌",
    "total_distance_km": 11.0,
    "latitude": 35.59685764774975,
    "longitude": 139.7374646881309,
    "is_shadow_confederation": false
  },
  {
    "rank": null,
    "team_name": "区間記録連合",
    "team_short_name": "区間記録",
    "runner_name": "佐野",
    "total_distance_km": 298.8,
    "latitude": 34.833095158153796,
    "longitude": 137.32948815963522,
    "is_shadow_confederation": true
  }
]