[
  {
    "rank": 1,
    "team_name": "琉球大学",
    "team_short_name": "琉球",
    "runner_name": "北原",
    "total_distance_km": 81.8,
    "latitude": 35.26007170008527,
    "longitude": 139.17795874072746,
    "is_shadow_confederation": false
  },
  {
    "rank": 2,
    "team_name": "鹿児島大学",
    "team_short_name": "鹿大",
    "runner_name": "東市来",
    "total_distance_km": 60.1,
    "latitude": 35.31776056987204,
    "longitude": 139.3929245014505,
    "is_shadow_confederation": false
  },
  {
    "rank": 3,
    "team_name": "熊本学園大学",
    "team_short_name": "熊学",
    "runner_name": "甲佐",
    "total_distance_km": 57.7,
    "latitude": 35.318177032398005,
    "longitude": 139.4190942291116,
    "is_shadow_confederation": false
  },
  {
    "rank": 4,
    "team_name": "福岡大学",
    "team_short_name": "福岡",
    "runner_name": "久留米",
    "total_distance_km": 55.4,
    "latitude": 35.32530823377008,
    "longitude": 139.44185909047786,
    "is_shadow_confederation": false
  },
  {
    "rank": 5,
    "team_name": "四国大学",
    "team_short_name": "四国",
    "runner_name": "穴吹",
    "total_distance_km": 47.6,
    "latitude": 35.368831124828546,
    "longitude": 139.50005934987962,
    "is_shadow_confederation": false
  },
  {
    "rank": 6,
    "team_name": "三重大学",
    "team_short_name": "三重",
    "runner_name": "粥見",
    "total_distance_km": 46.7,
    "latitude": 35.376018294685345,
    "longitude": 139.5046391419144,
    "is_shadow_confederation": false
  },
  {
    "rank": 7,
    "team_name": "名古屋大学",
    "team_short_name": "名大",
    "runner_name": "美濃加茂",
    "total_distance_km": 44.4,
    "latitude": 35.39041340009158,
    "longitude": 139.5216644035115,
    "is_shadow_confederation": false
  },
  {
    "rank": 8,
    "team_name": "上武大学",
    "team_short_name": "上武",
    "runner_name": "佐野",
    "total_distance_km": 43.0,
    "latitude": 35.401232414488824,
    "longitude": 139.52751245911125,
    "is_shadow_confederation": false
  },
  {
    "rank": 9,
    "team_name": "日本大学",
    "team_short_name": "日大",
    "runner_name": "大子",
    "total_distance_km": 42.2,
    "latitude": 35.40804076545525,
    "longitude": 139.52946644452845,
    "is_shadow_confederation": false
  },
  {
    "rank": 10,
    "team_name": "関西大学",
    "team_short_name": "関大",
    "runner_name": "福崎",
    "total_distance_km": 41.8,
    "latitude": 35.411253509234015,
    "longitude": 139.5314647470029,
    "is_shadow_confederation": false
  },
  {
    "rank": 11,
    "team_name": "鳥取大学",
    "team_short_name": "鳥取",
    "runner_name": "川本",
    "total_distance_km": 38.0,
    "latitude": 35.42437958162218,
    "longitude": 139.56703395486971,
    "is_shadow_confederation": false
  },
  {
    "rank": 12,
    "team_name": "立命館大学",
    "team_short_name": "立命",
    "runner_name": "東近江",
    "total_distance_km": 37.9,
    "latitude": 35.42506527117313,
    "longitude": 139.56774266069885,
    "is_shadow_confederation": false
  },
  {
    "rank": 13,
    "team_name": "広島経済大学",
    "team_short_name": "広経",
    "runner_name": "三次",
    "total_distance_km": 36.3,
    "latitude": 35.43683474044492,
    "longitude": 139.57618475565818,
    "is_shadow_confederation": false
  },
  {
    "rank": 14,
    "team_name": "福島大学",
    "team_short_name": "福島",
    "runner_name": "梁川",
    "total_distance_km": 34.2,
    "latitude": 35.44521331204254,
    "longitude": 139.58985147695876,
    "is_shadow_confederation": false
  },
  {
    "rank": 15,
    "team_name": "金沢大学",
    "team_short_name": "金沢",
    "runner_name": "秋ヶ島",
    "total_distance_km": 29.3,
    "latitude": 35.46948437964567,
    "longitude": 139.62669112173185,
    "is_shadow_confederation": false
  },
  {
    "rank": 16,
    "team_name": "山梨学院大学",
    "team_short_name": "山学",
    "runner_name": "長野",
    "total_distance_km": 26.3,
    "latitude": 35.48531031413867,
    "longitude": 139.65123043308913,
    "is_shadow_confederation": false
  },
  {
    "rank": 17,
    "team_name": "東北大学",
    "team_short_name": "東北",
    "runner_name": "帯広",
    "total_distance_km": 18.8,
    "latitude": 35.5329978190983,
    "longitude": 139.7068990647243,
    "is_shadow_confederation": false
  },
  {
    "rank": 18,
    "team_name": "学連選抜",
    "team_short_name": "学連",
    "runner_name": "美幌",
    "total_distance_km": 3.3,
    "latitude": 35.66195190290798,
    "longitude": 139.74940131663277,
    "is_shadow_confederation": false
  }
]