[
  {
    "rank": 1,
    "team_name": "琉球大学",
    "team_short_name": "琉球",
    "runner_name": "盛山",
    "total_distance_km": 233.1,
    "latitude": 34.74373625927995,
    "longitude": 137.90558281553646,
    "is_shadow_confederation": false
  },
  {
    "rank": 2,
    "team_name": "鹿児島大学",
    "team_short_name": "鹿大",
    "runner_name": "川内（鹿児島）",
    "total_distance_km": 166.6,
    "latitude": 35.01785219340302,
    "longitude": 138.47274940075613,
    "is_shadow_confederation": false
  },
  {
    "rank": 3,
    "team_name": "熊本学園大学",
    "team_short_name": "熊学",
    "runner_name": "岱明",
    "total_distance_km": 164.3,
    "latitude": 35.029089120471305,
    "longitude": 138.48841080599067,
    "is_shadow_confederation": false
  },
  {
    "rank": 4,
    "team_name": "福岡大学",
    "team_short_name": "福岡",
    "runner_name": "福岡",
    "total_distance_km": 152.4,
    "latitude": 35.107747506733745,
    "longitude": 138.5631784361613,
    "is_shadow_confederation": false
  },
  {
    "rank": 5,
    "team_name": "名古屋大学",
    "team_short_name": "名大",
    "runner_name": "美濃",
    "total_distance_km": 138.8,
    "latitude": 35.145046376993925,
    "longitude": 138.69448874369476,
    "is_shadow_confederation": false
  },
  {
    "rank": 6,
    "team_name": "四国大学",
    "team_short_name": "四国",
    "runner_name": "大三島",
    "total_distance_km": 136.3,
    "latitude": 35.14028045438427,
    "longitude": 138.7202250899424,
    "is_shadow_confederation": false
  },
  {
    "rank": 7,
    "team_name": "上武大学",
    "team_short_name": "上武",
    "runner_name": "越谷",
    "total_distance_km": 132.4,
    "latitude": 35.1316513630022,
    "longitude": 138.7616308594856,
    "is_shadow_confederation": false
  },
  {
    "rank": 8,
    "team_name": "三重大学",
    "team_short_name": "三重",
    "runner_name": "五條",
    "total_distance_km": 132.0,
    "latitude": 35.130896832359866,
    "longitude": 138.76592243136912,
    "is_shadow_confederation": false
  },
  {
    "rank": 9,
    "team_name": "日本大学",
    "team_short_name": "日大",
    "runner_name": "古河",
    "total_distance_km": 129.2,
    "latitude": 35.12331801784333,
    "longitude": 138.79515103981953,
    "is_shadow_confederation": false
  },
  {
    "rank": 10,
    "team_name": "関西大学",
    "team_short_name": "関大",
    "runner_name": "和田山",
    "total_distance_km": 118.4,
    "latitude": 35.11300515307377,
    "longitude": 138.9004779063699,
    "is_shadow_confederation": false
  },
  {
    "rank": 11,
    "team_name": "鳥取大学",
    "team_short_name": "鳥取",
    "runner_name": "鳥取",
    "total_distance_km": 115.7,
    "latitude": 35.122063323517985,
    "longitude": 138.92746272362677,
    "is_shadow_confederation": false
  },
  {
    "rank": 12,
    "team_name": "広島経済大学",
    "team_short_name": "広経",
    "runner_name": "加計",
    "total_distance_km": 115.6,
    "latitude": 35.12241943076968,
    "longitude": 138.9284705394805,
    "is_shadow_confederation": false
  },
  {
    "rank": 13,
    "team_name": "立命館大学",
    "team_short_name": "立命",
    "runner_name": "福知山",
    "total_distance_km": 110.7,
    "latitude": 35.141884359576615,
    "longitude": 138.96979457972773,
    "is_shadow_confederation": false
  },
  {
    "rank": 14,
    "team_name": "福島大学",
    "team_short_name": "福島",
    "runner_name": "石川",
    "total_distance_km": 107.6,
    "latitude": 35.15489245418677,
    "longitude": 138.9948407481578,
    "is_shadow_confederation": false
  },
  {
    "rank": 15,
    "team_name": "金沢大学",
    "team_short_name": "金沢",
    "runner_name": "秋ヶ島",
    "total_distance_km": 90.3,
    "latitude": 35.228026990357115,
    "longitude": 139.10028231423362,
    "is_shadow_confederation": false
  },
  {
    "rank": 16,
    "team_name": "山梨学院大学",
    "team_short_name": "山学",
    "runner_name": "長野",
    "total_distance_km": 77.4,
    "latitude": 35.28089715039761,
    "longitude": 139.21687051897914,
    "is_shadow_confederation": false
  },
  {
    "rank": 17,
    "team_name": "東北大学",
    "team_short_name": "東北",
    "runner_name": "帯広",
    "total_distance_km": 68.9,
    "latitude": 35.306845864201904,
    "longitude": 139.30256829895862,
    "is_shadow_confederation": false
  },
  {
    "rank": 18,
    "team_name": "学連選抜",
    "team_short_name": "学連",
    "runner_name": "美幌",
    "total_distance_km": 14.7,
    "latitude": 35.5653892534273,
    "longitude": 139.72760442387835,
    "is_shadow_confederation": false
  },
  {
    "rank": null,
    "team_name": "区間記録連合",
    "team_short_name": "区間記録",
    "runner_name": "伊勢崎",
    "total_distance_km": 251.1,
    "latitude": 34.706059929661755,
    "longitude": 137.72804739482265,
    "is_shadow_confederation": true
  }
]