[
  {
    "rank": 1,
    "team_name": "熊本学園大学",
    "team_short_name": "熊学",
    "runner_name": "八代",
    "total_distance_km": 269.9,
    "latitude": 34.68292018651395,
    "longitude": 137.54429061557,
    "is_shadow_confederation": false
  },
  {
    "rank": 2,
    "team_name": "琉球大学",
    "team_short_name": "琉球",
    "runner_name": "盛山",
    "total_distance_km": 266.3,
    "latitude": 34.69403464475363,
    "longitude": 137.5789500894621,
    "is_shadow_confederation": false
  },
  {
    "rank": 3,
    "team_name": "福岡大学",
    "team_short_name": "福岡",
    "runner_name": "黒木",
    "total_distance_km": 258.2,
    "latitude": 34.685822407237424,
    "longitude": 137.66424422399047,
    "is_shadow_confederation": false
  },
  {
    "rank": 4,
    "team_name": "立命館大学",
    "team_short_name": "立命",
    "runner_name": "京田辺",
    "total_distance_km": 257.9,
    "latitude": 34.68649384901867,
    "longitude": 137.6674155768676,
    "is_shadow_confederation": false
  },
  {
    "rank": 5,
    "team_name": "関西大学",
    "team_short_name": "関大",
    "runner_name": "上郡",
    "total_distance_km": 249.0,
    "latitude": 34.708846265085356,
    "longitude": 137.74773713593572,
    "is_shadow_confederation": false
  },
  {
    "rank": 6,
    "team_name": "鹿児島大学",
    "team_short_name": "鹿大",
    "runner_name": "加久藤",
    "total_distance_km": 248.8,
    "latitude": 34.70936296752253,
    "longitude": 137.74982871544043,
    "is_shadow_confederation": false
  },
  {
    "rank": 7,
    "team_name": "三重大学",
    "team_short_name": "三重",
    "runner_name": "小俣",
    "total_distance_km": 247.4,
    "latitude": 34.714976017152296,
    "longitude": 137.7634635975569,
    "is_shadow_confederation": false
  },
  {
    "rank": 8,
    "team_name": "広島経済大学",
    "team_short_name": "広経",
    "runner_name": "府中（広島）",
    "total_distance_km": 247.1,
    "latitude": 34.71628376230212,
    "longitude": 137.76633018207392,
    "is_shadow_confederation": false
  },
  {
    "rank": 9,
    "team_name": "金沢大学",
    "team_short_name": "金沢",
    "runner_name": "七尾",
    "total_distance_km": 245.8,
    "latitude": 34.72085069864558,
    "longitude": 137.77939191177177,
    "is_shadow_confederation": false
  },
  {
    "rank": 10,
    "team_name": "名古屋大学",
    "team_short_name": "名大",
    "runner_name": "大垣",
    "total_distance_km": 244.3,
    "latitude": 34.72977714331827,
    "longitude": 137.79154309867937,
    "is_shadow_confederation": false
  },
  {
    "rank": 11,
    "team_name": "四国大学",
    "team_short_name": "四国",
    "runner_name": "御荘",
    "total_distance_km": 243.6,
    "latitude": 34.73101681226142,
    "longitude": 137.7987926788025,
    "is_shadow_confederation": false
  },
  {
    "rank": 12,
    "team_name": "鳥取大学",
    "team_short_name": "鳥取",
    "runner_name": "広瀬",
    "total_distance_km": 243.0,
    "latitude": 34.72939489500855,
    "longitude": 137.80504228140094,
    "is_shadow_confederation": false
  },
  {
    "rank": 13,
    "team_name": "山梨学院大学",
    "team_short_name": "山学",
    "runner_name": "南信濃",
    "total_distance_km": 231.9,
    "latitude": 34.748286096269915,
    "longitude": 137.91742553530628,
    "is_shadow_confederation": false
  },
  {
    "rank": 14,
    "team_name": "上武大学",
    "team_short_name": "上武",
    "runner_name": "越谷",
    "total_distance_km": 224.8,
    "latitude": 34.77320066962879,
    "longitude": 137.98557986937152,
    "is_shadow_confederation": false
  },
  {
    "rank": 15,
    "team_name": "日本大学",
    "team_short_name": "日大",
    "runner_name": "古河",
    "total_distance_km": 223.2,
    "latitude": 34.77644589546609,
    "longitude": 138.00234368020224,
    "is_shadow_confederation": false
  },
  {
    "rank": 16,
    "team_name": "福島大学",
    "team_short_name": "福島",
    "runner_name": "石川",
    "total_distance_km": 214.8,
    "latitude": 34.80365951658576,
    "longitude": 138.0762082921135,
    "is_shadow_confederation": false
  },
  {
    "rank": 17,
    "team_name": "東北大学",
    "team_short_name": "東北",
    "runner_name": "山形（山形）",
    "total_distance_km": 196.1,
    "latitude": 34.872554200356724,
    "longitude": 138.22954453862505,
    "is_shadow_confederation": false
  },
  {
    "rank": 18,
    "team_name": "学連選抜",
    "team_short_name": "学連",
    "runner_name": "新潟",
    "total_distance_km": 181.0,
    "latitude": 34.94923227854757,
    "longitude": 138.34605256436652,
    "is_shadow_confederation": false
  }
]