[
  {
    "rank": 1,
    "team_name": "琉球大学",
    "team_short_name": "琉球",
    "runner_name": "ゴール",
    "total_distance_km": 1057.8,
    "latitude": 33.950916,
    "longitude": 130.924104,
    "is_shadow_confederation": false
  },
  {
    "rank": 2,
    "team_name": "鹿児島大学",
    "team_short_name": "鹿大",
    "runner_name": "ゴール",
    "total_distance_km": 1056.2,
    "latitude": 33.95222710186592,
    "longitude": 130.9325647285639,
    "is_shadow_confederation": false
  },
  {
    "rank": 3,
    "team_name": "熊本学園大学",
    "team_short_name": "熊学",
    "runner_name": "日田",
    "total_distance_km": 1050.7,
    "latitude": 33.97877835105803,
    "longitude": 130.9789157994526,
    "is_shadow_confederation": false
  },
  {
    "rank": 4,
    "team_name": "福岡大学",
    "team_short_name": "福岡",
    "runner_name": "太宰府",
    "total_distance_km": 1033.7,
    "latitude": 34.04507351811355,
    "longitude": 131.07071020957093,
    "is_shadow_confederation": false
  },
  {
    "rank": 5,
    "team_name": "四国大学",
    "team_short_name": "四国",
    "runner_name": "中村",
    "total_distance_km": 1006.2,
    "latitude": 34.05674213968151,
    "longitude": 131.32792511988987,
    "is_shadow_confederation": false
  },
  {
    "rank": 6,
    "team_name": "広島経済大学",
    "team_short_name": "広経",
    "runner_name": "財田",
    "total_distance_km": 974.5,
    "latitude": 34.04131883947337,
    "longitude": 131.6140426284781,
    "is_shadow_confederation": false
  },
  {
    "rank": 7,
    "team_name": "鳥取大学",
    "team_short_name": "鳥取",
    "runner_name": "津和野",
    "total_distance_km": 956.3,
    "latitude": 34.06971411023221,
    "longitude": 131.77863219338224,
    "is_shadow_confederation": false
  },
  {
    "rank": 8,
    "team_name": "関西大学",
    "team_short_name": "関大",
    "runner_name": "西脇",
    "total_distance_km": 953.4,
    "latitude": 34.05720286893992,
    "longitude": 131.80178262670455,
    "is_shadow_confederation": false
  },
  {
    "rank": 9,
    "team_name": "名古屋大学",
    "team_short_name": "名大",
    "runner_name": "揖斐川",
    "total_distance_km": 952.1,
    "latitude": 34.05016406484155,
    "longitude": 131.81178627466093,
    "is_shadow_confederation": false
  },
  {
    "rank": 10,
    "team_name": "三重大学",
    "team_short_name": "三重",
    "runner_name": "上野",
    "total_distance_km": 944.1,
    "latitude": 34.034872573284616,
    "longitude": 131.88542495228512,
    "is_shadow_confederation": false
  },
  {
    "rank": 11,
    "team_name": "日本大学",
    "team_short_name": "日大",
    "runner_name": "海老名",
    "total_distance_km": 910.3,
    "latitude": 34.16245860762818,
    "longitude": 132.17773095161132,
    "is_shadow_confederation": false
  },
  {
    "rank": 12,
    "team_name": "上武大学",
    "team_short_name": "上武",
    "runner_name": "館林",
    "total_distance_km": 908.4,
    "latitude": 34.16455071332769,
    "longitude": 132.19545787693707,
    "is_shadow_confederation": false
  },
  {
    "rank": 13,
    "team_name": "立命館大学",
    "team_short_name": "立命",
    "runner_name": "園部",
    "total_distance_km": 907.2,
    "latitude": 34.17047658427355,
    "longitude": 132.2051813251307,
    "is_shadow_confederation": false
  },
  {
    "rank": 14,
    "team_name": "金沢大学",
    "team_short_name": "金沢",
    "runner_name": "大野（福井）",
    "total_distance_km": 894.0,
    "latitude": 34.263050841107045,
    "longitude": 132.24370146322252,
    "is_shadow_confederation": false
  },
  {
    "rank": 15,
    "team_name": "山梨学院大学",
    "team_short_name": "山学",
    "runner_name": "佐久間",
    "total_distance_km": 877.8,
    "latitude": 34.36436660133381,
    "longitude": 132.35502970082698,
    "is_shadow_confederation": false
  },
  {
    "rank": 16,
    "team_name": "学連選抜",
    "team_short_name": "学連",
    "runner_name": "恵那",
    "total_distance_km": 866.6,
    "latitude": 34.381785502092555,
    "longitude": 132.46402790127934,
    "is_shadow_confederation": false
  },
  {
    "rank": 17,
    "team_name": "福島大学",
    "team_short_name": "福島",
    "runner_name": "喜多方",
    "total_distance_km": 787.6,
    "latitude": 34.40023222450703,
    "longitude": 133.17800105701838,
    "is_shadow_confederation": false
  },
  {
    "rank": 18,
    "team_name": "東北大学",
    "team_short_name": "東北",
    "runner_name": "秋田",
    "total_distance_km": 691.3,
    "latitude": 34.705186467713325,
    "longitude": 134.06363710412035,
    "is_shadow_confederation": false
  }
]