[
  {
    "rank": 1,
    "team_name": "琉球大学",
    "team_short_name": "琉球",
    "runner_name": "仲筋",
    "total_distance_km": 158.2,
    "latitude": 35.06189744510403,
    "longitude": 138.537571783017,
    "is_shadow_confederation": false
  },
  {
    "rank": 2,
    "team_name": "熊本学園大学",
    "team_short_name": "熊学",
    "runner_name": "岱明",
    "total_distance_km": 155.6,
    "latitude": 35.08347307569317,
    "longitude": 138.54759248831706,
    "is_shadow_confederation": false
  },
  {
    "rank": 3,
    "team_name": "鹿児島大学",
    "team_short_name": "鹿大",
    "runner_name": "川内（鹿児島）",
    "total_distance_km": 148.2,
    "latitude": 35.116066398251554,
    "longitude": 138.60677690838747,
    "is_shadow_confederation": false
  },
  {
    "rank": 4,
    "team_name": "福岡大学",
    "team_short_name": "福岡",
    "runner_name": "福岡",
    "total_distance_km": 148.0,
    "latitude": 35.11598263180133,
    "longitude": 138.6089685010933,
    "is_shadow_confederation": false
  },
  {
    "rank": 5,
    "team_name": "四国大学",
    "team_short_name": "四国",
    "runner_name": "大三島",
    "total_distance_km": 136.3,
    "latitude": 35.14028045438427,
    "longitude": 138.7202250899424,
    "is_shadow_confederation": false
  },
  {
    "rank": 6,
    "team_name": "関西大学",
    "team_short_name": "関大",
    "runner_name": "和田山",
    "total_distance_km": 130.0,
    "latitude": 35.1254920401322,
    "longitude": 138.78678269841652,
    "is_shadow_confederation": false
  },
  {
    "rank": 7,
    "team_name": "広島経済大学",
    "team_short_name": "広経",
    "runner_name": "加計",
    "total_distance_km": 128.2,
    "latitude": 35.11985192929145,
    "longitude": 138.80524372003444,
    "is_shadow_confederation": false
  },
  {
    "rank": 8,
    "team_name": "立命館大学",
    "team_short_name": "立命",
    "runner_name": "福知山",
    "total_distance_km": 127.2,
    "latitude": 35.11584895330673,
    "longitude": 138.81507264275095,
    "is_shadow_confederation": false
  },
  {
    "rank": 9,
    "team_name": "鳥取大学",
    "team_short_name": "鳥取",
    "runner_name": "鳥取",
    "total_distance_km": 126.8,
    "latitude": 35.114247762912846,
    "longitude": 138.81900421183755,
    "is_shadow_confederation": false
  },
  {
    "rank": 9,
    "team_name": "三重大学",
    "team_short_name": "三重",
    "runner_name": "五條",
    "total_distance_km": 126.8,
    "latitude": 35.114247762912846,
    "longitude": 138.81900421183755,
    "is_shadow_confederation": false
  },
  {
    "rank": 11,
    "team_name": "名古屋大学",
    "team_short_name": "名大",
    "runner_name": "美濃加茂",
    "total_distance_km": 121.6,
    "latitude": 35.100242094644834,
    "longitude": 138.87086590870817,
    "is_shadow_confederation": false
  },
  {
    "rank": 12,
    "team_name": "金沢大学",
    "team_short_name": "金沢",
    "runner_name": "秋ヶ島",
    "total_distance_km": 116.4,
    "latitude": 35.12021302178128,
    "longitude": 138.92016293311582,
    "is_shadow_confederation": false
  },
  {
    "rank": 13,
    "team_name": "上武大学",
    "team_short_name": "上武",
    "runner_name": "佐野",
    "total_distance_km": 110.3,
    "latitude": 35.14450880830694,
    "longitude": 138.97278464558494,
    "is_shadow_confederation": false
  },
  {
    "rank": 14,
    "team_name": "日本大学",
    "team_short_name": "日大",
    "runner_name": "大子",
    "total_distance_km": 104.9,
    "latitude": 35.170313551023185,
    "longitude": 139.01149150067457,
    "is_shadow_confederation": false
  },
  {
    "rank": 15,
    "team_name": "山梨学院大学",
    "team_short_name": "山学",
    "runner_name": "長野",
    "total_distance_km": 103.9,
    "latitude": 35.174087233483355,
    "longitude": 139.00933307943046,
    "is_shadow_confederation": false
  },
  {
    "rank": 16,
    "team_name": "福島大学",
    "team_short_name": "福島",
    "runner_name": "梁川",
    "total_distance_km": 98.2,
    "latitude": 35.195131965867375,
    "longitude": 139.0515592772458,
    "is_shadow_confederation": false
  },
  {
    "rank": 17,
    "team_name": "東北大学",
    "team_short_name": "東北",
    "runner_name": "帯広",
    "total_distance_km": 70.4,
    "latitude": 35.30416709837025,
    "longitude": 139.28670603943002,
    "is_shadow_confederation": false
  },
  {
    "rank": 18,
    "team_name": "学連選抜",
    "team_short_name": "学連",
    "runner_name": "美幌",
    "total_distance_km": 66.0,
    "latitude": 35.31381646166465,
    "longitude": 139.33048983219882,
    "is_shadow_confederation": false
  }
]