[
  {
    "rank": 1,
    "team_name": "琉球大学",
    "team_short_name": "琉球",
    "runner_name": "名護",
    "total_distance_km": 407.6,
    "latitude": 34.85702033792925,
    "longitude": 136.48154016325287,
    "is_shadow_confederation": false
  },
  {
    "rank": 2,
    "team_name": "鹿児島大学",
    "team_short_name": "鹿大",
    "runner_name": "加久藤",
    "total_distance_km": 314.3,
    "latitude": 34.92116413159693,
    "longitude": 137.20596760505157,
    "is_shadow_confederation": false
  },
  {
    "rank": 3,
    "team_name": "熊本学園大学",
    "team_short_name": "熊学",
    "runner_name": "八代",
    "total_distance_km": 308.2,
    "latitude": 34.89219938106433,
    "longitude": 137.26054426601132,
    "is_shadow_confederation": false
  },
  {
    "rank": 4,
    "team_name": "福岡大学",
    "team_short_name": "福岡",
    "runner_name": "黒木",
    "total_distance_km": 290.0,
    "latitude": 34.772524670676475,
    "longitude": 137.3902312769179,
    "is_shadow_confederation": false
  },
  {
    "rank": 5,
    "team_name": "名古屋大学",
    "team_short_name": "名大",
    "runner_name": "大垣",
    "total_distance_km": 267.4,
    "latitude": 34.69386327720673,
    "longitude": 137.56695902081893,
    "is_shadow_confederation": false
  },
  {
    "rank": 6,
    "team_name": "四国大学",
    "team_short_name": "四国",
    "runner_name": "御荘",
    "total_distance_km": 259.4,
    "latitude": 34.68384103612939,
    "longitude": 137.65137357533953,
    "is_shadow_confederation": false
  },
  {
    "rank": 7,
    "team_name": "日本大学",
    "team_short_name": "日大",
    "runner_name": "下館",
    "total_distance_km": 257.8,
    "latitude": 34.686717662945746,
    "longitude": 137.66847269449332,
    "is_shadow_confederation": false
  },
  {
    "rank": 8,
    "team_name": "上武大学",
    "team_short_name": "上武",
    "runner_name": "熊谷",
    "total_distance_km": 257.7,
    "latitude": 34.686941476872825,
    "longitude": 137.669529812119,
    "is_shadow_confederation": false
  },
  {
    "rank": 9,
    "team_name": "三重大学",
    "team_short_name": "三重",
    "runner_name": "小俣",
    "total_distance_km": 251.6,
    "latitude": 34.70178968584781,
    "longitude": 137.72793920080855,
    "is_shadow_confederation": false
  },
  {
    "rank": 10,
    "team_name": "広島経済大学",
    "team_short_name": "広経",
    "runner_name": "府中（広島）",
    "total_distance_km": 244.0,
    "latitude": 34.730729671979006,
    "longitude": 137.79449343942673,
    "is_shadow_confederation": false
  },
  {
    "rank": 11,
    "team_name": "鳥取大学",
    "team_short_name": "鳥取",
    "runner_name": "広瀬",
    "total_distance_km": 237.1,
    "latitude": 34.727719424372424,
    "longitude": 137.86718098965386,
    "is_shadow_confederation": false
  },
  {
    "rank": 12,
    "team_name": "関西大学",
    "team_short_name": "関大",
    "runner_name": "上郡",
    "total_distance_km": 234.9,
    "latitude": 34.73871513851108,
    "longitude": 137.8869666563978,
    "is_shadow_confederation": false
  },
  {
    "rank": 13,
    "team_name": "立命館大学",
    "team_short_name": "立命",
    "runner_name": "福知山",
    "total_distance_km": 224.8,
    "latitude": 34.77320066962879,
    "longitude": 137.98557986937152,
    "is_shadow_confederation": false
  },
  {
    "rank": 14,
    "team_name": "福島大学",
    "team_short_name": "福島",
    "runner_name": "石川",
    "total_distance_km": 214.3,
    "latitude": 34.80732301537426,
    "longitude": 138.0790985148811,
    "is_shadow_confederation": false
  },
  {
    "rank": 15,
    "team_name": "山梨学院大学",
    "team_short_name": "山学",
    "runner_name": "南信濃",
    "total_distance_km": 210.4,
    "latitude": 34.819080866158984,
    "longitude": 138.11214946169952,
    "is_shadow_confederation": false
  },
  {
    "rank": 16,
    "team_name": "金沢大学",
    "team_short_name": "金沢",
    "runner_name": "小浜",
    "total_distance_km": 190.5,
    "latitude": 34.899115980759014,
    "longitude": 138.27988363712612,
    "is_shadow_confederation": false
  },
  {
    "rank": 17,
    "team_name": "東北大学",
    "team_short_name": "東北",
    "runner_name": "山形（山形）",
    "total_distance_km": 141.3,
    "latitude": 35.139920222476036,
    "longitude": 138.6693277594403,
    "is_shadow_confederation": false
  },
  {
    "rank": 18,
    "team_name": "学連選抜",
    "team_short_name": "学連",
    "runner_name": "美幌",
    "total_distance_km": 59.8,
    "latitude": 35.31808953688564,
    "longitude": 139.39619910318416,
    "is_shadow_confederation": false
  },
  {
    "rank": null,
    "team_name": "区間記録連合",
    "team_short_name": "区間記録",
    "runner_name": "風屋",
    "total_distance_km": 407.6,
    "latitude": 34.85702033792925,
    "longitude": 136.48154016325287,
    "is_shadow_confederation": true
  }
]