[
  {
    "rank": 1,
    "team_name": "琉球大学",
    "team_short_name": "琉球",
    "runner_name": "久米島",
    "total_distance_km": 614.7,
    "latitude": 34.79499690878487,
    "longitude": 134.78132052474817,
    "is_shadow_confederation": false
  },
  {
    "rank": 2,
    "team_name": "熊本学園大学",
    "team_short_name": "熊学",
    "runner_name": "熊本",
    "total_distance_km": 538.0,
    "latitude": 34.69414951127464,
    "longitude": 135.4828927320047,
    "is_shadow_confederation": false
  },
  {
    "rank": 3,
    "team_name": "鹿児島大学",
    "team_short_name": "鹿大",
    "runner_name": "西都",
    "total_distance_km": 522.9,
    "latitude": 34.765223881338,
    "longitude": 135.59821226077818,
    "is_shadow_confederation": false
  },
  {
    "rank": 4,
    "team_name": "福岡大学",
    "team_short_name": "福岡",
    "runner_name": "前原",
    "total_distance_km": 507.4,
    "latitude": 34.858833417531635,
    "longitude": 135.71363457576112,
    "is_shadow_confederation": false
  },
  {
    "rank": 5,
    "team_name": "四国大学",
    "team_short_name": "四国",
    "runner_name": "大洲",
    "total_distance_km": 486.6,
    "latitude": 35.00930514917323,
    "longitude": 135.7813088169908,
    "is_shadow_confederation": false
  },
  {
    "rank": 6,
    "team_name": "広島経済大学",
    "team_short_name": "広経",
    "runner_name": "高梁",
    "total_distance_km": 470.6,
    "latitude": 34.98076099919612,
    "longitude": 135.91778065280448,
    "is_shadow_confederation": false
  },
  {
    "rank": 7,
    "team_name": "鳥取大学",
    "team_short_name": "鳥取",
    "runner_name": "境",
    "total_distance_km": 459.4,
    "latitude": 35.03169978851065,
    "longitude": 136.0189163816375,
    "is_shadow_confederation": false
  },
  {
    "rank": 8,
    "team_name": "名古屋大学",
    "team_short_name": "名大",
    "runner_name": "多治見",
    "total_distance_km": 458.4,
    "latitude": 35.0286769479324,
    "longitude": 136.02913490033342,
    "is_shadow_confederation": false
  },
  {
    "rank": 9,
    "team_name": "関西大学",
    "team_short_name": "関大",
    "runner_name": "枚方",
    "total_distance_km": 456.6,
    "latitude": 35.02222216245992,
    "longitude": 136.04723082642445,
    "is_shadow_confederation": false
  },
  {
    "rank": 10,
    "team_name": "立命館大学",
    "team_short_name": "立命",
    "runner_name": "舞鶴",
    "total_distance_km": 448.5,
    "latitude": 34.986046847023374,
    "longitude": 136.12072284305899,
    "is_shadow_confederation": false
  },
  {
    "rank": 11,
    "team_name": "三重大学",
    "team_short_name": "三重",
    "runner_name": "奈良",
    "total_distance_km": 442.9,
    "latitude": 34.97042052665789,
    "longitude": 136.17747614288982,
    "is_shadow_confederation": false
  },
  {
    "rank": 12,
    "team_name": "日本大学",
    "team_short_name": "日大",
    "runner_name": "牛久",
    "total_distance_km": 428.9,
    "latitude": 34.91960322567037,
    "longitude": 136.3122854610177,
    "is_shadow_confederation": false
  },
  {
    "rank": 13,
    "team_name": "金沢大学",
    "team_short_name": "金沢",
    "runner_name": "福井",
    "total_distance_km": 427.4,
    "latitude": 34.91016473810258,
    "longitude": 136.32343360499397,
    "is_shadow_confederation": false
  },
  {
    "rank": 14,
    "team_name": "上武大学",
    "team_short_name": "上武",
    "runner_name": "桐生",
    "total_distance_km": 425.1,
    "latitude": 34.894932851131394,
    "longitude": 136.3374691887637,
    "is_shadow_confederation": false
  },
  {
    "rank": 15,
    "team_name": "山梨学院大学",
    "team_short_name": "山学",
    "runner_name": "浜松",
    "total_distance_km": 407.0,
    "latitude": 34.86113299563931,
    "longitude": 136.4855268362355,
    "is_shadow_confederation": false
  },
  {
    "rank": 16,
    "team_name": "福島大学",
    "team_short_name": "福島",
    "runner_name": "長岡",
    "total_distance_km": 374.2,
    "latitude": 35.0731287641142,
    "longitude": 136.68599948620945,
    "is_shadow_confederation": false
  },
  {
    "rank": 17,
    "team_name": "学連選抜",
    "team_short_name": "学連",
    "runner_name": "上",
    "total_distance_km": 357.3,
    "latitude": 35.124177729766174,
    "longitude": 136.8413055155139,
    "is_shadow_confederation": false
  },
  {
    "rank": 18,
    "team_name": "東北大学",
    "team_short_name": "東北",
    "runner_name": "高畠",
    "total_distance_km": 315.7,
    "latitude": 34.93134776077417,
    "longitude": 137.19705547995056,
    "is_shadow_confederation": false
  }
]