[
  {
    "rank": 1,
    "team_name": "山梨学院大学",
    "team_short_name": "山学",
    "runner_name": "佐久間",
    "total_distance_km": 40.6,
    "latitude": 35.41492112111044,
    "longitude": 139.54325157746922,
    "current_leg": 1,
    "is_shadow_confederation": false
  },
  {
    "rank": 2,
    "team_name": "名古屋大学",
    "team_short_name": "名大",
    "runner_name": "美濃",
    "total_distance_km": 40.3,
    "latitude": 35.416429367968824,
    "longitude": 139.54595086022704,
    "current_leg": 1,
    "is_shadow_confederation": false
  },
  {
    "rank": 3,
    "team_name": "三重大学",
    "team_short_name": "三重",
    "runner_name": "粥見",
    "total_distance_km": 39.3,
    "latitude": 35.42117281297569,
    "longitude": 139.55483133517097,
    "current_leg": 1,
    "is_shadow_confederation": false
  },
  {
    "rank": 4,
    "team_name": "日本大学",
    "team_short_name": "日大",
    "runner_name": "八王子",
    "total_distance_km": 38.9,
    "latitude": 35.42091969494592,
    "longitude": 139.55921399150415,
    "current_leg": 1,
    "is_shadow_confederation": false
  },
  {
    "rank": 5,
    "team_name": "学連選抜",
    "team_short_name": "学連",
    "runner_name": "金山（岐阜）",
    "total_distance_km": 38.6,
    "latitude": 35.42052907526279,
    "longitude": 139.56242839957363,
    "current_leg": 1,
    "is_shadow_confederation": false
  },
  {
    "rank": 6,
    "team_name": "上武大学",
    "team_short_name": "上武",
    "runner_name": "前橋",
    "total_distance_km": 38.3,
    "latitude": 35.42230968315328,
    "longitude": 139.56491436477918,
    "current_leg": 1,
    "is_shadow_confederation": false
  },
  {
    "rank": 7,
    "team_name": "広島経済大学",
    "team_short_name": "広経",
    "runner_name": "久世",
    "total_distance_km": 37.9,
    "latitude": 35.42506527117313,
    "longitude": 139.56774266069885,
    "current_leg": 1,
    "is_shadow_confederation": false
  },
  {
    "rank": 8,
    "team_name": "関西大学",
    "team_short_name": "関大",
    "runner_name": "福崎",
    "total_distance_km": 37.8,
    "latitude": 35.42550637858348,
    "longitude": 139.56870293930433,
    "current_leg": 1,
    "is_shadow_confederation": false
  },
  {
    "rank": 9,
    "team_name": "鳥取大学",
    "team_short_name": "鳥取",
    "runner_name": "広瀬",
    "total_distance_km": 37.5,
    "latitude": 35.42731228794395,
    "longitude": 139.57109415452445,
    "current_leg": 1,
    "is_shadow_confederation": false
  },
  {
    "rank": 10,
    "team_name": "四国大学",
    "team_short_name": "四国",
    "runner_name": "穴吹",
    "total_distance_km": 37.4,
    "latitude": 35.428003192094565,
    "longitude": 139.57180126690858,
    "current_leg": 1,
    "is_shadow_confederation": false
  },
  {
    "rank": 11,
    "team_name": "立命館大学",
    "team_short_name": "立命",
    "runner_name": "東近江",
    "total_distance_km": 37.2,
    "latitude": 35.42932304153714,
    "longitude": 139.57330137076633,
    "current_leg": 1,
    "is_shadow_confederation": false
  },
  {
    "rank": 12,
    "team_name": "熊本学園大学",
    "team_short_name": "熊学",
    "runner_name": "犬飼",
    "total_distance_km": 37.0,
    "latitude": 35.4307596634319,
    "longitude": 139.5745859779508,
    "current_leg": 1,
    "is_shadow_confederation": false
  },
  {
    "rank": 13,
    "team_name": "鹿児島大学",
    "team_short_name": "鹿大",
    "runner_name": "肝付前田",
    "total_distance_km": 36.8,
    "latitude": 35.43240542743518,
    "longitude": 139.5754846257092,
    "current_leg": 1,
    "is_shadow_confederation": false
  },
  {
    "rank": 14,
    "team_name": "福岡大学",
    "team_short_name": "福岡",
    "runner_name": "飯塚",
    "total_distance_km": 35.9,
    "latitude": 35.44019745203252,
    "longitude": 139.57512469345266,
    "current_leg": 1,
    "is_shadow_confederation": false
  },
  {
    "rank": 15,
    "team_name": "金沢大学",
    "team_short_name": "金沢",
    "runner_name": "伏木",
    "total_distance_km": 35.8,
    "latitude": 35.44108381649206,
    "longitude": 139.5752704419252,
    "current_leg": 1,
    "is_shadow_confederation": false
  },
  {
    "rank": 16,
    "team_name": "琉球大学",
    "team_short_name": "琉球",
    "runner_name": "北原",
    "total_distance_km": 32.6,
    "latitude": 35.45027876608812,
    "longitude": 139.60371243137197,
    "current_leg": 1,
    "is_shadow_confederation": false
  },
  {
    "rank": 17,
    "team_name": "福島大学",
    "team_short_name": "福島",
    "runner_name": "高田",
    "total_distance_km": 32.4,
    "latitude": 35.451209436677814,
    "longitude": 139.60557165661368,
    "current_leg": 1,
    "is_shadow_confederation": false
  },
  {
    "rank": 18,
    "team_name": "東北大学",
    "team_short_name": "東北",
    "runner_name": "上富良野",
    "total_distance_km": 29.4,
    "latitude": 35.4687554617706,
    "longitude": 139.62604309486636,
    "current_leg": 1,
    "is_shadow_confederation": false
  },
  {
    "rank": null,
    "team_name": "区間記録連合",
    "team_short_name": "区間記録",
    "runner_name": "梁川",
    "total_distance_km": 39.0,
    "latitude": 35.42108353596651,
    "longitude": 139.55813123784824,
    "current_leg": 1,
    "is_shadow_confederation": true
  }
]