[
  {
    "rank": 1,
    "team_name": "琉球大学",
    "team_short_name": "琉球",
    "runner_name": "西表島",
    "total_distance_km": 779.2,
    "latitude": 34.43711563634538,
    "longitude": 133.2308687335394,
    "is_shadow_confederation": false
  },
  {
    "rank": 2,
    "team_name": "鹿児島大学",
    "team_short_name": "鹿大",
    "runner_name": "鹿児島",
    "total_distance_km": 672.8,
    "latitude": 34.7732562263402,
    "longitude": 134.23923082322,
    "is_shadow_confederation": false
  },
  {
    "rank": 3,
    "team_name": "熊本学園大学",
    "team_short_name": "熊学",
    "runner_name": "大分",
    "total_distance_km": 655.6,
    "latitude": 34.82651479668527,
    "longitude": 134.37701040902434,
    "is_shadow_confederation": false
  },
  {
    "rank": 4,
    "team_name": "福岡大学",
    "team_short_name": "福岡",
    "runner_name": "博多",
    "total_distance_km": 629.9,
    "latitude": 34.84473250441491,
    "longitude": 134.63251230646938,
    "is_shadow_confederation": false
  },
  {
    "rank": 5,
    "team_name": "四国大学",
    "team_short_name": "四国",
    "runner_name": "徳島",
    "total_distance_km": 603.5,
    "latitude": 34.73479495679552,
    "longitude": 134.87530916573164,
    "is_shadow_confederation": false
  },
  {
    "rank": 6,
    "team_name": "広島経済大学",
    "team_short_name": "広経",
    "runner_name": "高松（香川）",
    "total_distance_km": 585.3,
    "latitude": 34.638893969709116,
    "longitude": 135.0268499537443,
    "is_shadow_confederation": false
  },
  {
    "rank": 7,
    "team_name": "名古屋大学",
    "team_short_name": "名大",
    "runner_name": "豊田（愛知）",
    "total_distance_km": 569.8,
    "latitude": 34.67795186490616,
    "longitude": 135.17225547652066,
    "is_shadow_confederation": false
  },
  {
    "rank": 8,
    "team_name": "鳥取大学",
    "team_short_name": "鳥取",
    "runner_name": "松江",
    "total_distance_km": 569.3,
    "latitude": 34.68072197966777,
    "longitude": 135.17655911399095,
    "is_shadow_confederation": false
  },
  {
    "rank": 9,
    "team_name": "関西大学",
    "team_short_name": "関大",
    "runner_name": "豊中",
    "total_distance_km": 565.9,
    "latitude": 34.6980824314495,
    "longitude": 135.20604599165787,
    "is_shadow_confederation": false
  },
  {
    "rank": 10,
    "team_name": "立命館大学",
    "team_short_name": "立命",
    "runner_name": "彦根",
    "total_distance_km": 554.7,
    "latitude": 34.73469302357781,
    "longitude": 135.31780058994974,
    "is_shadow_confederation": false
  },
  {
    "rank": 11,
    "team_name": "三重大学",
    "team_short_name": "三重",
    "runner_name": "新宮",
    "total_distance_km": 554.6,
    "latitude": 34.73495685382081,
    "longitude": 135.31884468514824,
    "is_shadow_confederation": false
  },
  {
    "rank": 12,
    "team_name": "日本大学",
    "team_short_name": "日大",
    "runner_name": "八王子",
    "total_distance_km": 537.0,
    "latitude": 34.69775832456483,
    "longitude": 135.49289404513343,
    "is_shadow_confederation": false
  },
  {
    "rank": 13,
    "team_name": "上武大学",
    "team_short_name": "上武",
    "runner_name": "桐生",
    "total_distance_km": 534.2,
    "latitude": 34.69747577865107,
    "longitude": 135.52307333159325,
    "is_shadow_confederation": false
  },
  {
    "rank": 14,
    "team_name": "金沢大学",
    "team_short_name": "金沢",
    "runner_name": "福井",
    "total_distance_km": 532.4,
    "latitude": 34.70011007876379,
    "longitude": 135.5422916372451,
    "is_shadow_confederation": false
  },
  {
    "rank": 15,
    "team_name": "山梨学院大学",
    "team_short_name": "山学",
    "runner_name": "甲府",
    "total_distance_km": 507.2,
    "latitude": 34.8599160076245,
    "longitude": 135.71538347510528,
    "is_shadow_confederation": false
  },
  {
    "rank": 16,
    "team_name": "福島大学",
    "team_short_name": "福島",
    "runner_name": "福島",
    "total_distance_km": 469.5,
    "latitude": 34.98615382467059,
    "longitude": 135.92781383411392,
    "is_shadow_confederation": false
  },
  {
    "rank": 17,
    "team_name": "学連選抜",
    "team_short_name": "学連",
    "runner_name": "久世",
    "total_distance_km": 465.5,
    "latitude": 35.010454472219216,
    "longitude": 135.95981160688092,
    "is_shadow_confederation": false
  },
  {
    "rank": 18,
    "team_name": "東北大学",
    "team_short_name": "東北",
    "runner_name": "大館",
    "total_distance_km": 393.0,
    "latitude": 34.932067328957494,
    "longitude": 136.5917627070922,
    "is_shadow_confederation": false
  }
]