[
  {
    "rank": 1,
    "team_name": "熊本学園大学",
    "team_short_name": "熊学",
    "runner_name": "岱明",
    "total_distance_km": 202.7,
    "latitude": 34.846570819531756,
    "longitude": 138.16989467175316,
    "is_shadow_confederation": false
  },
  {
    "rank": 2,
    "team_name": "琉球大学",
    "team_short_name": "琉球",
    "runner_name": "仲筋",
    "total_distance_km": 201.7,
    "latitude": 34.84831075685337,
    "longitude": 138.18034247308293,
    "is_shadow_confederation": false
  },
  {
    "rank": 3,
    "team_name": "福岡大学",
    "team_short_name": "福岡",
    "runner_name": "福岡",
    "total_distance_km": 192.3,
    "latitude": 34.891899643095826,
    "longitude": 138.26264326316385,
    "is_shadow_confederation": false
  },
  {
    "rank": 4,
    "team_name": "鹿児島大学",
    "team_short_name": "鹿大",
    "runner_name": "川内（鹿児島）",
    "total_distance_km": 192.2,
    "latitude": 34.89227922444731,
    "longitude": 138.2636355173624,
    "is_shadow_confederation": false
  },
  {
    "rank": 5,
    "team_name": "立命館大学",
    "team_short_name": "立命",
    "runner_name": "福知山",
    "total_distance_km": 187.0,
    "latitude": 34.924195333039954,
    "longitude": 138.29779336854483,
    "is_shadow_confederation": false
  },
  {
    "rank": 6,
    "team_name": "関西大学",
    "team_short_name": "関大",
    "runner_name": "和田山",
    "total_distance_km": 182.9,
    "latitude": 34.945485380957905,
    "longitude": 138.32989860696094,
    "is_shadow_confederation": false
  },
  {
    "rank": 7,
    "team_name": "広島経済大学",
    "team_short_name": "広経",
    "runner_name": "加計",
    "total_distance_km": 182.7,
    "latitude": 34.94718704248048,
    "longitude": 138.33062158008698,
    "is_shadow_confederation": false
  },
  {
    "rank": 8,
    "team_name": "四国大学",
    "team_short_name": "四国",
    "runner_name": "大三島",
    "total_distance_km": 180.8,
    "latitude": 34.9489358065441,
    "longitude": 138.3482122594913,
    "is_shadow_confederation": false
  },
  {
    "rank": 9,
    "team_name": "三重大学",
    "team_short_name": "三重",
    "runner_name": "五條",
    "total_distance_km": 179.7,
    "latitude": 34.94930540643402,
    "longitude": 138.3595421248981,
    "is_shadow_confederation": false
  },
  {
    "rank": 10,
    "team_name": "金沢大学",
    "team_short_name": "金沢",
    "runner_name": "小浜",
    "total_distance_km": 179.1,
    "latitude": 34.952316097955986,
    "longitude": 138.36499889699195,
    "is_shadow_confederation": false
  },
  {
    "rank": 11,
    "team_name": "鳥取大学",
    "team_short_name": "鳥取",
    "runner_name": "鳥取",
    "total_distance_km": 177.5,
    "latitude": 34.96271940523743,
    "longitude": 138.37677038045965,
    "is_shadow_confederation": false
  },
  {
    "rank": 12,
    "team_name": "名古屋大学",
    "team_short_name": "名大",
    "runner_name": "美濃",
    "total_distance_km": 176.1,
    "latitude": 34.97210800710749,
    "longitude": 138.3869662563777,
    "is_shadow_confederation": false
  },
  {
    "rank": 13,
    "team_name": "山梨学院大学",
    "team_short_name": "山学",
    "runner_name": "南信濃",
    "total_distance_km": 168.1,
    "latitude": 35.01490089850519,
    "longitude": 138.45676048425375,
    "is_shadow_confederation": false
  },
  {
    "rank": 14,
    "team_name": "日本大学",
    "team_short_name": "日大",
    "runner_name": "古河",
    "total_distance_km": 161.7,
    "latitude": 35.04574993777612,
    "longitude": 138.50618157198932,
    "is_shadow_confederation": false
  },
  {
    "rank": 15,
    "team_name": "上武大学",
    "team_short_name": "上武",
    "runner_name": "越谷",
    "total_distance_km": 161.6,
    "latitude": 35.04601066767607,
    "longitude": 138.5071748638717,
    "is_shadow_confederation": false
  },
  {
    "rank": 16,
    "team_name": "福島大学",
    "team_short_name": "福島",
    "runner_name": "石川",
    "total_distance_km": 149.4,
    "latitude": 35.1146620178837,
    "longitude": 138.59422989463863,
    "is_shadow_confederation": false
  },
  {
    "rank": 17,
    "team_name": "東北大学",
    "team_short_name": "東北",
    "runner_name": "山形（山形）",
    "total_distance_km": 129.9,
    "latitude": 35.125220287346096,
    "longitude": 138.7878287410919,
    "is_shadow_confederation": false
  },
  {
    "rank": 18,
    "team_name": "学連選抜",
    "team_short_name": "学連",
    "runner_name": "新潟",
    "total_distance_km": 122.7,
    "latitude": 35.0993112376241,
    "longitude": 138.8588638675448,
    "is_shadow_confederation": false
  }
]