[
  {
    "rank": 1,
    "team_name": "琉球大学",
    "team_short_name": "琉球",
    "runner_name": "西表島",
    "total_distance_km": 809.3,
    "latitude": 34.404428950705565,
    "longitude": 132.97070441214825,
    "is_shadow_confederation": false
  },
  {
    "rank": 2,
    "team_name": "熊本学園大学",
    "team_short_name": "熊学",
    "runner_name": "三角",
    "total_distance_km": 760.2,
    "latitude": 34.49590209467626,
    "longitude": 133.41406433782493,
    "is_shadow_confederation": false
  },
  {
    "rank": 3,
    "team_name": "名古屋大学",
    "team_short_name": "名大",
    "runner_name": "名古屋",
    "total_distance_km": 741.4,
    "latitude": 34.52874017895525,
    "longitude": 133.59298016599405,
    "is_shadow_confederation": false
  },
  {
    "rank": 4,
    "team_name": "福岡大学",
    "team_short_name": "福岡",
    "runner_name": "口之津",
    "total_distance_km": 741.2,
    "latitude": 34.529546041205265,
    "longitude": 133.594928893811,
    "is_shadow_confederation": false
  },
  {
    "rank": 5,
    "team_name": "鹿児島大学",
    "team_short_name": "鹿大",
    "runner_name": "鹿児島",
    "total_distance_km": 740.4,
    "latitude": 34.53359518689369,
    "longitude": 133.60210272902972,
    "is_shadow_confederation": false
  },
  {
    "rank": 6,
    "team_name": "関西大学",
    "team_short_name": "関大",
    "runner_name": "八尾（大阪）",
    "total_distance_km": 740.1,
    "latitude": 34.53454649477501,
    "longitude": 133.60515428218497,
    "is_shadow_confederation": false
  },
  {
    "rank": 7,
    "team_name": "鳥取大学",
    "team_short_name": "鳥取",
    "runner_name": "米子",
    "total_distance_km": 733.4,
    "latitude": 34.55554443305923,
    "longitude": 133.66987950251354,
    "is_shadow_confederation": false
  },
  {
    "rank": 8,
    "team_name": "立命館大学",
    "team_short_name": "立命",
    "runner_name": "長浜（滋賀）",
    "total_distance_km": 732.5,
    "latitude": 34.558244742665686,
    "longitude": 133.67844319853089,
    "is_shadow_confederation": false
  },
  {
    "rank": 9,
    "team_name": "広島経済大学",
    "team_short_name": "広経",
    "runner_name": "福山",
    "total_distance_km": 730.7,
    "latitude": 34.5692523195564,
    "longitude": 133.6928181367708,
    "is_shadow_confederation": false
  },
  {
    "rank": 10,
    "team_name": "四国大学",
    "team_short_name": "四国",
    "runner_name": "新居浜",
    "total_distance_km": 730.1,
    "latitude": 34.573168221073814,
    "longitude": 133.69732829698324,
    "is_shadow_confederation": false
  },
  {
    "rank": 11,
    "team_name": "上武大学",
    "team_short_name": "上武",
    "runner_name": "小山",
    "total_distance_km": 718.6,
    "latitude": 34.62537155918251,
    "longitude": 133.79680903181963,
    "is_shadow_confederation": false
  },
  {
    "rank": 12,
    "team_name": "山梨学院大学",
    "team_short_name": "山学",
    "runner_name": "三島",
    "total_distance_km": 717.2,
    "latitude": 34.632556406062754,
    "longitude": 133.80936078976552,
    "is_shadow_confederation": false
  },
  {
    "rank": 13,
    "team_name": "金沢大学",
    "team_short_name": "金沢",
    "runner_name": "敦賀",
    "total_distance_km": 711.3,
    "latitude": 34.6460553237727,
    "longitude": 133.8686303563644,
    "is_shadow_confederation": false
  },
  {
    "rank": 14,
    "team_name": "三重大学",
    "team_short_name": "三重",
    "runner_name": "津",
    "total_distance_km": 710.9,
    "latitude": 34.647393315898015,
    "longitude": 133.8726818829562,
    "is_shadow_confederation": false
  },
  {
    "rank": 15,
    "team_name": "日本大学",
    "team_short_name": "日大",
    "runner_name": "練馬",
    "total_distance_km": 689.4,
    "latitude": 34.71027245366619,
    "longitude": 134.08315482486012,
    "is_shadow_confederation": false
  },
  {
    "rank": 16,
    "team_name": "学連選抜",
    "team_short_name": "学連",
    "runner_name": "多度津",
    "total_distance_km": 660.9,
    "latitude": 34.84313601691564,
    "longitude": 134.32598485942435,
    "is_shadow_confederation": false
  },
  {
    "rank": 17,
    "team_name": "福島大学",
    "team_short_name": "福島",
    "runner_name": "浪江",
    "total_distance_km": 650.4,
    "latitude": 34.832434568694865,
    "longitude": 134.43201633448675,
    "is_shadow_confederation": false
  },
  {
    "rank": 18,
    "team_name": "東北大学",
    "team_short_name": "東北",
    "runner_name": "丸森",
    "total_distance_km": 644.6,
    "latitude": 34.82010494883747,
    "longitude": 134.4892200259981,
    "is_shadow_confederation": false
  }
]