[
  {
    "rank": 1,
    "team_name": "名古屋大学",
    "team_short_name": "名大",
    "runner_name": "美濃加茂",
    "total_distance_km": 64.3,
    "latitude": 35.31572290963662,
    "longitude": 139.34882622026066,
    "is_shadow_confederation": false
  },
  {
    "rank": 2,
    "team_name": "三重大学",
    "team_short_name": "三重",
    "runner_name": "粥見",
    "total_distance_km": 62.4,
    "latitude": 35.31855059247734,
    "longitude": 139.36927272224594,
    "is_shadow_confederation": false
  },
  {
    "rank": 3,
    "team_name": "立命館大学",
    "team_short_name": "立命",
    "runner_name": "東近江",
    "total_distance_km": 61.9,
    "latitude": 35.31990430664247,
    "longitude": 139.37451734157492,
    "is_shadow_confederation": false
  },
  {
    "rank": 4,
    "team_name": "福岡大学",
    "team_short_name": "福岡",
    "runner_name": "久留米",
    "total_distance_km": 61.6,
    "latitude": 35.319919536881464,
    "longitude": 139.37752299870897,
    "is_shadow_confederation": false
  },
  {
    "rank": 5,
    "team_name": "金沢大学",
    "team_short_name": "金沢",
    "runner_name": "秋ヶ島",
    "total_distance_km": 61.5,
    "latitude": 35.31941557830462,
    "longitude": 139.37843475593442,
    "is_shadow_confederation": false
  },
  {
    "rank": 6,
    "team_name": "関西大学",
    "team_short_name": "関大",
    "runner_name": "福崎",
    "total_distance_km": 60.7,
    "latitude": 35.317102635844854,
    "longitude": 139.38637529798316,
    "is_shadow_confederation": false
  },
  {
    "rank": 7,
    "team_name": "山梨学院大学",
    "team_short_name": "山学",
    "runner_name": "長野",
    "total_distance_km": 60.3,
    "latitude": 35.317541258529644,
    "longitude": 139.39074143362805,
    "is_shadow_confederation": false
  },
  {
    "rank": 8,
    "team_name": "鳥取大学",
    "team_short_name": "鳥取",
    "runner_name": "川本",
    "total_distance_km": 60.1,
    "latitude": 35.31776056987204,
    "longitude": 139.3929245014505,
    "is_shadow_confederation": false
  },
  {
    "rank": 9,
    "team_name": "琉球大学",
    "team_short_name": "琉球",
    "runner_name": "北原",
    "total_distance_km": 59.9,
    "latitude": 35.317979881214434,
    "longitude": 139.39510756927294,
    "is_shadow_confederation": false
  },
  {
    "rank": 10,
    "team_name": "広島経済大学",
    "team_short_name": "広経",
    "runner_name": "三次",
    "total_distance_km": 59.1,
    "latitude": 35.31885712658402,
    "longitude": 139.4038398405627,
    "is_shadow_confederation": false
  },
  {
    "rank": 11,
    "team_name": "日本大学",
    "team_short_name": "日大",
    "runner_name": "大子",
    "total_distance_km": 58.8,
    "latitude": 35.31875193435577,
    "longitude": 139.40711785774218,
    "is_shadow_confederation": false
  },
  {
    "rank": 12,
    "team_name": "四国大学",
    "team_short_name": "四国",
    "runner_name": "穴吹",
    "total_distance_km": 58.6,
    "latitude": 35.31855562497749,
    "longitude": 139.40930419517147,
    "is_shadow_confederation": false
  },
  {
    "rank": 13,
    "team_name": "上武大学",
    "team_short_name": "上武",
    "runner_name": "佐野",
    "total_distance_km": 57.3,
    "latitude": 35.31912567047649,
    "longitude": 139.42333808026854,
    "is_shadow_confederation": false
  },
  {
    "rank": 14,
    "team_name": "学連選抜",
    "team_short_name": "学連",
    "runner_name": "美幌",
    "total_distance_km": 55.6,
    "latitude": 35.32447604993152,
    "longitude": 139.43990792498067,
    "is_shadow_confederation": false
  },
  {
    "rank": 15,
    "team_name": "熊本学園大学",
    "team_short_name": "熊学",
    "runner_name": "甲佐",
    "total_distance_km": 54.7,
    "latitude": 35.3267489255801,
    "longitude": 139.44934008653507,
    "is_shadow_confederation": false
  },
  {
    "rank": 16,
    "team_name": "福島大学",
    "team_short_name": "福島",
    "runner_name": "梁川",
    "total_distance_km": 53.3,
    "latitude": 35.33278111486726,
    "longitude": 139.46255612741018,
    "is_shadow_confederation": false
  },
  {
    "rank": 17,
    "team_name": "鹿児島大学",
    "team_short_name": "鹿大",
    "runner_name": "東市来",
    "total_distance_km": 51.0,
    "latitude": 35.34258238106255,
    "longitude": 139.48251717058085,
    "is_shadow_confederation": false
  },
  {
    "rank": 18,
    "team_name": "東北大学",
    "team_short_name": "東北",
    "runner_name": "帯広",
    "total_distance_km": 48.8,
    "latitude": 35.35931227617285,
    "longitude": 139.49392059540392,
    "is_shadow_confederation": false
  },
  {
    "rank": null,
    "team_name": "区間記録連合",
    "team_short_name": "区間記録",
    "runner_name": "梁川",
    "total_distance_km": 78.0,
    "latitude": 35.279813673019476,
    "longitude": 139.21040907700936,
    "is_shadow_confederation": true
  }
]