[
  {
    "rank": 1,
    "team_name": "琉球大学",
    "team_short_name": "琉球",
    "runner_name": "名護",
    "total_distance_km": 335.2,
    "latitude": 35.02549930014675,
    "longitude": 137.0249303968094,
    "is_shadow_confederation": false
  },
  {
    "rank": 2,
    "team_name": "鹿児島大学",
    "team_short_name": "鹿大",
    "runner_name": "加久藤",
    "total_distance_km": 251.7,
    "latitude": 34.700965234026974,
    "longitude": 137.72749787001376,
    "is_shadow_confederation": false
  },
  {
    "rank": 3,
    "team_name": "熊本学園大学",
    "team_short_name": "熊学",
    "runner_name": "八代",
    "total_distance_km": 244.4,
    "latitude": 34.729155818200816,
    "longitude": 137.7907573836699,
    "is_shadow_confederation": false
  },
  {
    "rank": 4,
    "team_name": "福岡大学",
    "team_short_name": "福岡",
    "runner_name": "福岡",
    "total_distance_km": 227.2,
    "latitude": 34.7628779909217,
    "longitude": 137.96443167633606,
    "is_shadow_confederation": false
  },
  {
    "rank": 5,
    "team_name": "名古屋大学",
    "team_short_name": "名大",
    "runner_name": "美濃",
    "total_distance_km": 211.2,
    "latitude": 34.821049287584614,
    "longitude": 138.10399095186443,
    "is_shadow_confederation": false
  },
  {
    "rank": 6,
    "team_name": "日本大学",
    "team_short_name": "日大",
    "runner_name": "古河",
    "total_distance_km": 202.1,
    "latitude": 34.848397883338095,
    "longitude": 138.17606935884177,
    "is_shadow_confederation": false
  },
  {
    "rank": 6,
    "team_name": "四国大学",
    "team_short_name": "四国",
    "runner_name": "大三島",
    "total_distance_km": 202.1,
    "latitude": 34.848397883338095,
    "longitude": 138.17606935884177,
    "is_shadow_confederation": false
  },
  {
    "rank": 8,
    "team_name": "上武大学",
    "team_short_name": "上武",
    "runner_name": "越谷",
    "total_distance_km": 200.7,
    "latitude": 34.8504179882141,
    "longitude": 138.19057263925635,
    "is_shadow_confederation": false
  },
  {
    "rank": 9,
    "team_name": "三重大学",
    "team_short_name": "三重",
    "runner_name": "五條",
    "total_distance_km": 196.2,
    "latitude": 34.871811851697636,
    "longitude": 138.22892409947548,
    "is_shadow_confederation": false
  },
  {
    "rank": 10,
    "team_name": "広島経済大学",
    "team_short_name": "広経",
    "runner_name": "加計",
    "total_distance_km": 186.0,
    "latitude": 34.93091501988063,
    "longitude": 138.3035747585641,
    "is_shadow_confederation": false
  },
  {
    "rank": 11,
    "team_name": "関西大学",
    "team_short_name": "関大",
    "runner_name": "和田山",
    "total_distance_km": 181.8,
    "latitude": 34.95084145813709,
    "longitude": 138.33751953921873,
    "is_shadow_confederation": false
  },
  {
    "rank": 12,
    "team_name": "鳥取大学",
    "team_short_name": "鳥取",
    "runner_name": "鳥取",
    "total_distance_km": 180.8,
    "latitude": 34.9489358065441,
    "longitude": 138.3482122594913,
    "is_shadow_confederation": false
  },
  {
    "rank": 13,
    "team_name": "立命館大学",
    "team_short_name": "立命",
    "runner_name": "福知山",
    "total_distance_km": 172.0,
    "latitude": 34.99369339037642,
    "longitude": 138.422732164947,
    "is_shadow_confederation": false
  },
  {
    "rank": 14,
    "team_name": "福島大学",
    "team_short_name": "福島",
    "runner_name": "石川",
    "total_distance_km": 165.2,
    "latitude": 35.023741343656106,
    "longitude": 138.48422386708063,
    "is_shadow_confederation": false
  },
  {
    "rank": 15,
    "team_name": "山梨学院大学",
    "team_short_name": "山学",
    "runner_name": "南信濃",
    "total_distance_km": 154.3,
    "latitude": 35.09480654903946,
    "longitude": 138.55120691218548,
    "is_shadow_confederation": false
  },
  {
    "rank": 16,
    "team_name": "金沢大学",
    "team_short_name": "金沢",
    "runner_name": "小浜",
    "total_distance_km": 143.6,
    "latitude": 35.13252631600566,
    "longitude": 138.64575119854166,
    "is_shadow_confederation": false
  },
  {
    "rank": 17,
    "team_name": "東北大学",
    "team_short_name": "東北",
    "runner_name": "帯広",
    "total_distance_km": 98.9,
    "latitude": 35.19161240751656,
    "longitude": 139.04559818989182,
    "is_shadow_confederation": false
  },
  {
    "rank": 18,
    "team_name": "学連選抜",
    "team_short_name": "学連",
    "runner_name": "美幌",
    "total_distance_km": 38.3,
    "latitude": 35.42230968315328,
    "longitude": 139.56491436477918,
    "is_shadow_confederation": false
  },
  {
    "rank": null,
    "team_name": "区間記録連合",
    "team_short_name": "区間記録",
    "runner_name": "風屋",
    "total_distance_km": 354.4,
    "latitude": 35.12503690649312,
    "longitude": 136.87309027726346,
    "is_shadow_confederation": true
  }
]