[
  {
    "rank": 1,
    "team_name": "琉球大学",
    "team_short_name": "琉球",
    "runner_name": "久米島",
    "total_distance_km": 613.8,
    "latitude": 34.79304693453275,
    "longitude": 134.79071087004414,
    "is_shadow_confederation": false
  },
  {
    "rank": 2,
    "team_name": "鹿児島大学",
    "team_short_name": "鹿大",
    "runner_name": "西都",
    "total_distance_km": 486.8,
    "latitude": 35.009352049492456,
    "longitude": 135.77911844532514,
    "is_shadow_confederation": false
  },
  {
    "rank": 3,
    "team_name": "熊本学園大学",
    "team_short_name": "熊学",
    "runner_name": "熊本",
    "total_distance_km": 476.5,
    "latitude": 35.00217028674679,
    "longitude": 135.86908826162582,
    "is_shadow_confederation": false
  },
  {
    "rank": 4,
    "team_name": "福岡大学",
    "team_short_name": "福岡",
    "runner_name": "前原",
    "total_distance_km": 454.2,
    "latitude": 35.01087733450189,
    "longitude": 136.0695270404864,
    "is_shadow_confederation": false
  },
  {
    "rank": 5,
    "team_name": "四国大学",
    "team_short_name": "四国",
    "runner_name": "大洲",
    "total_distance_km": 417.2,
    "latitude": 34.85490137322369,
    "longitude": 136.3852248653949,
    "is_shadow_confederation": false
  },
  {
    "rank": 6,
    "team_name": "名古屋大学",
    "team_short_name": "名大",
    "runner_name": "多治見",
    "total_distance_km": 416.6,
    "latitude": 34.85267821627689,
    "longitude": 136.3911444517423,
    "is_shadow_confederation": false
  },
  {
    "rank": 7,
    "team_name": "広島経済大学",
    "team_short_name": "広経",
    "runner_name": "大竹",
    "total_distance_km": 406.1,
    "latitude": 34.8681145836448,
    "longitude": 136.4904440209181,
    "is_shadow_confederation": false
  },
  {
    "rank": 8,
    "team_name": "上武大学",
    "team_short_name": "上武",
    "runner_name": "寄居",
    "total_distance_km": 404.8,
    "latitude": 34.87667523921544,
    "longitude": 136.49930209696885,
    "is_shadow_confederation": false
  },
  {
    "rank": 9,
    "team_name": "日本大学",
    "team_short_name": "日大",
    "runner_name": "小田原",
    "total_distance_km": 404.5,
    "latitude": 34.877534516256624,
    "longitude": 136.50238859820038,
    "is_shadow_confederation": false
  },
  {
    "rank": 10,
    "team_name": "三重大学",
    "team_short_name": "三重",
    "runner_name": "風屋",
    "total_distance_km": 397.7,
    "latitude": 34.91156981550563,
    "longitude": 136.55221935880306,
    "is_shadow_confederation": false
  },
  {
    "rank": 11,
    "team_name": "関西大学",
    "team_short_name": "関大",
    "runner_name": "柏原",
    "total_distance_km": 391.3,
    "latitude": 34.94328959007209,
    "longitude": 136.60326988034853,
    "is_shadow_confederation": false
  },
  {
    "rank": 12,
    "team_name": "鳥取大学",
    "team_short_name": "鳥取",
    "runner_name": "防府",
    "total_distance_km": 381.7,
    "latitude": 35.01241892290878,
    "longitude": 136.65931949536164,
    "is_shadow_confederation": false
  },
  {
    "rank": 13,
    "team_name": "立命館大学",
    "team_short_name": "立命",
    "runner_name": "米原",
    "total_distance_km": 377.6,
    "latitude": 35.04455463103667,
    "longitude": 136.67638998165648,
    "is_shadow_confederation": false
  },
  {
    "rank": 14,
    "team_name": "山梨学院大学",
    "team_short_name": "山学",
    "runner_name": "浜松",
    "total_distance_km": 354.5,
    "latitude": 35.12498476031948,
    "longitude": 136.8719950155501,
    "is_shadow_confederation": false
  },
  {
    "rank": 15,
    "team_name": "福島大学",
    "team_short_name": "福島",
    "runner_name": "長岡",
    "total_distance_km": 348.1,
    "latitude": 35.10167360030673,
    "longitude": 136.92526214968348,
    "is_shadow_confederation": false
  },
  {
    "rank": 16,
    "team_name": "金沢大学",
    "team_short_name": "金沢",
    "runner_name": "七尾",
    "total_distance_km": 319.2,
    "latitude": 34.95435570152729,
    "longitude": 137.1735834190589,
    "is_shadow_confederation": false
  },
  {
    "rank": 17,
    "team_name": "東北大学",
    "team_short_name": "東北",
    "runner_name": "高畠",
    "total_distance_km": 274.6,
    "latitude": 34.68574685557637,
    "longitude": 137.50003111675804,
    "is_shadow_confederation": false
  },
  {
    "rank": 18,
    "team_name": "学連選抜",
    "team_short_name": "学連",
    "runner_name": "新潟",
    "total_distance_km": 167.6,
    "latitude": 35.01623135363531,
    "longitude": 138.461971397247,
    "is_shadow_confederation": false
  },
  {
    "rank": null,
    "team_name": "区間記録連合",
    "team_short_name": "区間記録",
    "runner_name": "勝沼",
    "total_distance_km": 654.9,
    "latitude": 34.8282708555699,
    "longitude": 134.38427741583192,
    "is_shadow_confederation": true
  }
]