[
  {
    "rank": 1,
    "team_name": "琉球大学",
    "team_short_name": "琉球",
    "runner_name": "仲筋",
    "total_distance_km": 162.5,
    "latitude": 35.04277086269866,
    "longitude": 138.4984744044878,
    "is_shadow_confederation": false
  },
  {
    "rank": 2,
    "team_name": "鹿児島大学",
    "team_short_name": "鹿大",
    "runner_name": "川内（鹿児島）",
    "total_distance_km": 115.2,
    "latitude": 35.12383017276878,
    "longitude": 138.9324988690889,
    "is_shadow_confederation": false
  },
  {
    "rank": 3,
    "team_name": "熊本学園大学",
    "team_short_name": "熊学",
    "runner_name": "甲佐",
    "total_distance_km": 109.6,
    "latitude": 35.14725916454807,
    "longitude": 138.97934994906845,
    "is_shadow_confederation": false
  },
  {
    "rank": 4,
    "team_name": "福岡大学",
    "team_short_name": "福岡",
    "runner_name": "久留米",
    "total_distance_km": 104.0,
    "latitude": 35.17339011617464,
    "longitude": 139.00884565454612,
    "is_shadow_confederation": false
  },
  {
    "rank": 5,
    "team_name": "四国大学",
    "team_short_name": "四国",
    "runner_name": "穴吹",
    "total_distance_km": 89.5,
    "latitude": 35.23058954660259,
    "longitude": 139.10833792540092,
    "is_shadow_confederation": false
  },
  {
    "rank": 6,
    "team_name": "三重大学",
    "team_short_name": "三重",
    "runner_name": "粥見",
    "total_distance_km": 89.0,
    "latitude": 35.23270311061273,
    "longitude": 139.1129679908097,
    "is_shadow_confederation": false
  },
  {
    "rank": 7,
    "team_name": "名古屋大学",
    "team_short_name": "名大",
    "runner_name": "美濃加茂",
    "total_distance_km": 88.7,
    "latitude": 35.23517474891768,
    "longitude": 139.1143047190081,
    "is_shadow_confederation": false
  },
  {
    "rank": 8,
    "team_name": "日本大学",
    "team_short_name": "日大",
    "runner_name": "大子",
    "total_distance_km": 85.4,
    "latitude": 35.245718871110284,
    "longitude": 139.14500992271113,
    "is_shadow_confederation": false
  },
  {
    "rank": 9,
    "team_name": "上武大学",
    "team_short_name": "上武",
    "runner_name": "佐野",
    "total_distance_km": 84.5,
    "latitude": 35.24725440118516,
    "longitude": 139.15471688235456,
    "is_shadow_confederation": false
  },
  {
    "rank": 10,
    "team_name": "関西大学",
    "team_short_name": "関大",
    "runner_name": "福崎",
    "total_distance_km": 81.6,
    "latitude": 35.26140410599564,
    "longitude": 139.17943677039037,
    "is_shadow_confederation": false
  },
  {
    "rank": 11,
    "team_name": "立命館大学",
    "team_short_name": "立命",
    "runner_name": "東近江",
    "total_distance_km": 75.9,
    "latitude": 35.28685921613357,
    "longitude": 139.2315090296322,
    "is_shadow_confederation": false
  },
  {
    "rank": 12,
    "team_name": "鳥取大学",
    "team_short_name": "鳥取",
    "runner_name": "川本",
    "total_distance_km": 74.4,
    "latitude": 35.29367689981352,
    "longitude": 139.24548944404808,
    "is_shadow_confederation": false
  },
  {
    "rank": 13,
    "team_name": "広島経済大学",
    "team_short_name": "広経",
    "runner_name": "三次",
    "total_distance_km": 73.7,
    "latitude": 35.29607836864676,
    "longitude": 139.25260112725059,
    "is_shadow_confederation": false
  },
  {
    "rank": 14,
    "team_name": "福島大学",
    "team_short_name": "福島",
    "runner_name": "梁川",
    "total_distance_km": 72.5,
    "latitude": 35.300324912359194,
    "longitude": 139.26471421879032,
    "is_shadow_confederation": false
  },
  {
    "rank": 15,
    "team_name": "金沢大学",
    "team_short_name": "金沢",
    "runner_name": "秋ヶ島",
    "total_distance_km": 57.6,
    "latitude": 35.318414191917626,
    "longitude": 139.42015519190085,
    "is_shadow_confederation": false
  },
  {
    "rank": 16,
    "team_name": "山梨学院大学",
    "team_short_name": "山学",
    "runner_name": "長野",
    "total_distance_km": 51.4,
    "latitude": 35.34083298252227,
    "longitude": 139.47879520927395,
    "is_shadow_confederation": false
  },
  {
    "rank": 17,
    "team_name": "東北大学",
    "team_short_name": "東北",
    "runner_name": "帯広",
    "total_distance_km": 41.3,
    "latitude": 35.41363945854297,
    "longitude": 139.5358184323351,
    "is_shadow_confederation": false
  },
  {
    "rank": 18,
    "team_name": "学連選抜",
    "team_short_name": "学連",
    "runner_name": "美幌",
    "total_distance_km": 3.5,
    "latitude": 35.660157417763976,
    "longitude": 139.7491935555789,
    "is_shadow_confederation": false
  },
  {
    "rank": null,
    "team_name": "区間記録連合",
    "team_short_name": "区間記録",
    "runner_name": "佐野",
    "total_distance_km": 221.2,
    "latitude": 34.77820797323534,
    "longitude": 138.0237578334833,
    "is_shadow_confederation": true
  }
]