[
  {
    "rank": 1,
    "team_name": "琉球大学",
    "team_short_name": "琉球",
    "runner_name": "久米島",
    "total_distance_km": 579.3,
    "latitude": 34.63397980486459,
    "longitude": 135.08607287735782,
    "is_shadow_confederation": false
  },
  {
    "rank": 2,
    "team_name": "熊本学園大学",
    "team_short_name": "熊学",
    "runner_name": "大分",
    "total_distance_km": 546.5,
    "latitude": 34.72390753610042,
    "longitude": 135.40388646704915,
    "is_shadow_confederation": false
  },
  {
    "rank": 3,
    "team_name": "福岡大学",
    "team_short_name": "福岡",
    "runner_name": "前原",
    "total_distance_km": 526.5,
    "latitude": 34.743074584939556,
    "longitude": 135.56981610839927,
    "is_shadow_confederation": false
  },
  {
    "rank": 4,
    "team_name": "立命館大学",
    "team_short_name": "立命",
    "runner_name": "舞鶴",
    "total_distance_km": 522.2,
    "latitude": 34.7692724292385,
    "longitude": 135.6040663883342,
    "is_shadow_confederation": false
  },
  {
    "rank": 5,
    "team_name": "鹿児島大学",
    "team_short_name": "鹿大",
    "runner_name": "西都",
    "total_distance_km": 519.0,
    "latitude": 34.79145502790963,
    "longitude": 135.62529635680943,
    "is_shadow_confederation": false
  },
  {
    "rank": 6,
    "team_name": "関西大学",
    "team_short_name": "関大",
    "runner_name": "枚方",
    "total_distance_km": 518.0,
    "latitude": 34.79971979076522,
    "longitude": 135.6292527227432,
    "is_shadow_confederation": false
  },
  {
    "rank": 7,
    "team_name": "四国大学",
    "team_short_name": "四国",
    "runner_name": "大洲",
    "total_distance_km": 515.9,
    "latitude": 34.805551851335544,
    "longitude": 135.6500760723536,
    "is_shadow_confederation": false
  },
  {
    "rank": 8,
    "team_name": "鳥取大学",
    "team_short_name": "鳥取",
    "runner_name": "境",
    "total_distance_km": 515.5,
    "latitude": 34.80719952304194,
    "longitude": 135.65396447832336,
    "is_shadow_confederation": false
  },
  {
    "rank": 9,
    "team_name": "名古屋大学",
    "team_short_name": "名大",
    "runner_name": "多治見",
    "total_distance_km": 514.1,
    "latitude": 34.81296637401432,
    "longitude": 135.66757389921753,
    "is_shadow_confederation": false
  },
  {
    "rank": 10,
    "team_name": "広島経済大学",
    "team_short_name": "広経",
    "runner_name": "高梁",
    "total_distance_km": 513.6,
    "latitude": 34.816044021213365,
    "longitude": 135.6715203147083,
    "is_shadow_confederation": false
  },
  {
    "rank": 11,
    "team_name": "三重大学",
    "team_short_name": "三重",
    "runner_name": "奈良",
    "total_distance_km": 504.8,
    "latitude": 34.8754836073851,
    "longitude": 135.73298846807222,
    "is_shadow_confederation": false
  },
  {
    "rank": 12,
    "team_name": "山梨学院大学",
    "team_short_name": "山学",
    "runner_name": "甲府",
    "total_distance_km": 504.1,
    "latitude": 34.88081249302871,
    "longitude": 135.73708853082476,
    "is_shadow_confederation": false
  },
  {
    "rank": 13,
    "team_name": "金沢大学",
    "team_short_name": "金沢",
    "runner_name": "福井",
    "total_distance_km": 503.6,
    "latitude": 34.884618839917,
    "longitude": 135.7400171470766,
    "is_shadow_confederation": false
  },
  {
    "rank": 14,
    "team_name": "上武大学",
    "team_short_name": "上武",
    "runner_name": "桐生",
    "total_distance_km": 503.1,
    "latitude": 34.888465487185194,
    "longitude": 135.74285362672885,
    "is_shadow_confederation": false
  },
  {
    "rank": 15,
    "team_name": "日本大学",
    "team_short_name": "日大",
    "runner_name": "牛久",
    "total_distance_km": 485.0,
    "latitude": 35.00236492671096,
    "longitude": 135.79230340672652,
    "is_shadow_confederation": false
  },
  {
    "rank": 16,
    "team_name": "福島大学",
    "team_short_name": "福島",
    "runner_name": "福島",
    "total_distance_km": 458.0,
    "latitude": 35.02724255116074,
    "longitude": 136.03315621724252,
    "is_shadow_confederation": false
  },
  {
    "rank": 17,
    "team_name": "東北大学",
    "team_short_name": "東北",
    "runner_name": "一関",
    "total_distance_km": 457.7,
    "latitude": 35.02616675358199,
    "longitude": 136.03617220492436,
    "is_shadow_confederation": false
  },
  {
    "rank": 18,
    "team_name": "学連選抜",
    "team_short_name": "学連",
    "runner_name": "久世",
    "total_distance_km": 446.3,
    "latitude": 34.98291441413132,
    "longitude": 136.1443513928698,
    "is_shadow_confederation": false
  }
]