[
  {
    "rank": 1,
    "team_name": "琉球大学",
    "team_short_name": "琉球",
    "runner_name": "石垣島",
    "total_distance_km": 1005.3,
    "latitude": 34.056623041596154,
    "longitude": 131.33766855077604,
    "is_shadow_confederation": false
  },
  {
    "rank": 2,
    "team_name": "鹿児島大学",
    "team_short_name": "鹿大",
    "runner_name": "さつま柏原",
    "total_distance_km": 842.3,
    "latitude": 34.447771602341504,
    "longitude": 132.66201790980656,
    "is_shadow_confederation": false
  },
  {
    "rank": 3,
    "team_name": "熊本学園大学",
    "team_short_name": "熊学",
    "runner_name": "三角",
    "total_distance_km": 811.8,
    "latitude": 34.397274145110806,
    "longitude": 132.94825862959362,
    "is_shadow_confederation": false
  },
  {
    "rank": 4,
    "team_name": "福岡大学",
    "team_short_name": "福岡",
    "runner_name": "大牟田",
    "total_distance_km": 799.6,
    "latitude": 34.39227237340967,
    "longitude": 133.06424909429862,
    "is_shadow_confederation": false
  },
  {
    "rank": 5,
    "team_name": "四国大学",
    "team_short_name": "四国",
    "runner_name": "江川崎",
    "total_distance_km": 757.1,
    "latitude": 34.498118120503605,
    "longitude": 133.443696691477,
    "is_shadow_confederation": false
  },
  {
    "rank": 6,
    "team_name": "広島経済大学",
    "team_short_name": "広経",
    "runner_name": "福山",
    "total_distance_km": 738.8,
    "latitude": 34.53599947162201,
    "longitude": 133.6190611015021,
    "is_shadow_confederation": false
  },
  {
    "rank": 7,
    "team_name": "鳥取大学",
    "team_short_name": "鳥取",
    "runner_name": "米子",
    "total_distance_km": 722.8,
    "latitude": 34.599314119329684,
    "longitude": 133.76489560079926,
    "is_shadow_confederation": false
  },
  {
    "rank": 8,
    "team_name": "関西大学",
    "team_short_name": "関大",
    "runner_name": "八尾（大阪）",
    "total_distance_km": 722.0,
    "latitude": 34.60412136012987,
    "longitude": 133.7713969074397,
    "is_shadow_confederation": false
  },
  {
    "rank": 9,
    "team_name": "名古屋大学",
    "team_short_name": "名大",
    "runner_name": "名古屋",
    "total_distance_km": 721.9,
    "latitude": 34.60472226522989,
    "longitude": 133.77220957076977,
    "is_shadow_confederation": false
  },
  {
    "rank": 10,
    "team_name": "三重大学",
    "team_short_name": "三重",
    "runner_name": "津",
    "total_distance_km": 709.6,
    "latitude": 34.64915034500565,
    "longitude": 133.8866283395579,
    "is_shadow_confederation": false
  },
  {
    "rank": 11,
    "team_name": "立命館大学",
    "team_short_name": "立命",
    "runner_name": "長浜（滋賀）",
    "total_distance_km": 692.1,
    "latitude": 34.70580259172912,
    "longitude": 134.05493673431997,
    "is_shadow_confederation": false
  },
  {
    "rank": 12,
    "team_name": "上武大学",
    "team_short_name": "上武",
    "runner_name": "小山",
    "total_distance_km": 676.2,
    "latitude": 34.75567637823382,
    "longitude": 134.21019350067817,
    "is_shadow_confederation": false
  },
  {
    "rank": 13,
    "team_name": "金沢大学",
    "team_short_name": "金沢",
    "runner_name": "敦賀",
    "total_distance_km": 671.3,
    "latitude": 34.78070173794604,
    "longitude": 134.25250391713362,
    "is_shadow_confederation": false
  },
  {
    "rank": 14,
    "team_name": "日本大学",
    "team_short_name": "日大",
    "runner_name": "練馬",
    "total_distance_km": 671.2,
    "latitude": 34.78102147838029,
    "longitude": 134.25352540426874,
    "is_shadow_confederation": false
  },
  {
    "rank": 15,
    "team_name": "山梨学院大学",
    "team_short_name": "山学",
    "runner_name": "三島",
    "total_distance_km": 662.3,
    "latitude": 34.83663659111915,
    "longitude": 134.31567152673372,
    "is_shadow_confederation": false
  },
  {
    "rank": 16,
    "team_name": "学連選抜",
    "team_short_name": "学連",
    "runner_name": "多度津",
    "total_distance_km": 622.0,
    "latitude": 34.82760980993932,
    "longitude": 134.71511281222828,
    "is_shadow_confederation": false
  },
  {
    "rank": 17,
    "team_name": "福島大学",
    "team_short_name": "福島",
    "runner_name": "浪江",
    "total_distance_km": 592.5,
    "latitude": 34.66746642616626,
    "longitude": 134.96078858558758,
    "is_shadow_confederation": false
  },
  {
    "rank": 18,
    "team_name": "東北大学",
    "team_short_name": "東北",
    "runner_name": "一関",
    "total_distance_km": 507.8,
    "latitude": 34.85666823734591,
    "longitude": 135.7101367770728,
    "is_shadow_confederation": false
  }
]