[
  {
    "rank": 1,
    "team_name": "名古屋大学",
    "team_short_name": "名大",
    "runner_name": "愛西",
    "total_distance_km": 410.6,
    "latitude": 34.85215424588882,
    "longitude": 136.45123135476132,
    "is_shadow_confederation": false
  },
  {
    "rank": 2,
    "team_name": "四国大学",
    "team_short_name": "四国",
    "runner_name": "松山",
    "total_distance_km": 404.4,
    "latitude": 34.87753983463627,
    "longitude": 136.50346228346928,
    "is_shadow_confederation": false
  },
  {
    "rank": 3,
    "team_name": "熊本学園大学",
    "team_short_name": "熊学",
    "runner_name": "人吉",
    "total_distance_km": 401.7,
    "latitude": 34.88600524711867,
    "longitude": 136.52832653981483,
    "is_shadow_confederation": false
  },
  {
    "rank": 4,
    "team_name": "立命館大学",
    "team_short_name": "立命",
    "runner_name": "米原",
    "total_distance_km": 401.6,
    "latitude": 34.886725370039876,
    "longitude": 136.5289845056185,
    "is_shadow_confederation": false
  },
  {
    "rank": 5,
    "team_name": "福岡大学",
    "team_short_name": "福岡",
    "runner_name": "朝倉",
    "total_distance_km": 401.3,
    "latitude": 34.888552853332996,
    "longitude": 136.53136663451912,
    "is_shadow_confederation": false
  },
  {
    "rank": 6,
    "team_name": "琉球大学",
    "team_short_name": "琉球",
    "runner_name": "名護",
    "total_distance_km": 400.0,
    "latitude": 34.89253737784004,
    "longitude": 136.5440629049861,
    "is_shadow_confederation": false
  },
  {
    "rank": 7,
    "team_name": "関西大学",
    "team_short_name": "関大",
    "runner_name": "柏原",
    "total_distance_km": 398.1,
    "latitude": 34.90843835471436,
    "longitude": 136.55055030368132,
    "is_shadow_confederation": false
  },
  {
    "rank": 8,
    "team_name": "日本大学",
    "team_short_name": "日大",
    "runner_name": "小田原",
    "total_distance_km": 397.4,
    "latitude": 34.91332623762191,
    "longitude": 136.55471340469623,
    "is_shadow_confederation": false
  },
  {
    "rank": 9,
    "team_name": "広島経済大学",
    "team_short_name": "広経",
    "runner_name": "大竹",
    "total_distance_km": 396.4,
    "latitude": 34.91447173948444,
    "longitude": 136.5651393677391,
    "is_shadow_confederation": false
  },
  {
    "rank": 10,
    "team_name": "鳥取大学",
    "team_short_name": "鳥取",
    "runner_name": "防府",
    "total_distance_km": 395.2,
    "latitude": 34.916714373994054,
    "longitude": 136.577610625053,
    "is_shadow_confederation": false
  },
  {
    "rank": 11,
    "team_name": "山梨学院大学",
    "team_short_name": "山学",
    "runner_name": "浜松",
    "total_distance_km": 394.1,
    "latitude": 34.92415361278177,
    "longitude": 136.58518986199076,
    "is_shadow_confederation": false
  },
  {
    "rank": 12,
    "team_name": "三重大学",
    "team_short_name": "三重",
    "runner_name": "風屋",
    "total_distance_km": 394.0,
    "latitude": 34.92480510886634,
    "longitude": 136.5859433272045,
    "is_shadow_confederation": false
  },
  {
    "rank": 13,
    "team_name": "上武大学",
    "team_short_name": "上武",
    "runner_name": "寄居",
    "total_distance_km": 392.5,
    "latitude": 34.93451530813792,
    "longitude": 136.59629082478193,
    "is_shadow_confederation": false
  },
  {
    "rank": 14,
    "team_name": "鹿児島大学",
    "team_short_name": "鹿大",
    "runner_name": "西米良",
    "total_distance_km": 387.0,
    "latitude": 34.9761433605798,
    "longitude": 136.6260835306481,
    "is_shadow_confederation": false
  },
  {
    "rank": 15,
    "team_name": "金沢大学",
    "team_short_name": "金沢",
    "runner_name": "志賀",
    "total_distance_km": 383.5,
    "latitude": 34.999798044161,
    "longitude": 136.65073220654673,
    "is_shadow_confederation": false
  },
  {
    "rank": 16,
    "team_name": "福島大学",
    "team_short_name": "福島",
    "runner_name": "長岡",
    "total_distance_km": 375.2,
    "latitude": 35.0644325861217,
    "longitude": 136.68598383485855,
    "is_shadow_confederation": false
  },
  {
    "rank": 17,
    "team_name": "学連選抜",
    "team_short_name": "学連",
    "runner_name": "上",
    "total_distance_km": 345.0,
    "latitude": 35.079028937610914,
    "longitude": 136.94339839878535,
    "is_shadow_confederation": false
  },
  {
    "rank": 18,
    "team_name": "東北大学",
    "team_short_name": "東北",
    "runner_name": "大館",
    "total_distance_km": 341.1,
    "latitude": 35.06129035227523,
    "longitude": 136.97992823700653,
    "is_shadow_confederation": false
  },
  {
    "rank": null,
    "team_name": "区間記録連合",
    "team_short_name": "区間記録",
    "runner_name": "風屋",
    "total_distance_km": 410.6,
    "latitude": 34.85215424588882,
    "longitude": 136.45123135476132,
    "is_shadow_confederation": true
  }
]