[
  {
    "rank": 1,
    "team_name": "琉球大学",
    "team_short_name": "琉球",
    "runner_name": "久米島",
    "total_distance_km": 641.1,
    "latitude": 34.826668425454855,
    "longitude": 134.52578191617766,
    "is_shadow_confederation": false
  },
  {
    "rank": 2,
    "team_name": "熊本学園大学",
    "team_short_name": "熊学",
    "runner_name": "大分",
    "total_distance_km": 596.5,
    "latitude": 34.69016933817992,
    "longitude": 134.92751429150215,
    "is_shadow_confederation": false
  },
  {
    "rank": 3,
    "team_name": "福岡大学",
    "team_short_name": "福岡",
    "runner_name": "博多",
    "total_distance_km": 585.2,
    "latitude": 34.638352749768046,
    "longitude": 135.02770860562424,
    "is_shadow_confederation": false
  },
  {
    "rank": 4,
    "team_name": "鹿児島大学",
    "team_short_name": "鹿大",
    "runner_name": "笠利",
    "total_distance_km": 580.0,
    "latitude": 34.63226447582068,
    "longitude": 135.07872640823712,
    "is_shadow_confederation": false
  },
  {
    "rank": 5,
    "team_name": "立命館大学",
    "team_short_name": "立命",
    "runner_name": "彦根",
    "total_distance_km": 570.9,
    "latitude": 34.67185761243062,
    "longitude": 135.162787474086,
    "is_shadow_confederation": false
  },
  {
    "rank": 6,
    "team_name": "関西大学",
    "team_short_name": "関大",
    "runner_name": "豊中",
    "total_distance_km": 570.0,
    "latitude": 34.67684381900152,
    "longitude": 135.17053402153252,
    "is_shadow_confederation": false
  },
  {
    "rank": 7,
    "team_name": "四国大学",
    "team_short_name": "四国",
    "runner_name": "徳島",
    "total_distance_km": 569.4,
    "latitude": 34.68016795671545,
    "longitude": 135.1756983864969,
    "is_shadow_confederation": false
  },
  {
    "rank": 8,
    "team_name": "鳥取大学",
    "team_short_name": "鳥取",
    "runner_name": "松江",
    "total_distance_km": 569.3,
    "latitude": 34.68072197966777,
    "longitude": 135.17655911399095,
    "is_shadow_confederation": false
  },
  {
    "rank": 9,
    "team_name": "広島経済大学",
    "team_short_name": "広経",
    "runner_name": "高松（香川）",
    "total_distance_km": 566.0,
    "latitude": 34.69765556560348,
    "longitude": 135.2050846643181,
    "is_shadow_confederation": false
  },
  {
    "rank": 10,
    "team_name": "名古屋大学",
    "team_short_name": "名大",
    "runner_name": "豊田（愛知）",
    "total_distance_km": 564.9,
    "latitude": 34.7023510899097,
    "longitude": 135.21565926505556,
    "is_shadow_confederation": false
  },
  {
    "rank": 11,
    "team_name": "山梨学院大学",
    "team_short_name": "山学",
    "runner_name": "静岡",
    "total_distance_km": 560.2,
    "latitude": 34.71832482575133,
    "longitude": 135.261247674575,
    "is_shadow_confederation": false
  },
  {
    "rank": 12,
    "team_name": "金沢大学",
    "team_short_name": "金沢",
    "runner_name": "富山",
    "total_distance_km": 557.3,
    "latitude": 34.72785301573519,
    "longitude": 135.29070455748234,
    "is_shadow_confederation": false
  },
  {
    "rank": 13,
    "team_name": "三重大学",
    "team_short_name": "三重",
    "runner_name": "新宮",
    "total_distance_km": 556.6,
    "latitude": 34.73009049388408,
    "longitude": 135.29785059069738,
    "is_shadow_confederation": false
  },
  {
    "rank": 14,
    "team_name": "上武大学",
    "team_short_name": "上武",
    "runner_name": "伊勢崎",
    "total_distance_km": 555.3,
    "latitude": 34.733271410719375,
    "longitude": 135.311482973975,
    "is_shadow_confederation": false
  },
  {
    "rank": 15,
    "team_name": "日本大学",
    "team_short_name": "日大",
    "runner_name": "牛久",
    "total_distance_km": 533.0,
    "latitude": 34.699216593855255,
    "longitude": 135.53585881161868,
    "is_shadow_confederation": false
  },
  {
    "rank": 16,
    "team_name": "福島大学",
    "team_short_name": "福島",
    "runner_name": "福島",
    "total_distance_km": 503.3,
    "latitude": 34.886902648049976,
    "longitude": 135.74177431682767,
    "is_shadow_confederation": false
  },
  {
    "rank": 17,
    "team_name": "東北大学",
    "team_short_name": "東北",
    "runner_name": "一関",
    "total_distance_km": 497.2,
    "latitude": 34.941477126869295,
    "longitude": 135.74523949142122,
    "is_shadow_confederation": false
  },
  {
    "rank": 18,
    "team_name": "学連選抜",
    "team_short_name": "学連",
    "runner_name": "久世",
    "total_distance_km": 495.2,
    "latitude": 34.95949937294593,
    "longitude": 135.74578404524576,
    "is_shadow_confederation": false
  }
]