[
  {
    "rank": 1,
    "team_name": "琉球大学",
    "team_short_name": "琉球",
    "runner_name": "波照間",
    "total_distance_km": 536.2,
    "latitude": 34.697947851695425,
    "longitude": 135.50144293786332,
    "is_shadow_confederation": false
  },
  {
    "rank": 2,
    "team_name": "鹿児島大学",
    "team_short_name": "鹿大",
    "runner_name": "西米良",
    "total_distance_km": 419.2,
    "latitude": 34.866320358207254,
    "longitude": 136.37290001952755,
    "is_shadow_confederation": false
  },
  {
    "rank": 3,
    "team_name": "熊本学園大学",
    "team_short_name": "熊学",
    "runner_name": "人吉",
    "total_distance_km": 411.5,
    "latitude": 34.85344275173859,
    "longitude": 136.44222846893683,
    "is_shadow_confederation": false
  },
  {
    "rank": 4,
    "team_name": "福岡大学",
    "team_short_name": "福岡",
    "runner_name": "朝倉",
    "total_distance_km": 389.9,
    "latitude": 34.95368413526443,
    "longitude": 136.611790641341,
    "is_shadow_confederation": false
  },
  {
    "rank": 5,
    "team_name": "名古屋大学",
    "team_short_name": "名大",
    "runner_name": "愛西",
    "total_distance_km": 358.9,
    "latitude": 35.126263433990026,
    "longitude": 136.8242400113934,
    "is_shadow_confederation": false
  },
  {
    "rank": 6,
    "team_name": "四国大学",
    "team_short_name": "四国",
    "runner_name": "松山",
    "total_distance_km": 354.0,
    "latitude": 35.12523178831161,
    "longitude": 136.87746960410706,
    "is_shadow_confederation": false
  },
  {
    "rank": 7,
    "team_name": "上武大学",
    "team_short_name": "上武",
    "runner_name": "寄居",
    "total_distance_km": 345.9,
    "latitude": 35.08393370305269,
    "longitude": 136.93569010535407,
    "is_shadow_confederation": false
  },
  {
    "rank": 8,
    "team_name": "三重大学",
    "team_short_name": "三重",
    "runner_name": "風屋",
    "total_distance_km": 344.0,
    "latitude": 35.07405024689977,
    "longitude": 136.95247598637357,
    "is_shadow_confederation": false
  },
  {
    "rank": 9,
    "team_name": "日本大学",
    "team_short_name": "日大",
    "runner_name": "小田原",
    "total_distance_km": 342.9,
    "latitude": 35.06932441591685,
    "longitude": 136.96293603994056,
    "is_shadow_confederation": false
  },
  {
    "rank": 10,
    "team_name": "広島経済大学",
    "team_short_name": "広経",
    "runner_name": "大竹",
    "total_distance_km": 341.4,
    "latitude": 35.06244653897967,
    "longitude": 136.97695518548085,
    "is_shadow_confederation": false
  },
  {
    "rank": 11,
    "team_name": "鳥取大学",
    "team_short_name": "鳥取",
    "runner_name": "防府",
    "total_distance_km": 336.5,
    "latitude": 35.03430905951185,
    "longitude": 137.01558781923288,
    "is_shadow_confederation": false
  },
  {
    "rank": 12,
    "team_name": "関西大学",
    "team_short_name": "関大",
    "runner_name": "上郡",
    "total_distance_km": 329.8,
    "latitude": 34.995889434008866,
    "longitude": 137.0709538644308,
    "is_shadow_confederation": false
  },
  {
    "rank": 13,
    "team_name": "立命館大学",
    "team_short_name": "立命",
    "runner_name": "京田辺",
    "total_distance_km": 321.8,
    "latitude": 34.96030433753951,
    "longitude": 137.14625779267652,
    "is_shadow_confederation": false
  },
  {
    "rank": 14,
    "team_name": "山梨学院大学",
    "team_short_name": "山学",
    "runner_name": "大月",
    "total_distance_km": 293.3,
    "latitude": 34.79599049156757,
    "longitude": 137.3683127305792,
    "is_shadow_confederation": false
  },
  {
    "rank": 15,
    "team_name": "福島大学",
    "team_short_name": "福島",
    "runner_name": "津川",
    "total_distance_km": 292.8,
    "latitude": 34.79246437058451,
    "longitude": 137.37171522770478,
    "is_shadow_confederation": false
  },
  {
    "rank": 16,
    "team_name": "金沢大学",
    "team_short_name": "金沢",
    "runner_name": "七尾",
    "total_distance_km": 270.3,
    "latitude": 34.68165749118723,
    "longitude": 137.54020526738043,
    "is_shadow_confederation": false
  },
  {
    "rank": 17,
    "team_name": "東北大学",
    "team_short_name": "東北",
    "runner_name": "山形（山形）",
    "total_distance_km": 214.9,
    "latitude": 34.80278340242693,
    "longitude": 138.07638771375738,
    "is_shadow_confederation": false
  },
  {
    "rank": 18,
    "team_name": "学連選抜",
    "team_short_name": "学連",
    "runner_name": "新潟",
    "total_distance_km": 116.0,
    "latitude": 35.1209950017629,
    "longitude": 138.9244392760657,
    "is_shadow_confederation": false
  },
  {
    "rank": null,
    "team_name": "区間記録連合",
    "team_short_name": "区間記録",
    "runner_name": "桐生",
    "total_distance_km": 536.2,
    "latitude": 34.697947851695425,
    "longitude": 135.50144293786332,
    "is_shadow_confederation": true
  }
]