[
  {
    "rank": 1,
    "team_name": "琉球大学",
    "team_short_name": "琉球",
    "runner_name": "波照間",
    "total_distance_km": 502.0,
    "latitude": 34.898222325399956,
    "longitude": 135.74399340321636,
    "is_shadow_confederation": false
  },
  {
    "rank": 2,
    "team_name": "熊本学園大学",
    "team_short_name": "熊学",
    "runner_name": "熊本",
    "total_distance_km": 449.0,
    "latitude": 34.984285343133834,
    "longitude": 136.11628268649426,
    "is_shadow_confederation": false
  },
  {
    "rank": 3,
    "team_name": "鹿児島大学",
    "team_short_name": "鹿大",
    "runner_name": "西都",
    "total_distance_km": 434.8,
    "latitude": 34.93972144744911,
    "longitude": 136.25577854550235,
    "is_shadow_confederation": false
  },
  {
    "rank": 4,
    "team_name": "福岡大学",
    "team_short_name": "福岡",
    "runner_name": "前原",
    "total_distance_km": 421.9,
    "latitude": 34.88283088514608,
    "longitude": 136.3583192735415,
    "is_shadow_confederation": false
  },
  {
    "rank": 5,
    "team_name": "四国大学",
    "team_short_name": "四国",
    "runner_name": "松山",
    "total_distance_km": 408.4,
    "latitude": 34.85323309848611,
    "longitude": 136.4740957677915,
    "is_shadow_confederation": false
  },
  {
    "rank": 6,
    "team_name": "広島経済大学",
    "team_short_name": "広経",
    "runner_name": "大竹",
    "total_distance_km": 396.6,
    "latitude": 34.91457274429632,
    "longitude": 136.5629542148577,
    "is_shadow_confederation": false
  },
  {
    "rank": 7,
    "team_name": "鳥取大学",
    "team_short_name": "鳥取",
    "runner_name": "防府",
    "total_distance_km": 382.0,
    "latitude": 35.010271506931296,
    "longitude": 136.65732193293815,
    "is_shadow_confederation": false
  },
  {
    "rank": 8,
    "team_name": "名古屋大学",
    "team_short_name": "名大",
    "runner_name": "愛西",
    "total_distance_km": 378.5,
    "latitude": 35.03761460984962,
    "longitude": 136.67203225903893,
    "is_shadow_confederation": false
  },
  {
    "rank": 9,
    "team_name": "関西大学",
    "team_short_name": "関大",
    "runner_name": "柏原",
    "total_distance_km": 378.3,
    "latitude": 35.03941656828979,
    "longitude": 136.6720975017471,
    "is_shadow_confederation": false
  },
  {
    "rank": 10,
    "team_name": "立命館大学",
    "team_short_name": "立命",
    "runner_name": "米原",
    "total_distance_km": 370.4,
    "latitude": 35.10008898386195,
    "longitude": 136.7046435696313,
    "is_shadow_confederation": false
  },
  {
    "rank": 11,
    "team_name": "三重大学",
    "team_short_name": "三重",
    "runner_name": "風屋",
    "total_distance_km": 367.9,
    "latitude": 35.112085929247726,
    "longitude": 136.72762271085347,
    "is_shadow_confederation": false
  },
  {
    "rank": 12,
    "team_name": "金沢大学",
    "team_short_name": "金沢",
    "runner_name": "志賀",
    "total_distance_km": 350.7,
    "latitude": 35.11976691963004,
    "longitude": 136.9120337024208,
    "is_shadow_confederation": false
  },
  {
    "rank": 13,
    "team_name": "上武大学",
    "team_short_name": "上武",
    "runner_name": "寄居",
    "total_distance_km": 347.1,
    "latitude": 35.093447242059646,
    "longitude": 136.9297447858444,
    "is_shadow_confederation": false
  },
  {
    "rank": 14,
    "team_name": "日本大学",
    "team_short_name": "日大",
    "runner_name": "小田原",
    "total_distance_km": 347.0,
    "latitude": 35.09262460623494,
    "longitude": 136.9301930494605,
    "is_shadow_confederation": false
  },
  {
    "rank": 15,
    "team_name": "山梨学院大学",
    "team_short_name": "山学",
    "runner_name": "大月",
    "total_distance_km": 325.0,
    "latitude": 34.975610206961385,
    "longitude": 137.1170462920048,
    "is_shadow_confederation": false
  },
  {
    "rank": 16,
    "team_name": "福島大学",
    "team_short_name": "福島",
    "runner_name": "津川",
    "total_distance_km": 306.1,
    "latitude": 34.8777745482176,
    "longitude": 137.27392389025866,
    "is_shadow_confederation": false
  },
  {
    "rank": 17,
    "team_name": "学連選抜",
    "team_short_name": "学連",
    "runner_name": "大村",
    "total_distance_km": 272.3,
    "latitude": 34.67903478730792,
    "longitude": 137.51861442785068,
    "is_shadow_confederation": false
  },
  {
    "rank": 18,
    "team_name": "東北大学",
    "team_short_name": "東北",
    "runner_name": "高畠",
    "total_distance_km": 254.6,
    "latitude": 34.688452520395956,
    "longitude": 137.70317741139914,
    "is_shadow_confederation": false
  }
]