[
  {
    "rank": 1,
    "team_name": "名古屋大学",
    "team_short_name": "名大",
    "runner_name": "愛西",
    "total_distance_km": 407.8,
    "latitude": 34.8560658881762,
    "longitude": 136.4796847568999,
    "is_shadow_confederation": false
  },
  {
    "rank": 2,
    "team_name": "立命館大学",
    "team_short_name": "立命",
    "runner_name": "米原",
    "total_distance_km": 398.7,
    "latitude": 34.90326961135683,
    "longitude": 136.54883725238543,
    "is_shadow_confederation": false
  },
  {
    "rank": 2,
    "team_name": "四国大学",
    "team_short_name": "四国",
    "runner_name": "松山",
    "total_distance_km": 398.7,
    "latitude": 34.90326961135683,
    "longitude": 136.54883725238543,
    "is_shadow_confederation": false
  },
  {
    "rank": 4,
    "team_name": "熊本学園大学",
    "team_short_name": "熊学",
    "runner_name": "人吉",
    "total_distance_km": 396.4,
    "latitude": 34.91447173948444,
    "longitude": 136.5651393677391,
    "is_shadow_confederation": false
  },
  {
    "rank": 5,
    "team_name": "福岡大学",
    "team_short_name": "福岡",
    "runner_name": "朝倉",
    "total_distance_km": 396.2,
    "latitude": 34.91437073467256,
    "longitude": 136.5673245206205,
    "is_shadow_confederation": false
  },
  {
    "rank": 6,
    "team_name": "琉球大学",
    "team_short_name": "琉球",
    "runner_name": "名護",
    "total_distance_km": 395.7,
    "latitude": 34.91475036333064,
    "longitude": 136.57273734113062,
    "is_shadow_confederation": false
  },
  {
    "rank": 7,
    "team_name": "関西大学",
    "team_short_name": "関大",
    "runner_name": "柏原",
    "total_distance_km": 393.9,
    "latitude": 34.92560178670631,
    "longitude": 136.5864154801478,
    "is_shadow_confederation": false
  },
  {
    "rank": 8,
    "team_name": "広島経済大学",
    "team_short_name": "広経",
    "runner_name": "大竹",
    "total_distance_km": 393.8,
    "latitude": 34.92645541467051,
    "longitude": 136.5867670315864,
    "is_shadow_confederation": false
  },
  {
    "rank": 9,
    "team_name": "鳥取大学",
    "team_short_name": "鳥取",
    "runner_name": "防府",
    "total_distance_km": 393.4,
    "latitude": 34.92972596657415,
    "longitude": 136.58843605974127,
    "is_shadow_confederation": false
  },
  {
    "rank": 10,
    "team_name": "日本大学",
    "team_short_name": "日大",
    "runner_name": "小田原",
    "total_distance_km": 393.3,
    "latitude": 34.93032300352758,
    "longitude": 136.5892560599667,
    "is_shadow_confederation": false
  },
  {
    "rank": 11,
    "team_name": "上武大学",
    "team_short_name": "上武",
    "runner_name": "寄居",
    "total_distance_km": 390.4,
    "latitude": 34.95021096564537,
    "longitude": 136.60840911048416,
    "is_shadow_confederation": false
  },
  {
    "rank": 12,
    "team_name": "山梨学院大学",
    "team_short_name": "山学",
    "runner_name": "浜松",
    "total_distance_km": 389.4,
    "latitude": 34.956589525322414,
    "longitude": 136.61597553109323,
    "is_shadow_confederation": false
  },
  {
    "rank": 13,
    "team_name": "三重大学",
    "team_short_name": "三重",
    "runner_name": "風屋",
    "total_distance_km": 388.3,
    "latitude": 34.96499610597878,
    "longitude": 136.62210367966944,
    "is_shadow_confederation": false
  },
  {
    "rank": 14,
    "team_name": "鹿児島大学",
    "team_short_name": "鹿大",
    "runner_name": "西米良",
    "total_distance_km": 381.8,
    "latitude": 35.011703117582954,
    "longitude": 136.65865364122047,
    "is_shadow_confederation": false
  },
  {
    "rank": 15,
    "team_name": "金沢大学",
    "team_short_name": "金沢",
    "runner_name": "志賀",
    "total_distance_km": 380.4,
    "latitude": 35.021203634921235,
    "longitude": 136.66874247928413,
    "is_shadow_confederation": false
  },
  {
    "rank": 16,
    "team_name": "福島大学",
    "team_short_name": "福島",
    "runner_name": "長岡",
    "total_distance_km": 369.5,
    "latitude": 35.104778643373905,
    "longitude": 136.71269850581302,
    "is_shadow_confederation": false
  },
  {
    "rank": 17,
    "team_name": "学連選抜",
    "team_short_name": "学連",
    "runner_name": "上",
    "total_distance_km": 337.2,
    "latitude": 35.039418076732424,
    "longitude": 137.011100209757,
    "is_shadow_confederation": false
  },
  {
    "rank": 18,
    "team_name": "東北大学",
    "team_short_name": "東北",
    "runner_name": "大館",
    "total_distance_km": 332.2,
    "latitude": 35.00839930677413,
    "longitude": 137.0501389302003,
    "is_shadow_confederation": false
  },
  {
    "rank": null,
    "team_name": "区間記録連合",
    "team_short_name": "区間記録",
    "runner_name": "風屋",
    "total_distance_km": 407.8,
    "latitude": 34.8560658881762,
    "longitude": 136.4796847568999,
    "is_shadow_confederation": true
  }
]