[
  {
    "rank": 1,
    "team_name": "琉球大学",
    "team_short_name": "琉球",
    "runner_name": "仲筋",
    "total_distance_km": 170.1,
    "latitude": 35.0042125499826,
    "longitude": 138.43915655591567,
    "is_shadow_confederation": false
  },
  {
    "rank": 2,
    "team_name": "熊本学園大学",
    "team_short_name": "熊学",
    "runner_name": "岱明",
    "total_distance_km": 168.3,
    "latitude": 35.013999388650056,
    "longitude": 138.45486347609864,
    "is_shadow_confederation": false
  },
  {
    "rank": 3,
    "team_name": "福岡大学",
    "team_short_name": "福岡",
    "runner_name": "福岡",
    "total_distance_km": 162.9,
    "latitude": 35.03951592197412,
    "longitude": 138.49664859481035,
    "is_shadow_confederation": false
  },
  {
    "rank": 4,
    "team_name": "鹿児島大学",
    "team_short_name": "鹿大",
    "runner_name": "川内（鹿児島）",
    "total_distance_km": 160.1,
    "latitude": 35.050857551367365,
    "longitude": 138.5219089966959,
    "is_shadow_confederation": false
  },
  {
    "rank": 5,
    "team_name": "立命館大学",
    "team_short_name": "立命",
    "runner_name": "福知山",
    "total_distance_km": 159.5,
    "latitude": 35.053630362993864,
    "longitude": 138.52755561390325,
    "is_shadow_confederation": false
  },
  {
    "rank": 6,
    "team_name": "四国大学",
    "team_short_name": "四国",
    "runner_name": "大三島",
    "total_distance_km": 155.5,
    "latitude": 35.08435507586956,
    "longitude": 138.54781859372216,
    "is_shadow_confederation": false
  },
  {
    "rank": 7,
    "team_name": "三重大学",
    "team_short_name": "三重",
    "runner_name": "五條",
    "total_distance_km": 155.0,
    "latitude": 35.088711433431406,
    "longitude": 138.5492224641654,
    "is_shadow_confederation": false
  },
  {
    "rank": 8,
    "team_name": "関西大学",
    "team_short_name": "関大",
    "runner_name": "和田山",
    "total_distance_km": 153.7,
    "latitude": 35.09984213514968,
    "longitude": 138.55354601126368,
    "is_shadow_confederation": false
  },
  {
    "rank": 9,
    "team_name": "鳥取大学",
    "team_short_name": "鳥取",
    "runner_name": "鳥取",
    "total_distance_km": 153.6,
    "latitude": 35.10066119371802,
    "longitude": 138.5540038968064,
    "is_shadow_confederation": false
  },
  {
    "rank": 10,
    "team_name": "広島経済大学",
    "team_short_name": "広経",
    "runner_name": "加計",
    "total_distance_km": 153.0,
    "latitude": 35.105244547093584,
    "longitude": 138.55740898683055,
    "is_shadow_confederation": false
  },
  {
    "rank": 11,
    "team_name": "名古屋大学",
    "team_short_name": "名大",
    "runner_name": "美濃",
    "total_distance_km": 151.7,
    "latitude": 35.11046060220841,
    "longitude": 138.5701105126682,
    "is_shadow_confederation": false
  },
  {
    "rank": 12,
    "team_name": "金沢大学",
    "team_short_name": "金沢",
    "runner_name": "小浜",
    "total_distance_km": 150.9,
    "latitude": 35.11240270168356,
    "longitude": 138.57804203914554,
    "is_shadow_confederation": false
  },
  {
    "rank": 13,
    "team_name": "山梨学院大学",
    "team_short_name": "山学",
    "runner_name": "南信濃",
    "total_distance_km": 140.6,
    "latitude": 35.14213887845804,
    "longitude": 138.67651831665836,
    "is_shadow_confederation": false
  },
  {
    "rank": 14,
    "team_name": "上武大学",
    "team_short_name": "上武",
    "runner_name": "越谷",
    "total_distance_km": 136.5,
    "latitude": 35.14070124675838,
    "longitude": 138.71809109828598,
    "is_shadow_confederation": false
  },
  {
    "rank": 15,
    "team_name": "日本大学",
    "team_short_name": "日大",
    "runner_name": "古河",
    "total_distance_km": 133.5,
    "latitude": 35.134216672585396,
    "longitude": 138.74997719291488,
    "is_shadow_confederation": false
  },
  {
    "rank": 16,
    "team_name": "福島大学",
    "team_short_name": "福島",
    "runner_name": "石川",
    "total_distance_km": 124.8,
    "latitude": 35.104436139742056,
    "longitude": 138.8373434360652,
    "is_shadow_confederation": false
  },
  {
    "rank": 17,
    "team_name": "東北大学",
    "team_short_name": "東北",
    "runner_name": "帯広",
    "total_distance_km": 104.3,
    "latitude": 35.17186005659459,
    "longitude": 139.00797511018357,
    "is_shadow_confederation": false
  },
  {
    "rank": 18,
    "team_name": "学連選抜",
    "team_short_name": "学連",
    "runner_name": "美幌",
    "total_distance_km": 89.8,
    "latitude": 35.22937084960621,
    "longitude": 139.10552489676863,
    "is_shadow_confederation": false
  }
]