[
  {
    "rank": 1,
    "team_name": "琉球大学",
    "team_short_name": "琉球",
    "runner_name": "名護",
    "total_distance_km": 361.3,
    "latitude": 35.125370348228444,
    "longitude": 136.79796421377458,
    "is_shadow_confederation": false
  },
  {
    "rank": 2,
    "team_name": "熊本学園大学",
    "team_short_name": "熊学",
    "runner_name": "人吉",
    "total_distance_km": 355.8,
    "latitude": 35.124306860062184,
    "longitude": 136.8577566132767,
    "is_shadow_confederation": false
  },
  {
    "rank": 3,
    "team_name": "福岡大学",
    "team_short_name": "福岡",
    "runner_name": "朝倉",
    "total_distance_km": 343.0,
    "latitude": 35.0697616248912,
    "longitude": 136.9619772892386,
    "is_shadow_confederation": false
  },
  {
    "rank": 4,
    "team_name": "立命館大学",
    "team_short_name": "立命",
    "runner_name": "米原",
    "total_distance_km": 341.1,
    "latitude": 35.06129035227523,
    "longitude": 136.97992823700653,
    "is_shadow_confederation": false
  },
  {
    "rank": 5,
    "team_name": "鹿児島大学",
    "team_short_name": "鹿大",
    "runner_name": "加久藤",
    "total_distance_km": 337.7,
    "latitude": 35.042891211883465,
    "longitude": 137.00761723021543,
    "is_shadow_confederation": false
  },
  {
    "rank": 6,
    "team_name": "四国大学",
    "team_short_name": "四国",
    "runner_name": "御荘",
    "total_distance_km": 336.1,
    "latitude": 35.03152640724602,
    "longitude": 137.0183751948635,
    "is_shadow_confederation": false
  },
  {
    "rank": 7,
    "team_name": "鳥取大学",
    "team_short_name": "鳥取",
    "runner_name": "広瀬",
    "total_distance_km": 334.3,
    "latitude": 35.02031612138099,
    "longitude": 137.03250910812037,
    "is_shadow_confederation": false
  },
  {
    "rank": 8,
    "team_name": "関西大学",
    "team_short_name": "関大",
    "runner_name": "上郡",
    "total_distance_km": 333.8,
    "latitude": 35.01684390489834,
    "longitude": 137.03600176276413,
    "is_shadow_confederation": false
  },
  {
    "rank": 9,
    "team_name": "広島経済大学",
    "team_short_name": "広経",
    "runner_name": "府中（広島）",
    "total_distance_km": 333.4,
    "latitude": 35.01458900407709,
    "longitude": 137.03936918855987,
    "is_shadow_confederation": false
  },
  {
    "rank": 10,
    "team_name": "名古屋大学",
    "team_short_name": "名大",
    "runner_name": "大垣",
    "total_distance_km": 332.6,
    "latitude": 35.01058529855218,
    "longitude": 137.0466589479583,
    "is_shadow_confederation": false
  },
  {
    "rank": 11,
    "team_name": "三重大学",
    "team_short_name": "三重",
    "runner_name": "小俣",
    "total_distance_km": 329.9,
    "latitude": 34.99629967624,
    "longitude": 137.06997851978366,
    "is_shadow_confederation": false
  },
  {
    "rank": 12,
    "team_name": "山梨学院大学",
    "team_short_name": "山学",
    "runner_name": "大月",
    "total_distance_km": 327.4,
    "latitude": 34.98447342488642,
    "longitude": 137.093122408845,
    "is_shadow_confederation": false
  },
  {
    "rank": 13,
    "team_name": "金沢大学",
    "team_short_name": "金沢",
    "runner_name": "七尾",
    "total_distance_km": 324.4,
    "latitude": 34.972086950682296,
    "longitude": 137.12189136907614,
    "is_shadow_confederation": false
  },
  {
    "rank": 14,
    "team_name": "上武大学",
    "team_short_name": "上武",
    "runner_name": "熊谷",
    "total_distance_km": 322.4,
    "latitude": 34.96301558180277,
    "longitude": 137.140573301667,
    "is_shadow_confederation": false
  },
  {
    "rank": 15,
    "team_name": "日本大学",
    "team_short_name": "日大",
    "runner_name": "下館",
    "total_distance_km": 317.5,
    "latitude": 34.945760350820485,
    "longitude": 137.1888912465177,
    "is_shadow_confederation": false
  },
  {
    "rank": 16,
    "team_name": "福島大学",
    "team_short_name": "福島",
    "runner_name": "津川",
    "total_distance_km": 293.7,
    "latitude": 34.798923770459076,
    "longitude": 137.36577255776987,
    "is_shadow_confederation": false
  },
  {
    "rank": 17,
    "team_name": "東北大学",
    "team_short_name": "東北",
    "runner_name": "高畠",
    "total_distance_km": 279.6,
    "latitude": 34.71755280848862,
    "longitude": 137.4656277131507,
    "is_shadow_confederation": false
  },
  {
    "rank": 18,
    "team_name": "学連選抜",
    "team_short_name": "学連",
    "runner_name": "大村",
    "total_distance_km": 269.8,
    "latitude": 34.68324193859848,
    "longitude": 137.54530997811582,
    "is_shadow_confederation": false
  }
]