[
  {
    "rank": 1,
    "team_name": "琉球大学",
    "team_short_name": "琉球",
    "runner_name": "那覇",
    "total_distance_km": 697.5,
    "latitude": 34.687936659417836,
    "longitude": 134.00219153617294,
    "is_shadow_confederation": false
  },
  {
    "rank": 2,
    "team_name": "熊本学園大学",
    "team_short_name": "熊学",
    "runner_name": "大分",
    "total_distance_km": 640.1,
    "latitude": 34.82841117650131,
    "longitude": 134.53650708624886,
    "is_shadow_confederation": false
  },
  {
    "rank": 3,
    "team_name": "福岡大学",
    "team_short_name": "福岡",
    "runner_name": "博多",
    "total_distance_km": 632.9,
    "latitude": 34.82933888198339,
    "longitude": 134.61267095588016,
    "is_shadow_confederation": false
  },
  {
    "rank": 4,
    "team_name": "鹿児島大学",
    "team_short_name": "鹿大",
    "runner_name": "笠利",
    "total_distance_km": 630.9,
    "latitude": 34.84062850050686,
    "longitude": 134.62328490692124,
    "is_shadow_confederation": false
  },
  {
    "rank": 5,
    "team_name": "名古屋大学",
    "team_short_name": "名大",
    "runner_name": "豊田（愛知）",
    "total_distance_km": 621.6,
    "latitude": 34.826590555990094,
    "longitude": 134.71930704813465,
    "is_shadow_confederation": false
  },
  {
    "rank": 6,
    "team_name": "立命館大学",
    "team_short_name": "立命",
    "runner_name": "彦根",
    "total_distance_km": 620.6,
    "latitude": 34.82307903176536,
    "longitude": 134.7293459425279,
    "is_shadow_confederation": false
  },
  {
    "rank": 7,
    "team_name": "関西大学",
    "team_short_name": "関大",
    "runner_name": "豊中",
    "total_distance_km": 618.6,
    "latitude": 34.81272650392213,
    "longitude": 134.74682874505675,
    "is_shadow_confederation": false
  },
  {
    "rank": 8,
    "team_name": "四国大学",
    "team_short_name": "四国",
    "runner_name": "徳島",
    "total_distance_km": 615.8,
    "latitude": 34.79579015767301,
    "longitude": 134.76945233476889,
    "is_shadow_confederation": false
  },
  {
    "rank": 8,
    "team_name": "鳥取大学",
    "team_short_name": "鳥取",
    "runner_name": "松江",
    "total_distance_km": 615.8,
    "latitude": 34.79579015767301,
    "longitude": 134.76945233476889,
    "is_shadow_confederation": false
  },
  {
    "rank": 10,
    "team_name": "広島経済大学",
    "team_short_name": "広経",
    "runner_name": "高松（香川）",
    "total_distance_km": 613.8,
    "latitude": 34.79304693453275,
    "longitude": 134.79071087004414,
    "is_shadow_confederation": false
  },
  {
    "rank": 11,
    "team_name": "山梨学院大学",
    "team_short_name": "山学",
    "runner_name": "静岡",
    "total_distance_km": 611.2,
    "latitude": 34.78195221781764,
    "longitude": 134.81516630026394,
    "is_shadow_confederation": false
  },
  {
    "rank": 12,
    "team_name": "上武大学",
    "team_short_name": "上武",
    "runner_name": "伊勢崎",
    "total_distance_km": 609.6,
    "latitude": 34.77265652446965,
    "longitude": 134.8278735998833,
    "is_shadow_confederation": false
  },
  {
    "rank": 13,
    "team_name": "三重大学",
    "team_short_name": "三重",
    "runner_name": "新宮",
    "total_distance_km": 606.3,
    "latitude": 34.752575537247324,
    "longitude": 134.85384802451392,
    "is_shadow_confederation": false
  },
  {
    "rank": 14,
    "team_name": "金沢大学",
    "team_short_name": "金沢",
    "runner_name": "富山",
    "total_distance_km": 600.3,
    "latitude": 34.71438844263431,
    "longitude": 134.89902332209113,
    "is_shadow_confederation": false
  },
  {
    "rank": 15,
    "team_name": "日本大学",
    "team_short_name": "日大",
    "runner_name": "八王子",
    "total_distance_km": 578.0,
    "latitude": 34.63687558723695,
    "longitude": 135.09977317165414,
    "is_shadow_confederation": false
  },
  {
    "rank": 16,
    "team_name": "福島大学",
    "team_short_name": "福島",
    "runner_name": "浪江",
    "total_distance_km": 551.3,
    "latitude": 34.736762131188165,
    "longitude": 135.35407794392555,
    "is_shadow_confederation": false
  },
  {
    "rank": 17,
    "team_name": "学連選抜",
    "team_short_name": "学連",
    "runner_name": "多度津",
    "total_distance_km": 543.7,
    "latitude": 34.71947294620258,
    "longitude": 135.43371250849185,
    "is_shadow_confederation": false
  },
  {
    "rank": 18,
    "team_name": "東北大学",
    "team_short_name": "東北",
    "runner_name": "一関",
    "total_distance_km": 540.3,
    "latitude": 34.704454360661906,
    "longitude": 135.46377601970428,
    "is_shadow_confederation": false
  }
]