[
  {
    "rank": 1,
    "team_name": "琉球大学",
    "team_short_name": "琉球",
    "runner_name": "仲筋",
    "total_distance_km": 162.5,
    "latitude": 35.04277086269866,
    "longitude": 138.4984744044878,
    "is_shadow_confederation": false
  },
  {
    "rank": 2,
    "team_name": "鹿児島大学",
    "team_short_name": "鹿大",
    "runner_name": "川内（鹿児島）",
    "total_distance_km": 116.9,
    "latitude": 35.11931077165272,
    "longitude": 138.91478880787798,
    "is_shadow_confederation": false
  },
  {
    "rank": 3,
    "team_name": "熊本学園大学",
    "team_short_name": "熊学",
    "runner_name": "甲佐",
    "total_distance_km": 111.9,
    "latitude": 35.136163661354445,
    "longitude": 138.9599531478533,
    "is_shadow_confederation": false
  },
  {
    "rank": 4,
    "team_name": "福岡大学",
    "team_short_name": "福岡",
    "runner_name": "久留米",
    "total_distance_km": 106.4,
    "latitude": 35.16214769226981,
    "longitude": 139.00119503306038,
    "is_shadow_confederation": false
  },
  {
    "rank": 5,
    "team_name": "名古屋大学",
    "team_short_name": "名大",
    "runner_name": "美濃加茂",
    "total_distance_km": 92.5,
    "latitude": 35.22101373095763,
    "longitude": 139.0790978137676,
    "is_shadow_confederation": false
  },
  {
    "rank": 6,
    "team_name": "四国大学",
    "team_short_name": "四国",
    "runner_name": "穴吹",
    "total_distance_km": 92.0,
    "latitude": 35.2224464239394,
    "longitude": 139.08427333431848,
    "is_shadow_confederation": false
  },
  {
    "rank": 7,
    "team_name": "三重大学",
    "team_short_name": "三重",
    "runner_name": "粥見",
    "total_distance_km": 91.5,
    "latitude": 35.2238774284062,
    "longitude": 139.0893924485711,
    "is_shadow_confederation": false
  },
  {
    "rank": 8,
    "team_name": "日本大学",
    "team_short_name": "日大",
    "runner_name": "大子",
    "total_distance_km": 87.0,
    "latitude": 35.244911678300696,
    "longitude": 139.12855497415188,
    "is_shadow_confederation": false
  },
  {
    "rank": 9,
    "team_name": "上武大学",
    "team_short_name": "上武",
    "runner_name": "佐野",
    "total_distance_km": 86.4,
    "latitude": 35.246596844032666,
    "longitude": 139.13438197929986,
    "is_shadow_confederation": false
  },
  {
    "rank": 10,
    "team_name": "関西大学",
    "team_short_name": "関大",
    "runner_name": "福崎",
    "total_distance_km": 83.1,
    "latitude": 35.25346976601539,
    "longitude": 139.1663280658509,
    "is_shadow_confederation": false
  },
  {
    "rank": 11,
    "team_name": "鳥取大学",
    "team_short_name": "鳥取",
    "runner_name": "川本",
    "total_distance_km": 77.2,
    "latitude": 35.28154474342057,
    "longitude": 139.2188870594765,
    "is_shadow_confederation": false
  },
  {
    "rank": 11,
    "team_name": "立命館大学",
    "team_short_name": "立命",
    "runner_name": "東近江",
    "total_distance_km": 77.2,
    "latitude": 35.28154474342057,
    "longitude": 139.2188870594765,
    "is_shadow_confederation": false
  },
  {
    "rank": 13,
    "team_name": "広島経済大学",
    "team_short_name": "広経",
    "runner_name": "三次",
    "total_distance_km": 75.6,
    "latitude": 35.288419520894074,
    "longitude": 139.23417394384802,
    "is_shadow_confederation": false
  },
  {
    "rank": 14,
    "team_name": "福島大学",
    "team_short_name": "福島",
    "runner_name": "梁川",
    "total_distance_km": 74.0,
    "latitude": 35.29508963760536,
    "longitude": 139.24953128171865,
    "is_shadow_confederation": false
  },
  {
    "rank": 15,
    "team_name": "金沢大学",
    "team_short_name": "金沢",
    "runner_name": "秋ヶ島",
    "total_distance_km": 58.7,
    "latitude": 35.31865377966663,
    "longitude": 139.40821102645683,
    "is_shadow_confederation": false
  },
  {
    "rank": 16,
    "team_name": "山梨学院大学",
    "team_short_name": "山学",
    "runner_name": "長野",
    "total_distance_km": 53.3,
    "latitude": 35.33278111486726,
    "longitude": 139.46255612741018,
    "is_shadow_confederation": false
  },
  {
    "rank": 17,
    "team_name": "東北大学",
    "team_short_name": "東北",
    "runner_name": "帯広",
    "total_distance_km": 43.2,
    "latitude": 35.39945715968636,
    "longitude": 139.52785941848902,
    "is_shadow_confederation": false
  },
  {
    "rank": 18,
    "team_name": "学連選抜",
    "team_short_name": "学連",
    "runner_name": "美幌",
    "total_distance_km": 3.5,
    "latitude": 35.660157417763976,
    "longitude": 139.7491935555789,
    "is_shadow_confederation": false
  },
  {
    "rank": null,
    "team_name": "区間記録連合",
    "team_short_name": "区間記録",
    "runner_name": "佐野",
    "total_distance_km": 221.2,
    "latitude": 34.77820797323534,
    "longitude": 138.0237578334833,
    "is_shadow_confederation": true
  }
]