[
  {
    "rank": 1,
    "team_name": "琉球大学",
    "team_short_name": "琉球",
    "runner_name": "名護",
    "total_distance_km": 421.9,
    "latitude": 34.88283088514608,
    "longitude": 136.3583192735415,
    "is_shadow_confederation": false
  },
  {
    "rank": 2,
    "team_name": "熊本学園大学",
    "team_short_name": "熊学",
    "runner_name": "人吉",
    "total_distance_km": 384.7,
    "latitude": 34.99172609185491,
    "longitude": 136.64219619663888,
    "is_shadow_confederation": false
  },
  {
    "rank": 3,
    "team_name": "鹿児島大学",
    "team_short_name": "鹿大",
    "runner_name": "西米良",
    "total_distance_km": 368.4,
    "latitude": 35.11051044944407,
    "longitude": 136.72254342781295,
    "is_shadow_confederation": false
  },
  {
    "rank": 4,
    "team_name": "福岡大学",
    "team_short_name": "福岡",
    "runner_name": "朝倉",
    "total_distance_km": 362.3,
    "latitude": 35.12460073346613,
    "longitude": 136.78703319916374,
    "is_shadow_confederation": false
  },
  {
    "rank": 5,
    "team_name": "四国大学",
    "team_short_name": "四国",
    "runner_name": "松山",
    "total_distance_km": 346.0,
    "latitude": 35.084500714525234,
    "longitude": 136.9348376893433,
    "is_shadow_confederation": false
  },
  {
    "rank": 6,
    "team_name": "広島経済大学",
    "team_short_name": "広経",
    "runner_name": "大竹",
    "total_distance_km": 335.3,
    "latitude": 35.02607111042525,
    "longitude": 137.0240833544279,
    "is_shadow_confederation": false
  },
  {
    "rank": 7,
    "team_name": "立命館大学",
    "team_short_name": "立命",
    "runner_name": "京田辺",
    "total_distance_km": 321.1,
    "latitude": 34.958704378230784,
    "longitude": 137.15356606380084,
    "is_shadow_confederation": false
  },
  {
    "rank": 8,
    "team_name": "関西大学",
    "team_short_name": "関大",
    "runner_name": "上郡",
    "total_distance_km": 319.8,
    "latitude": 34.956094456255876,
    "longitude": 137.16736314758185,
    "is_shadow_confederation": false
  },
  {
    "rank": 9,
    "team_name": "鳥取大学",
    "team_short_name": "鳥取",
    "runner_name": "広瀬",
    "total_distance_km": 318.5,
    "latitude": 34.95091367396167,
    "longitude": 137.17994083660764,
    "is_shadow_confederation": false
  },
  {
    "rank": 10,
    "team_name": "名古屋大学",
    "team_short_name": "名大",
    "runner_name": "大垣",
    "total_distance_km": 315.6,
    "latitude": 34.930514217361214,
    "longitude": 137.1974720842116,
    "is_shadow_confederation": false
  },
  {
    "rank": 11,
    "team_name": "三重大学",
    "team_short_name": "三重",
    "runner_name": "小俣",
    "total_distance_km": 310.7,
    "latitude": 34.902190872449154,
    "longitude": 137.23648325035523,
    "is_shadow_confederation": false
  },
  {
    "rank": 12,
    "team_name": "金沢大学",
    "team_short_name": "金沢",
    "runner_name": "七尾",
    "total_distance_km": 297.9,
    "latitude": 34.828021945572225,
    "longitude": 137.33678739602644,
    "is_shadow_confederation": false
  },
  {
    "rank": 13,
    "team_name": "上武大学",
    "team_short_name": "上武",
    "runner_name": "熊谷",
    "total_distance_km": 284.8,
    "latitude": 34.73852729029006,
    "longitude": 137.4227752390757,
    "is_shadow_confederation": false
  },
  {
    "rank": 14,
    "team_name": "日本大学",
    "team_short_name": "日大",
    "runner_name": "下館",
    "total_distance_km": 282.5,
    "latitude": 34.72364977877952,
    "longitude": 137.43567358399403,
    "is_shadow_confederation": false
  },
  {
    "rank": 15,
    "team_name": "山梨学院大学",
    "team_short_name": "山学",
    "runner_name": "大月",
    "total_distance_km": 265.2,
    "latitude": 34.6939337327204,
    "longitude": 137.59092268311264,
    "is_shadow_confederation": false
  },
  {
    "rank": 16,
    "team_name": "福島大学",
    "team_short_name": "福島",
    "runner_name": "津川",
    "total_distance_km": 264.1,
    "latitude": 34.690324022056224,
    "longitude": 137.60202775705557,
    "is_shadow_confederation": false
  },
  {
    "rank": 17,
    "team_name": "東北大学",
    "team_short_name": "東北",
    "runner_name": "山形（山形）",
    "total_distance_km": 213.2,
    "latitude": 34.814936335577755,
    "longitude": 138.08605434093593,
    "is_shadow_confederation": false
  },
  {
    "rank": 18,
    "team_name": "学連選抜",
    "team_short_name": "学連",
    "runner_name": "新潟",
    "total_distance_km": 212.1,
    "latitude": 34.82095402158455,
    "longitude": 138.0951004693983,
    "is_shadow_confederation": false
  }
]