[
  {
    "rank": 1,
    "team_name": "琉球大学",
    "team_short_name": "琉球",
    "runner_name": "波照間",
    "total_distance_km": 483.7,
    "latitude": 34.99549422123125,
    "longitude": 135.80263623845852,
    "is_shadow_confederation": false
  },
  {
    "rank": 2,
    "team_name": "熊本学園大学",
    "team_short_name": "熊学",
    "runner_name": "熊本",
    "total_distance_km": 468.6,
    "latitude": 34.99066799576137,
    "longitude": 135.93594332667888,
    "is_shadow_confederation": false
  },
  {
    "rank": 3,
    "team_name": "福岡大学",
    "team_short_name": "福岡",
    "runner_name": "前原",
    "total_distance_km": 454.7,
    "latitude": 35.01340523013348,
    "longitude": 136.06499195262876,
    "is_shadow_confederation": false
  },
  {
    "rank": 4,
    "team_name": "鹿児島大学",
    "team_short_name": "鹿大",
    "runner_name": "西都",
    "total_distance_km": 448.8,
    "latitude": 34.984606029121316,
    "longitude": 136.11809658784318,
    "is_shadow_confederation": false
  },
  {
    "rank": 5,
    "team_name": "立命館大学",
    "team_short_name": "立命",
    "runner_name": "舞鶴",
    "total_distance_km": 448.5,
    "latitude": 34.986046847023374,
    "longitude": 136.12072284305899,
    "is_shadow_confederation": false
  },
  {
    "rank": 6,
    "team_name": "関西大学",
    "team_short_name": "関大",
    "runner_name": "枚方",
    "total_distance_km": 445.1,
    "latitude": 34.98000526925136,
    "longitude": 136.1570031457204,
    "is_shadow_confederation": false
  },
  {
    "rank": 7,
    "team_name": "四国大学",
    "team_short_name": "四国",
    "runner_name": "大洲",
    "total_distance_km": 444.3,
    "latitude": 34.97782049088491,
    "longitude": 136.16535242104433,
    "is_shadow_confederation": false
  },
  {
    "rank": 8,
    "team_name": "広島経済大学",
    "team_short_name": "広経",
    "runner_name": "高梁",
    "total_distance_km": 442.1,
    "latitude": 34.966157471776775,
    "longitude": 136.18453530858292,
    "is_shadow_confederation": false
  },
  {
    "rank": 9,
    "team_name": "名古屋大学",
    "team_short_name": "名大",
    "runner_name": "多治見",
    "total_distance_km": 438.7,
    "latitude": 34.954665273155136,
    "longitude": 136.2177514228753,
    "is_shadow_confederation": false
  },
  {
    "rank": 10,
    "team_name": "鳥取大学",
    "team_short_name": "鳥取",
    "runner_name": "境",
    "total_distance_km": 437.8,
    "latitude": 34.95191082707257,
    "longitude": 136.22695478873462,
    "is_shadow_confederation": false
  },
  {
    "rank": 11,
    "team_name": "上武大学",
    "team_short_name": "上武",
    "runner_name": "桐生",
    "total_distance_km": 433.8,
    "latitude": 34.93787637847887,
    "longitude": 136.2664910223477,
    "is_shadow_confederation": false
  },
  {
    "rank": 12,
    "team_name": "三重大学",
    "team_short_name": "三重",
    "runner_name": "奈良",
    "total_distance_km": 432.6,
    "latitude": 34.93763887116785,
    "longitude": 136.27937451389704,
    "is_shadow_confederation": false
  },
  {
    "rank": 13,
    "team_name": "金沢大学",
    "team_short_name": "金沢",
    "runner_name": "福井",
    "total_distance_km": 430.0,
    "latitude": 34.924851154186065,
    "longitude": 136.30265385880523,
    "is_shadow_confederation": false
  },
  {
    "rank": 14,
    "team_name": "日本大学",
    "team_short_name": "日大",
    "runner_name": "牛久",
    "total_distance_km": 427.5,
    "latitude": 34.91091226146874,
    "longitude": 136.32282211716935,
    "is_shadow_confederation": false
  },
  {
    "rank": 15,
    "team_name": "山梨学院大学",
    "team_short_name": "山学",
    "runner_name": "甲府",
    "total_distance_km": 425.6,
    "latitude": 34.89902033330217,
    "longitude": 136.335474073265,
    "is_shadow_confederation": false
  },
  {
    "rank": 16,
    "team_name": "福島大学",
    "team_short_name": "福島",
    "runner_name": "長岡",
    "total_distance_km": 406.3,
    "latitude": 34.86648563361647,
    "longitude": 136.48950685124245,
    "is_shadow_confederation": false
  },
  {
    "rank": 17,
    "team_name": "東北大学",
    "team_short_name": "東北",
    "runner_name": "大館",
    "total_distance_km": 393.9,
    "latitude": 34.92560178670631,
    "longitude": 136.5864154801478,
    "is_shadow_confederation": false
  },
  {
    "rank": 18,
    "team_name": "学連選抜",
    "team_short_name": "学連",
    "runner_name": "上",
    "total_distance_km": 382.4,
    "latitude": 35.00778732561435,
    "longitude": 136.654226,
    "is_shadow_confederation": false
  }
]