[
  {
    "rank": 1,
    "team_name": "琉球大学",
    "team_short_name": "琉球",
    "runner_name": "北原",
    "total_distance_km": 39.8,
    "latitude": 35.419611713199295,
    "longitude": 139.549848947978,
    "is_shadow_confederation": false
  },
  {
    "rank": 2,
    "team_name": "鹿児島大学",
    "team_short_name": "鹿大",
    "runner_name": "東市来",
    "total_distance_km": 25.0,
    "latitude": 35.49133837956895,
    "longitude": 139.66305296254424,
    "is_shadow_confederation": false
  },
  {
    "rank": 3,
    "team_name": "熊本学園大学",
    "team_short_name": "熊学",
    "runner_name": "甲佐",
    "total_distance_km": 22.4,
    "latitude": 35.50873839012962,
    "longitude": 139.6817927213395,
    "is_shadow_confederation": false
  },
  {
    "rank": 4,
    "team_name": "福岡大学",
    "team_short_name": "福岡",
    "runner_name": "久留米",
    "total_distance_km": 21.4,
    "latitude": 35.51634086856573,
    "longitude": 139.6876980469382,
    "is_shadow_confederation": false
  },
  {
    "rank": 5,
    "team_name": "上武大学",
    "team_short_name": "上武",
    "runner_name": "佐野",
    "total_distance_km": 17.9,
    "latitude": 35.540782497925356,
    "longitude": 139.70919411785815,
    "is_shadow_confederation": false
  },
  {
    "rank": 6,
    "team_name": "三重大学",
    "team_short_name": "三重",
    "runner_name": "粥見",
    "total_distance_km": 17.5,
    "latitude": 35.54385762999193,
    "longitude": 139.7114966972769,
    "is_shadow_confederation": false
  },
  {
    "rank": 7,
    "team_name": "四国大学",
    "team_short_name": "四国",
    "runner_name": "穴吹",
    "total_distance_km": 16.2,
    "latitude": 35.553851809208304,
    "longitude": 139.71898008038787,
    "is_shadow_confederation": false
  },
  {
    "rank": 8,
    "team_name": "関西大学",
    "team_short_name": "関大",
    "runner_name": "福崎",
    "total_distance_km": 14.6,
    "latitude": 35.56615862260207,
    "longitude": 139.7281790063268,
    "is_shadow_confederation": false
  },
  {
    "rank": 9,
    "team_name": "立命館大学",
    "team_short_name": "立命",
    "runner_name": "東近江",
    "total_distance_km": 14.1,
    "latitude": 35.57000546847593,
    "longitude": 139.731051918569,
    "is_shadow_confederation": false
  },
  {
    "rank": 10,
    "team_name": "福島大学",
    "team_short_name": "福島",
    "runner_name": "梁川",
    "total_distance_km": 14.0,
    "latitude": 35.570774837650696,
    "longitude": 139.73162650101744,
    "is_shadow_confederation": false
  },
  {
    "rank": 11,
    "team_name": "日本大学",
    "team_short_name": "日大",
    "runner_name": "大子",
    "total_distance_km": 13.8,
    "latitude": 35.572313576000234,
    "longitude": 139.73277566591435,
    "is_shadow_confederation": false
  },
  {
    "rank": 12,
    "team_name": "名古屋大学",
    "team_short_name": "名大",
    "runner_name": "美濃加茂",
    "total_distance_km": 13.4,
    "latitude": 35.5757013669591,
    "longitude": 139.73420730420415,
    "is_shadow_confederation": false
  },
  {
    "rank": 13,
    "team_name": "金沢大学",
    "team_short_name": "金沢",
    "runner_name": "秋ヶ島",
    "total_distance_km": 12.1,
    "latitude": 35.5871313503265,
    "longitude": 139.73579882639413,
    "is_shadow_confederation": false
  },
  {
    "rank": 14,
    "team_name": "鳥取大学",
    "team_short_name": "鳥取",
    "runner_name": "川本",
    "total_distance_km": 11.0,
    "latitude": 35.59685764774975,
    "longitude": 139.7374646881309,
    "is_shadow_confederation": false
  },
  {
    "rank": 15,
    "team_name": "広島経済大学",
    "team_short_name": "広経",
    "runner_name": "三次",
    "total_distance_km": 9.5,
    "latitude": 35.60920773930768,
    "longitude": 139.74254914671903,
    "is_shadow_confederation": false
  },
  {
    "rank": 16,
    "team_name": "山梨学院大学",
    "team_short_name": "山学",
    "runner_name": "長野",
    "total_distance_km": 7.1,
    "latitude": 35.63026714673835,
    "longitude": 139.73764720239322,
    "is_shadow_confederation": false
  },
  {
    "rank": 17,
    "team_name": "東北大学",
    "team_short_name": "東北",
    "runner_name": "帯広",
    "total_distance_km": 4.5,
    "latitude": 35.65249992957077,
    "longitude": 139.74508939876162,
    "is_shadow_confederation": false
  },
  {
    "rank": 18,
    "team_name": "学連選抜",
    "team_short_name": "学連",
    "runner_name": "美幌",
    "total_distance_km": -0.4,
    "latitude": 35.689441,
    "longitude": 139.760987,
    "is_shadow_confederation": false
  }
]