[
  {
    "rank": 1,
    "team_name": "琉球大学",
    "team_short_name": "琉球",
    "runner_name": "ゴール",
    "total_distance_km": 1082.6,
    "latitude": 33.950916,
    "longitude": 130.924104,
    "is_shadow_confederation": false
  },
  {
    "rank": 2,
    "team_name": "鹿児島大学",
    "team_short_name": "鹿大",
    "runner_name": "指宿",
    "total_distance_km": 1035.2,
    "latitude": 34.05018829449806,
    "longitude": 131.05657650203682,
    "is_shadow_confederation": false
  },
  {
    "rank": 3,
    "team_name": "熊本学園大学",
    "team_short_name": "熊学",
    "runner_name": "日田",
    "total_distance_km": 987.4,
    "latitude": 34.060936185355644,
    "longitude": 131.4929326955031,
    "is_shadow_confederation": false
  },
  {
    "rank": 4,
    "team_name": "福岡大学",
    "team_short_name": "福岡",
    "runner_name": "太宰府",
    "total_distance_km": 961.1,
    "latitude": 34.07483988844841,
    "longitude": 131.72856471510815,
    "is_shadow_confederation": false
  },
  {
    "rank": 5,
    "team_name": "名古屋大学",
    "team_short_name": "名大",
    "runner_name": "揖斐川",
    "total_distance_km": 934.1,
    "latitude": 34.061874362242676,
    "longitude": 131.9738584220593,
    "is_shadow_confederation": false
  },
  {
    "rank": 6,
    "team_name": "日本大学",
    "team_short_name": "日大",
    "runner_name": "海老名",
    "total_distance_km": 918.2,
    "latitude": 34.11587460788101,
    "longitude": 132.1204043969601,
    "is_shadow_confederation": false
  },
  {
    "rank": 7,
    "team_name": "上武大学",
    "team_short_name": "上武",
    "runner_name": "館林",
    "total_distance_km": 912.0,
    "latitude": 34.15088327437534,
    "longitude": 132.16928840793196,
    "is_shadow_confederation": false
  },
  {
    "rank": 8,
    "team_name": "四国大学",
    "team_short_name": "四国",
    "runner_name": "西条",
    "total_distance_km": 908.3,
    "latitude": 34.16445656878305,
    "longitude": 132.1965364712262,
    "is_shadow_confederation": false
  },
  {
    "rank": 9,
    "team_name": "関西大学",
    "team_short_name": "関大",
    "runner_name": "西脇",
    "total_distance_km": 886.2,
    "latitude": 34.31020144246285,
    "longitude": 132.30185220665842,
    "is_shadow_confederation": false
  },
  {
    "rank": 10,
    "team_name": "広島経済大学",
    "team_short_name": "広経",
    "runner_name": "滝宮",
    "total_distance_km": 873.4,
    "latitude": 34.37777029974892,
    "longitude": 132.39920480780768,
    "is_shadow_confederation": false
  },
  {
    "rank": 11,
    "team_name": "山梨学院大学",
    "team_short_name": "山学",
    "runner_name": "佐久間",
    "total_distance_km": 871.4,
    "latitude": 34.38663278991302,
    "longitude": 132.41749428744131,
    "is_shadow_confederation": false
  },
  {
    "rank": 12,
    "team_name": "三重大学",
    "team_short_name": "三重",
    "runner_name": "上野",
    "total_distance_km": 869.5,
    "latitude": 34.38795750045086,
    "longitude": 132.43397052202124,
    "is_shadow_confederation": false
  },
  {
    "rank": 13,
    "team_name": "鳥取大学",
    "team_short_name": "鳥取",
    "runner_name": "玖珂",
    "total_distance_km": 855.3,
    "latitude": 34.390923068805776,
    "longitude": 132.5648042836956,
    "is_shadow_confederation": false
  },
  {
    "rank": 14,
    "team_name": "立命館大学",
    "team_short_name": "立命",
    "runner_name": "京都",
    "total_distance_km": 842.6,
    "latitude": 34.44770458165344,
    "longitude": 132.65932604136736,
    "is_shadow_confederation": false
  },
  {
    "rank": 15,
    "team_name": "福島大学",
    "team_short_name": "福島",
    "runner_name": "喜多方",
    "total_distance_km": 779.5,
    "latitude": 34.43448842220273,
    "longitude": 133.23009449170667,
    "is_shadow_confederation": false
  },
  {
    "rank": 16,
    "team_name": "金沢大学",
    "team_short_name": "金沢",
    "runner_name": "小松",
    "total_distance_km": 766.3,
    "latitude": 34.48567257099371,
    "longitude": 133.35035702726847,
    "is_shadow_confederation": false
  },
  {
    "rank": 17,
    "team_name": "東北大学",
    "team_short_name": "東北",
    "runner_name": "秋田",
    "total_distance_km": 686.4,
    "latitude": 34.72541622415636,
    "longitude": 134.10584796328482,
    "is_shadow_confederation": false
  },
  {
    "rank": 18,
    "team_name": "学連選抜",
    "team_short_name": "学連",
    "runner_name": "多度津",
    "total_distance_km": 626.3,
    "latitude": 34.838248709650564,
    "longitude": 134.6701044494612,
    "is_shadow_confederation": false
  },
  {
    "rank": null,
    "team_name": "区間記録連合",
    "team_short_name": "区間記録",
    "runner_name": "ゴール",
    "total_distance_km": 1082.6,
    "latitude": 33.950916,
    "longitude": 130.924104,
    "is_shadow_confederation": true
  }
]