[
  {
    "rank": 1,
    "team_name": "琉球大学",
    "team_short_name": "琉球",
    "runner_name": "大原",
    "total_distance_km": 902.0,
    "latitude": 34.20140875421039,
    "longitude": 132.231435591137,
    "is_shadow_confederation": false
  },
  {
    "rank": 2,
    "team_name": "熊本学園大学",
    "team_short_name": "熊学",
    "runner_name": "三角",
    "total_distance_km": 847.9,
    "latitude": 34.42652373353198,
    "longitude": 132.62131748878616,
    "is_shadow_confederation": false
  },
  {
    "rank": 3,
    "team_name": "福岡大学",
    "team_short_name": "福岡",
    "runner_name": "大牟田",
    "total_distance_km": 829.6,
    "latitude": 34.40037649044224,
    "longitude": 132.7808783049806,
    "is_shadow_confederation": false
  },
  {
    "rank": 4,
    "team_name": "名古屋大学",
    "team_short_name": "名大",
    "runner_name": "大府",
    "total_distance_km": 826.1,
    "latitude": 34.407005428652525,
    "longitude": 132.81542804644778,
    "is_shadow_confederation": false
  },
  {
    "rank": 5,
    "team_name": "関西大学",
    "team_short_name": "関大",
    "runner_name": "郡家",
    "total_distance_km": 825.6,
    "latitude": 34.4069892324768,
    "longitude": 132.8205336717039,
    "is_shadow_confederation": false
  },
  {
    "rank": 6,
    "team_name": "鹿児島大学",
    "team_short_name": "鹿大",
    "runner_name": "さつま柏原",
    "total_distance_km": 820.8,
    "latitude": 34.39805122292231,
    "longitude": 132.86796637321584,
    "is_shadow_confederation": false
  },
  {
    "rank": 7,
    "team_name": "鳥取大学",
    "team_short_name": "鳥取",
    "runner_name": "玖珂",
    "total_distance_km": 817.7,
    "latitude": 34.38747231450779,
    "longitude": 132.89651122710677,
    "is_shadow_confederation": false
  },
  {
    "rank": 8,
    "team_name": "広島経済大学",
    "team_short_name": "広経",
    "runner_name": "引田",
    "total_distance_km": 816.6,
    "latitude": 34.39252431899721,
    "longitude": 132.90630517330214,
    "is_shadow_confederation": false
  },
  {
    "rank": 9,
    "team_name": "立命館大学",
    "team_short_name": "立命",
    "runner_name": "京都",
    "total_distance_km": 815.4,
    "latitude": 34.397235542498166,
    "longitude": 132.9175818381607,
    "is_shadow_confederation": false
  },
  {
    "rank": 10,
    "team_name": "四国大学",
    "team_short_name": "四国",
    "runner_name": "江川崎",
    "total_distance_km": 806.4,
    "latitude": 34.40369730028914,
    "longitude": 132.99962072070835,
    "is_shadow_confederation": false
  },
  {
    "rank": 11,
    "team_name": "上武大学",
    "team_short_name": "上武",
    "runner_name": "前橋",
    "total_distance_km": 800.9,
    "latitude": 34.391638332280564,
    "longitude": 133.05211406892255,
    "is_shadow_confederation": false
  },
  {
    "rank": 12,
    "team_name": "山梨学院大学",
    "team_short_name": "山学",
    "runner_name": "上田",
    "total_distance_km": 800.2,
    "latitude": 34.38970439557064,
    "longitude": 133.05850659908103,
    "is_shadow_confederation": false
  },
  {
    "rank": 13,
    "team_name": "金沢大学",
    "team_short_name": "金沢",
    "runner_name": "小松",
    "total_distance_km": 794.0,
    "latitude": 34.38530381610048,
    "longitude": 133.11473067269918,
    "is_shadow_confederation": false
  },
  {
    "rank": 14,
    "team_name": "三重大学",
    "team_short_name": "三重",
    "runner_name": "和歌山",
    "total_distance_km": 793.9,
    "latitude": 34.384553534824654,
    "longitude": 133.11521676374926,
    "is_shadow_confederation": false
  },
  {
    "rank": 15,
    "team_name": "日本大学",
    "team_short_name": "日大",
    "runner_name": "府中（東京）",
    "total_distance_km": 770.2,
    "latitude": 34.47461271729467,
    "longitude": 133.3136329554973,
    "is_shadow_confederation": false
  },
  {
    "rank": 16,
    "team_name": "学連選抜",
    "team_short_name": "学連",
    "runner_name": "加世田",
    "total_distance_km": 744.7,
    "latitude": 34.513377392743564,
    "longitude": 133.5622656261545,
    "is_shadow_confederation": false
  },
  {
    "rank": 17,
    "team_name": "福島大学",
    "team_short_name": "福島",
    "runner_name": "寺泊",
    "total_distance_km": 731.7,
    "latitude": 34.562916865161775,
    "longitude": 133.68508347440573,
    "is_shadow_confederation": false
  },
  {
    "rank": 18,
    "team_name": "東北大学",
    "team_short_name": "東北",
    "runner_name": "秋田",
    "total_distance_km": 725.1,
    "latitude": 34.58704921405188,
    "longitude": 133.74472304150325,
    "is_shadow_confederation": false
  }
]