[
  {
    "rank": 1,
    "team_name": "琉球大学",
    "team_short_name": "琉球",
    "runner_name": "西表島",
    "total_distance_km": 806.9,
    "latitude": 34.402094415208246,
    "longitude": 132.99464893783917,
    "is_shadow_confederation": false
  },
  {
    "rank": 2,
    "team_name": "熊本学園大学",
    "team_short_name": "熊学",
    "runner_name": "三角",
    "total_distance_km": 759.5,
    "latitude": 34.49791584542325,
    "longitude": 133.42123482587013,
    "is_shadow_confederation": false
  },
  {
    "rank": 3,
    "team_name": "鹿児島大学",
    "team_short_name": "鹿大",
    "runner_name": "鹿児島",
    "total_distance_km": 740.4,
    "latitude": 34.53359518689369,
    "longitude": 133.60210272902972,
    "is_shadow_confederation": false
  },
  {
    "rank": 4,
    "team_name": "福岡大学",
    "team_short_name": "福岡",
    "runner_name": "口之津",
    "total_distance_km": 739.5,
    "latitude": 34.53589485460252,
    "longitude": 133.61148377987124,
    "is_shadow_confederation": false
  },
  {
    "rank": 5,
    "team_name": "名古屋大学",
    "team_short_name": "名大",
    "runner_name": "名古屋",
    "total_distance_km": 738.9,
    "latitude": 34.53614819592263,
    "longitude": 133.6179889540667,
    "is_shadow_confederation": false
  },
  {
    "rank": 6,
    "team_name": "関西大学",
    "team_short_name": "関大",
    "runner_name": "八尾（大阪）",
    "total_distance_km": 738.6,
    "latitude": 34.5356086267461,
    "longitude": 133.6211879252612,
    "is_shadow_confederation": false
  },
  {
    "rank": 7,
    "team_name": "立命館大学",
    "team_short_name": "立命",
    "runner_name": "長浜（滋賀）",
    "total_distance_km": 729.5,
    "latitude": 34.576998435510006,
    "longitude": 133.70194519501484,
    "is_shadow_confederation": false
  },
  {
    "rank": 8,
    "team_name": "鳥取大学",
    "team_short_name": "鳥取",
    "runner_name": "米子",
    "total_distance_km": 728.5,
    "latitude": 34.57796850288828,
    "longitude": 133.7117165555663,
    "is_shadow_confederation": false
  },
  {
    "rank": 9,
    "team_name": "広島経済大学",
    "team_short_name": "広経",
    "runner_name": "福山",
    "total_distance_km": 727.0,
    "latitude": 34.577444948048374,
    "longitude": 133.72757606144262,
    "is_shadow_confederation": false
  },
  {
    "rank": 9,
    "team_name": "四国大学",
    "team_short_name": "四国",
    "runner_name": "新居浜",
    "total_distance_km": 727.0,
    "latitude": 34.577444948048374,
    "longitude": 133.72757606144262,
    "is_shadow_confederation": false
  },
  {
    "rank": 11,
    "team_name": "上武大学",
    "team_short_name": "上武",
    "runner_name": "小山",
    "total_distance_km": 714.9,
    "latitude": 34.641424937334065,
    "longitude": 133.83186334352487,
    "is_shadow_confederation": false
  },
  {
    "rank": 12,
    "team_name": "山梨学院大学",
    "team_short_name": "山学",
    "runner_name": "三島",
    "total_distance_km": 713.4,
    "latitude": 34.64602007069823,
    "longitude": 133.8471918489877,
    "is_shadow_confederation": false
  },
  {
    "rank": 13,
    "team_name": "三重大学",
    "team_short_name": "三重",
    "runner_name": "津",
    "total_distance_km": 709.6,
    "latitude": 34.64915034500565,
    "longitude": 133.8866283395579,
    "is_shadow_confederation": false
  },
  {
    "rank": 14,
    "team_name": "金沢大学",
    "team_short_name": "金沢",
    "runner_name": "敦賀",
    "total_distance_km": 709.2,
    "latitude": 34.65048203620995,
    "longitude": 133.8906481786658,
    "is_shadow_confederation": false
  },
  {
    "rank": 15,
    "team_name": "日本大学",
    "team_short_name": "日大",
    "runner_name": "練馬",
    "total_distance_km": 686.5,
    "latitude": 34.72496378070894,
    "longitude": 134.10490365375927,
    "is_shadow_confederation": false
  },
  {
    "rank": 16,
    "team_name": "学連選抜",
    "team_short_name": "学連",
    "runner_name": "多度津",
    "total_distance_km": 660.3,
    "latitude": 34.84275157276504,
    "longitude": 134.3323065216521,
    "is_shadow_confederation": false
  },
  {
    "rank": 17,
    "team_name": "福島大学",
    "team_short_name": "福島",
    "runner_name": "浪江",
    "total_distance_km": 646.3,
    "latitude": 34.818593599442245,
    "longitude": 134.4708972533492,
    "is_shadow_confederation": false
  },
  {
    "rank": 18,
    "team_name": "東北大学",
    "team_short_name": "東北",
    "runner_name": "丸森",
    "total_distance_km": 636.9,
    "latitude": 34.83355271177486,
    "longitude": 134.57046282657117,
    "is_shadow_confederation": false
  }
]