[
  {
    "rank": 1,
    "team_name": "琉球大学",
    "team_short_name": "琉球",
    "runner_name": "波照間",
    "total_distance_km": 515.4,
    "latitude": 34.807611440968536,
    "longitude": 135.6549365798158,
    "is_shadow_confederation": false
  },
  {
    "rank": 2,
    "team_name": "熊本学園大学",
    "team_short_name": "熊学",
    "runner_name": "熊本",
    "total_distance_km": 494.7,
    "latitude": 34.96400493446509,
    "longitude": 135.74592018370188,
    "is_shadow_confederation": false
  },
  {
    "rank": 3,
    "team_name": "福岡大学",
    "team_short_name": "福岡",
    "runner_name": "前原",
    "total_distance_km": 478.4,
    "latitude": 34.99410449198209,
    "longitude": 135.8556551468865,
    "is_shadow_confederation": false
  },
  {
    "rank": 4,
    "team_name": "鹿児島大学",
    "team_short_name": "鹿大",
    "runner_name": "西都",
    "total_distance_km": 472.0,
    "latitude": 34.97790809737398,
    "longitude": 135.9036024547153,
    "is_shadow_confederation": false
  },
  {
    "rank": 5,
    "team_name": "名古屋大学",
    "team_short_name": "名大",
    "runner_name": "多治見",
    "total_distance_km": 470.4,
    "latitude": 34.98200008141317,
    "longitude": 135.91937161847375,
    "is_shadow_confederation": false
  },
  {
    "rank": 6,
    "team_name": "立命館大学",
    "team_short_name": "立命",
    "runner_name": "舞鶴",
    "total_distance_km": 470.1,
    "latitude": 34.9834705005784,
    "longitude": 135.92210825765636,
    "is_shadow_confederation": false
  },
  {
    "rank": 7,
    "team_name": "関西大学",
    "team_short_name": "関大",
    "runner_name": "枚方",
    "total_distance_km": 469.1,
    "latitude": 34.987942707398716,
    "longitude": 135.93161755175228,
    "is_shadow_confederation": false
  },
  {
    "rank": 8,
    "team_name": "四国大学",
    "team_short_name": "四国",
    "runner_name": "大洲",
    "total_distance_km": 465.4,
    "latitude": 35.01107625514377,
    "longitude": 135.96060480990212,
    "is_shadow_confederation": false
  },
  {
    "rank": 9,
    "team_name": "広島経済大学",
    "team_short_name": "広経",
    "runner_name": "高梁",
    "total_distance_km": 464.9,
    "latitude": 35.01418516976654,
    "longitude": 135.96457082500825,
    "is_shadow_confederation": false
  },
  {
    "rank": 10,
    "team_name": "鳥取大学",
    "team_short_name": "鳥取",
    "runner_name": "境",
    "total_distance_km": 463.3,
    "latitude": 35.0218387372793,
    "longitude": 135.97848968081487,
    "is_shadow_confederation": false
  },
  {
    "rank": 11,
    "team_name": "上武大学",
    "team_short_name": "上武",
    "runner_name": "桐生",
    "total_distance_km": 459.9,
    "latitude": 35.030995048592715,
    "longitude": 136.01350458665158,
    "is_shadow_confederation": false
  },
  {
    "rank": 12,
    "team_name": "山梨学院大学",
    "team_short_name": "山学",
    "runner_name": "甲府",
    "total_distance_km": 456.5,
    "latitude": 35.021863563267004,
    "longitude": 136.04823615565172,
    "is_shadow_confederation": false
  },
  {
    "rank": 13,
    "team_name": "三重大学",
    "team_short_name": "三重",
    "runner_name": "奈良",
    "total_distance_km": 455.9,
    "latitude": 35.0194721796493,
    "longitude": 136.05410774177037,
    "is_shadow_confederation": false
  },
  {
    "rank": 14,
    "team_name": "金沢大学",
    "team_short_name": "金沢",
    "runner_name": "福井",
    "total_distance_km": 453.3,
    "latitude": 35.00632712236503,
    "longitude": 136.0776901986302,
    "is_shadow_confederation": false
  },
  {
    "rank": 15,
    "team_name": "日本大学",
    "team_short_name": "日大",
    "runner_name": "牛久",
    "total_distance_km": 447.6,
    "latitude": 34.985178479800155,
    "longitude": 136.13042494466126,
    "is_shadow_confederation": false
  },
  {
    "rank": 16,
    "team_name": "福島大学",
    "team_short_name": "福島",
    "runner_name": "福島",
    "total_distance_km": 425.2,
    "latitude": 34.89565382129152,
    "longitude": 136.3368125246899,
    "is_shadow_confederation": false
  },
  {
    "rank": 17,
    "team_name": "東北大学",
    "team_short_name": "東北",
    "runner_name": "大館",
    "total_distance_km": 417.4,
    "latitude": 34.855663355671894,
    "longitude": 136.38324280615183,
    "is_shadow_confederation": false
  },
  {
    "rank": 18,
    "team_name": "学連選抜",
    "team_short_name": "学連",
    "runner_name": "上",
    "total_distance_km": 404.1,
    "latitude": 34.87699201024211,
    "longitude": 136.50667409143793,
    "is_shadow_confederation": false
  }
]