[
  {
    "rank": 1,
    "team_name": "琉球大学",
    "team_short_name": "琉球",
    "runner_name": "仲筋",
    "total_distance_km": 182.4,
    "latitude": 34.94971783007889,
    "longitude": 138.33177382822666,
    "current_leg": 2,
    "is_shadow_confederation": false
  },
  {
    "rank": 2,
    "team_name": "名古屋大学",
    "team_short_name": "名大",
    "runner_name": "美濃",
    "total_distance_km": 172.2,
    "latitude": 34.992586110417875,
    "longitude": 138.42100328168715,
    "current_leg": 2,
    "is_shadow_confederation": false
  },
  {
    "rank": 3,
    "team_name": "福岡大学",
    "team_short_name": "福岡",
    "runner_name": "福岡",
    "total_distance_km": 163.5,
    "latitude": 35.035294884062544,
    "longitude": 138.49253768866586,
    "current_leg": 2,
    "is_shadow_confederation": false
  },
  {
    "rank": 4,
    "team_name": "熊本学園大学",
    "team_short_name": "熊学",
    "runner_name": "岱明",
    "total_distance_km": 161.8,
    "latitude": 35.04519237712789,
    "longitude": 138.50532037734683,
    "current_leg": 2,
    "is_shadow_confederation": false
  },
  {
    "rank": 4,
    "team_name": "山梨学院大学",
    "team_short_name": "山学",
    "runner_name": "南信濃",
    "total_distance_km": 161.8,
    "latitude": 35.04519237712789,
    "longitude": 138.50532037734683,
    "current_leg": 2,
    "is_shadow_confederation": false
  },
  {
    "rank": 6,
    "team_name": "三重大学",
    "team_short_name": "三重",
    "runner_name": "五條",
    "total_distance_km": 161.6,
    "latitude": 35.04601066767607,
    "longitude": 138.5071748638717,
    "current_leg": 2,
    "is_shadow_confederation": false
  },
  {
    "rank": 6,
    "team_name": "立命館大学",
    "team_short_name": "立命",
    "runner_name": "福知山",
    "total_distance_km": 161.6,
    "latitude": 35.04601066767607,
    "longitude": 138.5071748638717,
    "current_leg": 2,
    "is_shadow_confederation": false
  },
  {
    "rank": 8,
    "team_name": "金沢大学",
    "team_short_name": "金沢",
    "runner_name": "小浜",
    "total_distance_km": 160.7,
    "latitude": 35.04793425133778,
    "longitude": 138.51638960104287,
    "current_leg": 2,
    "is_shadow_confederation": false
  },
  {
    "rank": 9,
    "team_name": "上武大学",
    "team_short_name": "上武",
    "runner_name": "越谷",
    "total_distance_km": 159.9,
    "latitude": 35.05178182190953,
    "longitude": 138.5237912024317,
    "current_leg": 2,
    "is_shadow_confederation": false
  },
  {
    "rank": 10,
    "team_name": "四国大学",
    "team_short_name": "四国",
    "runner_name": "大三島",
    "total_distance_km": 159.2,
    "latitude": 35.0553159026638,
    "longitude": 138.5300973533339,
    "current_leg": 2,
    "is_shadow_confederation": false
  },
  {
    "rank": 11,
    "team_name": "鹿児島大学",
    "team_short_name": "鹿大",
    "runner_name": "川内（鹿児島）",
    "total_distance_km": 157.9,
    "latitude": 35.06404484117656,
    "longitude": 138.53954223687694,
    "current_leg": 2,
    "is_shadow_confederation": false
  },
  {
    "rank": 12,
    "team_name": "鳥取大学",
    "team_short_name": "鳥取",
    "runner_name": "鳥取",
    "total_distance_km": 157.6,
    "latitude": 35.06657135234988,
    "longitude": 138.54061580663762,
    "current_leg": 2,
    "is_shadow_confederation": false
  },
  {
    "rank": 13,
    "team_name": "関西大学",
    "team_short_name": "関大",
    "runner_name": "和田山",
    "total_distance_km": 157.5,
    "latitude": 35.06744621992994,
    "longitude": 138.54085157410574,
    "current_leg": 2,
    "is_shadow_confederation": false
  },
  {
    "rank": 14,
    "team_name": "日本大学",
    "team_short_name": "日大",
    "runner_name": "古河",
    "total_distance_km": 156.8,
    "latitude": 35.07333378738286,
    "longitude": 138.54333368990206,
    "current_leg": 2,
    "is_shadow_confederation": false
  },
  {
    "rank": 15,
    "team_name": "広島経済大学",
    "team_short_name": "広経",
    "runner_name": "加計",
    "total_distance_km": 151.6,
    "latitude": 35.110848187276225,
    "longitude": 138.57110080931207,
    "current_leg": 2,
    "is_shadow_confederation": false
  },
  {
    "rank": 16,
    "team_name": "福島大学",
    "team_short_name": "福島",
    "runner_name": "石川",
    "total_distance_km": 131.4,
    "latitude": 35.12950842379866,
    "longitude": 138.7722810371471,
    "current_leg": 2,
    "is_shadow_confederation": false
  },
  {
    "rank": 17,
    "team_name": "東北大学",
    "team_short_name": "東北",
    "runner_name": "山形（山形）",
    "total_distance_km": 127.8,
    "latitude": 35.118250738897565,
    "longitude": 138.80917528912104,
    "current_leg": 2,
    "is_shadow_confederation": false
  },
  {
    "rank": 18,
    "team_name": "学連選抜",
    "team_short_name": "学連",
    "runner_name": "新潟",
    "total_distance_km": 123.2,
    "latitude": 35.099846144575125,
    "longitude": 138.85342829102916,
    "current_leg": 2,
    "is_shadow_confederation": false
  },
  {
    "rank": null,
    "team_name": "区間記録連合",
    "team_short_name": "区間記録",
    "runner_name": "佐野",
    "total_distance_km": 194.6,
    "latitude": 34.882058875284166,
    "longitude": 138.2406909645627,
    "current_leg": 2,
    "is_shadow_confederation": true
  }
]