[
  {
    "rank": 1,
    "team_name": "琉球大学",
    "team_short_name": "琉球",
    "runner_name": "仲筋",
    "total_distance_km": 157.8,
    "latitude": 35.064851840773834,
    "longitude": 138.54003059642704,
    "is_shadow_confederation": false
  },
  {
    "rank": 2,
    "team_name": "熊本学園大学",
    "team_short_name": "熊学",
    "runner_name": "岱明",
    "total_distance_km": 155.3,
    "latitude": 35.0860990276182,
    "longitude": 138.54837296364494,
    "is_shadow_confederation": false
  },
  {
    "rank": 3,
    "team_name": "福岡大学",
    "team_short_name": "福岡",
    "runner_name": "福岡",
    "total_distance_km": 147.7,
    "latitude": 35.115856982126,
    "longitude": 138.612255890152,
    "is_shadow_confederation": false
  },
  {
    "rank": 4,
    "team_name": "鹿児島大学",
    "team_short_name": "鹿大",
    "runner_name": "川内（鹿児島）",
    "total_distance_km": 147.0,
    "latitude": 35.11574104172248,
    "longitude": 138.61990869571449,
    "is_shadow_confederation": false
  },
  {
    "rank": 5,
    "team_name": "四国大学",
    "team_short_name": "四国",
    "runner_name": "大三島",
    "total_distance_km": 135.7,
    "latitude": 35.13881222579642,
    "longitude": 138.72653282628903,
    "is_shadow_confederation": false
  },
  {
    "rank": 6,
    "team_name": "関西大学",
    "team_short_name": "関大",
    "runner_name": "和田山",
    "total_distance_km": 129.5,
    "latitude": 35.12413327620166,
    "longitude": 138.7920129117934,
    "is_shadow_confederation": false
  },
  {
    "rank": 7,
    "team_name": "広島経済大学",
    "team_short_name": "広経",
    "runner_name": "加計",
    "total_distance_km": 128.2,
    "latitude": 35.11985192929145,
    "longitude": 138.80524372003444,
    "is_shadow_confederation": false
  },
  {
    "rank": 8,
    "team_name": "立命館大学",
    "team_short_name": "立命",
    "runner_name": "福知山",
    "total_distance_km": 126.9,
    "latitude": 35.11464806051132,
    "longitude": 138.8180213195659,
    "is_shadow_confederation": false
  },
  {
    "rank": 9,
    "team_name": "鳥取大学",
    "team_short_name": "鳥取",
    "runner_name": "鳥取",
    "total_distance_km": 126.8,
    "latitude": 35.114247762912846,
    "longitude": 138.81900421183755,
    "is_shadow_confederation": false
  },
  {
    "rank": 9,
    "team_name": "三重大学",
    "team_short_name": "三重",
    "runner_name": "五條",
    "total_distance_km": 126.8,
    "latitude": 35.114247762912846,
    "longitude": 138.81900421183755,
    "is_shadow_confederation": false
  },
  {
    "rank": 11,
    "team_name": "名古屋大学",
    "team_short_name": "名大",
    "runner_name": "美濃加茂",
    "total_distance_km": 121.1,
    "latitude": 35.10141106262722,
    "longitude": 138.8759756403273,
    "is_shadow_confederation": false
  },
  {
    "rank": 12,
    "team_name": "金沢大学",
    "team_short_name": "金沢",
    "runner_name": "秋ヶ島",
    "total_distance_km": 115.9,
    "latitude": 35.1213511090146,
    "longitude": 138.92544709191938,
    "is_shadow_confederation": false
  },
  {
    "rank": 13,
    "team_name": "上武大学",
    "team_short_name": "上武",
    "runner_name": "佐野",
    "total_distance_km": 108.9,
    "latitude": 35.15023972771943,
    "longitude": 138.9857828822403,
    "is_shadow_confederation": false
  },
  {
    "rank": 14,
    "team_name": "日本大学",
    "team_short_name": "日大",
    "runner_name": "大子",
    "total_distance_km": 104.2,
    "latitude": 35.17233864473877,
    "longitude": 139.00711002119786,
    "is_shadow_confederation": false
  },
  {
    "rank": 15,
    "team_name": "山梨学院大学",
    "team_short_name": "山学",
    "runner_name": "長野",
    "total_distance_km": 103.6,
    "latitude": 35.17436924351032,
    "longitude": 139.01147507600902,
    "is_shadow_confederation": false
  },
  {
    "rank": 16,
    "team_name": "福島大学",
    "team_short_name": "福島",
    "runner_name": "梁川",
    "total_distance_km": 98.0,
    "latitude": 35.196685045282806,
    "longitude": 139.05252468056634,
    "is_shadow_confederation": false
  },
  {
    "rank": 17,
    "team_name": "東北大学",
    "team_short_name": "東北",
    "runner_name": "帯広",
    "total_distance_km": 69.1,
    "latitude": 35.30635111098736,
    "longitude": 139.30045365469834,
    "is_shadow_confederation": false
  },
  {
    "rank": 18,
    "team_name": "学連選抜",
    "team_short_name": "学連",
    "runner_name": "美幌",
    "total_distance_km": 66.0,
    "latitude": 35.31381646166465,
    "longitude": 139.33048983219882,
    "is_shadow_confederation": false
  }
]