[
  {
    "rank": 1,
    "team_name": "熊本学園大学",
    "team_short_name": "熊学",
    "runner_name": "岱明",
    "total_distance_km": 204.5,
    "latitude": 34.84420717039039,
    "longitude": 138.15075874314363,
    "is_shadow_confederation": false
  },
  {
    "rank": 2,
    "team_name": "琉球大学",
    "team_short_name": "琉球",
    "runner_name": "仲筋",
    "total_distance_km": 202.9,
    "latitude": 34.84593890309055,
    "longitude": 138.16784662957826,
    "is_shadow_confederation": false
  },
  {
    "rank": 3,
    "team_name": "福岡大学",
    "team_short_name": "福岡",
    "runner_name": "福岡",
    "total_distance_km": 196.6,
    "latitude": 34.869933391309516,
    "longitude": 138.22524970099272,
    "is_shadow_confederation": false
  },
  {
    "rank": 4,
    "team_name": "鹿児島大学",
    "team_short_name": "鹿大",
    "runner_name": "川内（鹿児島）",
    "total_distance_km": 193.4,
    "latitude": 34.88725724330407,
    "longitude": 138.2520729470288,
    "is_shadow_confederation": false
  },
  {
    "rank": 5,
    "team_name": "立命館大学",
    "team_short_name": "立命",
    "runner_name": "福知山",
    "total_distance_km": 192.3,
    "latitude": 34.891899643095826,
    "longitude": 138.26264326316385,
    "is_shadow_confederation": false
  },
  {
    "rank": 6,
    "team_name": "関西大学",
    "team_short_name": "関大",
    "runner_name": "和田山",
    "total_distance_km": 187.6,
    "latitude": 34.92223302438188,
    "longitude": 138.2919909260632,
    "is_shadow_confederation": false
  },
  {
    "rank": 7,
    "team_name": "広島経済大学",
    "team_short_name": "広経",
    "runner_name": "加計",
    "total_distance_km": 186.5,
    "latitude": 34.92673371565312,
    "longitude": 138.30167126937062,
    "is_shadow_confederation": false
  },
  {
    "rank": 8,
    "team_name": "四国大学",
    "team_short_name": "四国",
    "runner_name": "大三島",
    "total_distance_km": 186.2,
    "latitude": 34.929338492487176,
    "longitude": 138.30255333211412,
    "is_shadow_confederation": false
  },
  {
    "rank": 9,
    "team_name": "三重大学",
    "team_short_name": "三重",
    "runner_name": "五條",
    "total_distance_km": 185.9,
    "latitude": 34.93167346693624,
    "longitude": 138.30416623954744,
    "is_shadow_confederation": false
  },
  {
    "rank": 10,
    "team_name": "金沢大学",
    "team_short_name": "金沢",
    "runner_name": "小浜",
    "total_distance_km": 184.2,
    "latitude": 34.93969914199394,
    "longitude": 138.31830896888334,
    "is_shadow_confederation": false
  },
  {
    "rank": 11,
    "team_name": "鳥取大学",
    "team_short_name": "鳥取",
    "runner_name": "鳥取",
    "total_distance_km": 183.0,
    "latitude": 34.94466024227331,
    "longitude": 138.32949106261967,
    "is_shadow_confederation": false
  },
  {
    "rank": 12,
    "team_name": "名古屋大学",
    "team_short_name": "名大",
    "runner_name": "美濃",
    "total_distance_km": 181.6,
    "latitude": 34.95041122086566,
    "longitude": 138.33964581437078,
    "is_shadow_confederation": false
  },
  {
    "rank": 13,
    "team_name": "山梨学院大学",
    "team_short_name": "山学",
    "runner_name": "南信濃",
    "total_distance_km": 172.3,
    "latitude": 34.9920324704386,
    "longitude": 138.4201388400572,
    "is_shadow_confederation": false
  },
  {
    "rank": 14,
    "team_name": "上武大学",
    "team_short_name": "上武",
    "runner_name": "越谷",
    "total_distance_km": 166.9,
    "latitude": 35.01736594147271,
    "longitude": 138.4695159997034,
    "is_shadow_confederation": false
  },
  {
    "rank": 15,
    "team_name": "日本大学",
    "team_short_name": "日大",
    "runner_name": "古河",
    "total_distance_km": 165.3,
    "latitude": 35.02380753003186,
    "longitude": 138.48313107557792,
    "is_shadow_confederation": false
  },
  {
    "rank": 16,
    "team_name": "福島大学",
    "team_short_name": "福島",
    "runner_name": "石川",
    "total_distance_km": 154.5,
    "latitude": 35.09306544312009,
    "longitude": 138.55063829836618,
    "is_shadow_confederation": false
  },
  {
    "rank": 17,
    "team_name": "東北大学",
    "team_short_name": "東北",
    "runner_name": "山形（山形）",
    "total_distance_km": 131.5,
    "latitude": 35.12975951812431,
    "longitude": 138.77122731308705,
    "is_shadow_confederation": false
  },
  {
    "rank": 18,
    "team_name": "学連選抜",
    "team_short_name": "学連",
    "runner_name": "新潟",
    "total_distance_km": 124.4,
    "latitude": 35.10204213830232,
    "longitude": 138.84057762172685,
    "is_shadow_confederation": false
  }
]