[
  {
    "rank": 1,
    "team_name": "熊本学園大学",
    "team_short_name": "熊学",
    "runner_name": "甲佐",
    "total_distance_km": 115.7,
    "latitude": 35.122063323517985,
    "longitude": 138.92746272362677,
    "is_shadow_confederation": false
  },
  {
    "rank": 2,
    "team_name": "名古屋大学",
    "team_short_name": "名大",
    "runner_name": "美濃加茂",
    "total_distance_km": 114.5,
    "latitude": 35.126588970509694,
    "longitude": 138.9389823502493,
    "is_shadow_confederation": false
  },
  {
    "rank": 3,
    "team_name": "福岡大学",
    "team_short_name": "福岡",
    "runner_name": "久留米",
    "total_distance_km": 113.8,
    "latitude": 35.131368850308846,
    "longitude": 138.94382836021117,
    "is_shadow_confederation": false
  },
  {
    "rank": 4,
    "team_name": "立命館大学",
    "team_short_name": "立命",
    "runner_name": "東近江",
    "total_distance_km": 112.9,
    "latitude": 35.135417105239696,
    "longitude": 138.95197780675585,
    "is_shadow_confederation": false
  },
  {
    "rank": 5,
    "team_name": "琉球大学",
    "team_short_name": "琉球",
    "runner_name": "北原",
    "total_distance_km": 111.4,
    "latitude": 35.13840156399659,
    "longitude": 138.96357317507324,
    "is_shadow_confederation": false
  },
  {
    "rank": 6,
    "team_name": "鹿児島大学",
    "team_short_name": "鹿大",
    "runner_name": "東市来",
    "total_distance_km": 110.1,
    "latitude": 35.14573133783333,
    "longitude": 138.97435692122468,
    "is_shadow_confederation": false
  },
  {
    "rank": 7,
    "team_name": "四国大学",
    "team_short_name": "四国",
    "runner_name": "穴吹",
    "total_distance_km": 109.7,
    "latitude": 35.14684419286581,
    "longitude": 138.978380117102,
    "is_shadow_confederation": false
  },
  {
    "rank": 8,
    "team_name": "三重大学",
    "team_short_name": "三重",
    "runner_name": "粥見",
    "total_distance_km": 109.6,
    "latitude": 35.14725916454807,
    "longitude": 138.97934994906845,
    "is_shadow_confederation": false
  },
  {
    "rank": 9,
    "team_name": "金沢大学",
    "team_short_name": "金沢",
    "runner_name": "秋ヶ島",
    "total_distance_km": 107.8,
    "latitude": 35.15372995702247,
    "longitude": 138.99334820877834,
    "is_shadow_confederation": false
  },
  {
    "rank": 10,
    "team_name": "関西大学",
    "team_short_name": "関大",
    "runner_name": "福崎",
    "total_distance_km": 107.4,
    "latitude": 35.15649720371935,
    "longitude": 138.99583852053166,
    "is_shadow_confederation": false
  },
  {
    "rank": 11,
    "team_name": "広島経済大学",
    "team_short_name": "広経",
    "runner_name": "三次",
    "total_distance_km": 105.9,
    "latitude": 35.16578083480137,
    "longitude": 139.00298294989736,
    "is_shadow_confederation": false
  },
  {
    "rank": 12,
    "team_name": "上武大学",
    "team_short_name": "上武",
    "runner_name": "佐野",
    "total_distance_km": 104.1,
    "latitude": 35.17294339342326,
    "longitude": 139.0078922096506,
    "is_shadow_confederation": false
  },
  {
    "rank": 13,
    "team_name": "鳥取大学",
    "team_short_name": "鳥取",
    "runner_name": "川本",
    "total_distance_km": 103.3,
    "latitude": 35.17532472415484,
    "longitude": 139.01403071873685,
    "is_shadow_confederation": false
  },
  {
    "rank": 14,
    "team_name": "山梨学院大学",
    "team_short_name": "山学",
    "runner_name": "長野",
    "total_distance_km": 102.4,
    "latitude": 35.1823897290314,
    "longitude": 139.0140912216256,
    "is_shadow_confederation": false
  },
  {
    "rank": 15,
    "team_name": "日本大学",
    "team_short_name": "日大",
    "runner_name": "大子",
    "total_distance_km": 101.2,
    "latitude": 35.184343054203,
    "longitude": 139.02528665530548,
    "is_shadow_confederation": false
  },
  {
    "rank": 16,
    "team_name": "福島大学",
    "team_short_name": "福島",
    "runner_name": "梁川",
    "total_distance_km": 97.6,
    "latitude": 35.20016765772283,
    "longitude": 139.05357607236152,
    "is_shadow_confederation": false
  },
  {
    "rank": 17,
    "team_name": "東北大学",
    "team_short_name": "東北",
    "runner_name": "帯広",
    "total_distance_km": 76.9,
    "latitude": 35.282951870186416,
    "longitude": 139.22170304308207,
    "is_shadow_confederation": false
  },
  {
    "rank": 18,
    "team_name": "学連選抜",
    "team_short_name": "学連",
    "runner_name": "美幌",
    "total_distance_km": 57.3,
    "latitude": 35.31912567047649,
    "longitude": 139.42333808026854,
    "is_shadow_confederation": false
  }
]