[
  {
    "rank": 1,
    "team_name": "琉球大学",
    "team_short_name": "琉球",
    "runner_name": "西表島",
    "total_distance_km": 850.0,
    "latitude": 34.42145061675803,
    "longitude": 132.60044719148553,
    "is_shadow_confederation": false
  },
  {
    "rank": 2,
    "team_name": "鹿児島大学",
    "team_short_name": "鹿大",
    "runner_name": "鹿児島",
    "total_distance_km": 691.4,
    "latitude": 34.705263483215305,
    "longitude": 134.0625495578953,
    "is_shadow_confederation": false
  },
  {
    "rank": 3,
    "team_name": "熊本学園大学",
    "team_short_name": "熊学",
    "runner_name": "犬飼",
    "total_distance_km": 664.8,
    "latitude": 34.82393609754205,
    "longitude": 134.29630959492434,
    "is_shadow_confederation": false
  },
  {
    "rank": 4,
    "team_name": "福岡大学",
    "team_short_name": "福岡",
    "runner_name": "博多",
    "total_distance_km": 639.7,
    "latitude": 34.82910488290815,
    "longitude": 134.54079800722837,
    "is_shadow_confederation": false
  },
  {
    "rank": 5,
    "team_name": "四国大学",
    "team_short_name": "四国",
    "runner_name": "徳島",
    "total_distance_km": 600.0,
    "latitude": 34.71216391450597,
    "longitude": 134.90088541165957,
    "is_shadow_confederation": false
  },
  {
    "rank": 6,
    "team_name": "名古屋大学",
    "team_short_name": "名大",
    "runner_name": "豊田（愛知）",
    "total_distance_km": 597.1,
    "latitude": 34.693095260262716,
    "longitude": 134.92200727664382,
    "is_shadow_confederation": false
  },
  {
    "rank": 7,
    "team_name": "日本大学",
    "team_short_name": "日大",
    "runner_name": "八王子",
    "total_distance_km": 590.1,
    "latitude": 34.651705740613814,
    "longitude": 134.9780449498979,
    "is_shadow_confederation": false
  },
  {
    "rank": 8,
    "team_name": "上武大学",
    "team_short_name": "上武",
    "runner_name": "伊勢崎",
    "total_distance_km": 585.1,
    "latitude": 34.63768845033379,
    "longitude": 135.02844584389348,
    "is_shadow_confederation": false
  },
  {
    "rank": 9,
    "team_name": "広島経済大学",
    "team_short_name": "広経",
    "runner_name": "高松（香川）",
    "total_distance_km": 581.0,
    "latitude": 34.629600614738806,
    "longitude": 135.06832293797825,
    "is_shadow_confederation": false
  },
  {
    "rank": 10,
    "team_name": "三重大学",
    "team_short_name": "三重",
    "runner_name": "新宮",
    "total_distance_km": 578.6,
    "latitude": 34.63530931103734,
    "longitude": 135.0935357747776,
    "is_shadow_confederation": false
  },
  {
    "rank": 11,
    "team_name": "鳥取大学",
    "team_short_name": "鳥取",
    "runner_name": "松江",
    "total_distance_km": 576.5,
    "latitude": 34.643340149921805,
    "longitude": 135.1135506874402,
    "is_shadow_confederation": false
  },
  {
    "rank": 12,
    "team_name": "関西大学",
    "team_short_name": "関大",
    "runner_name": "豊中",
    "total_distance_km": 570.6,
    "latitude": 34.67351968128759,
    "longitude": 135.16536965656817,
    "is_shadow_confederation": false
  },
  {
    "rank": 13,
    "team_name": "立命館大学",
    "team_short_name": "立命",
    "runner_name": "彦根",
    "total_distance_km": 543.5,
    "latitude": 34.719466231023986,
    "longitude": 135.43589593229953,
    "is_shadow_confederation": false
  },
  {
    "rank": 14,
    "team_name": "山梨学院大学",
    "team_short_name": "山学",
    "runner_name": "甲府",
    "total_distance_km": 540.0,
    "latitude": 34.70231361929444,
    "longitude": 135.4657768042911,
    "is_shadow_confederation": false
  },
  {
    "rank": 15,
    "team_name": "福島大学",
    "team_short_name": "福島",
    "runner_name": "福島",
    "total_distance_km": 511.2,
    "latitude": 34.83159059475263,
    "longitude": 135.68975880759643,
    "is_shadow_confederation": false
  },
  {
    "rank": 16,
    "team_name": "金沢大学",
    "team_short_name": "金沢",
    "runner_name": "福井",
    "total_distance_km": 471.5,
    "latitude": 34.978154001332584,
    "longitude": 135.90907000204322,
    "is_shadow_confederation": false
  },
  {
    "rank": 17,
    "team_name": "東北大学",
    "team_short_name": "東北",
    "runner_name": "大館",
    "total_distance_km": 406.4,
    "latitude": 34.865667854173935,
    "longitude": 136.48904682239166,
    "is_shadow_confederation": false
  },
  {
    "rank": 18,
    "team_name": "学連選抜",
    "team_short_name": "学連",
    "runner_name": "上",
    "total_distance_km": 338.5,
    "latitude": 35.04881254132588,
    "longitude": 137.00266133971886,
    "is_shadow_confederation": false
  },
  {
    "rank": null,
    "team_name": "区間記録連合",
    "team_short_name": "区間記録",
    "runner_name": "西脇",
    "total_distance_km": 850.0,
    "latitude": 34.42145061675803,
    "longitude": 132.60044719148553,
    "is_shadow_confederation": true
  }
]