[
  {
    "rank": 1,
    "team_name": "福岡大学",
    "team_short_name": "福岡",
    "runner_name": "久留米",
    "total_distance_km": 58.6,
    "latitude": 35.31855562497749,
    "longitude": 139.40930419517147,
    "is_shadow_confederation": false
  },
  {
    "rank": 2,
    "team_name": "熊本学園大学",
    "team_short_name": "熊学",
    "runner_name": "甲佐",
    "total_distance_km": 57.4,
    "latitude": 35.31888851095687,
    "longitude": 139.4222771174793,
    "is_shadow_confederation": false
  },
  {
    "rank": 3,
    "team_name": "金沢大学",
    "team_short_name": "金沢",
    "runner_name": "秋ヶ島",
    "total_distance_km": 56.7,
    "latitude": 35.32000142268491,
    "longitude": 139.42983146173532,
    "is_shadow_confederation": false
  },
  {
    "rank": 4,
    "team_name": "鹿児島大学",
    "team_short_name": "鹿大",
    "runner_name": "東市来",
    "total_distance_km": 56.3,
    "latitude": 35.32085817282958,
    "longitude": 139.43385972499448,
    "is_shadow_confederation": false
  },
  {
    "rank": 5,
    "team_name": "福島大学",
    "team_short_name": "福島",
    "runner_name": "梁川",
    "total_distance_km": 55.3,
    "latitude": 35.325595129208445,
    "longitude": 139.44289553567793,
    "is_shadow_confederation": false
  },
  {
    "rank": 6,
    "team_name": "上武大学",
    "team_short_name": "上武",
    "runner_name": "佐野",
    "total_distance_km": 55.2,
    "latitude": 35.32582412469431,
    "longitude": 139.44395925664452,
    "is_shadow_confederation": false
  },
  {
    "rank": 7,
    "team_name": "立命館大学",
    "team_short_name": "立命",
    "runner_name": "東近江",
    "total_distance_km": 55.1,
    "latitude": 35.326039983261495,
    "longitude": 139.44502669029328,
    "is_shadow_confederation": false
  },
  {
    "rank": 8,
    "team_name": "日本大学",
    "team_short_name": "日大",
    "runner_name": "大子",
    "total_distance_km": 53.8,
    "latitude": 35.33015759150245,
    "longitude": 139.45808462411566,
    "is_shadow_confederation": false
  },
  {
    "rank": 9,
    "team_name": "鳥取大学",
    "team_short_name": "鳥取",
    "runner_name": "川本",
    "total_distance_km": 53.7,
    "latitude": 35.33068229617541,
    "longitude": 139.45897892477456,
    "is_shadow_confederation": false
  },
  {
    "rank": 10,
    "team_name": "関西大学",
    "team_short_name": "関大",
    "runner_name": "福崎",
    "total_distance_km": 53.3,
    "latitude": 35.33278111486726,
    "longitude": 139.46255612741018,
    "is_shadow_confederation": false
  },
  {
    "rank": 10,
    "team_name": "琉球大学",
    "team_short_name": "琉球",
    "runner_name": "北原",
    "total_distance_km": 53.3,
    "latitude": 35.33278111486726,
    "longitude": 139.46255612741018,
    "is_shadow_confederation": false
  },
  {
    "rank": 12,
    "team_name": "四国大学",
    "team_short_name": "四国",
    "runner_name": "穴吹",
    "total_distance_km": 52.3,
    "latitude": 35.33490000517225,
    "longitude": 139.47243642229986,
    "is_shadow_confederation": false
  },
  {
    "rank": 13,
    "team_name": "名古屋大学",
    "team_short_name": "名大",
    "runner_name": "美濃加茂",
    "total_distance_km": 51.9,
    "latitude": 35.337216262768486,
    "longitude": 139.47580809301775,
    "is_shadow_confederation": false
  },
  {
    "rank": 14,
    "team_name": "広島経済大学",
    "team_short_name": "広経",
    "runner_name": "三次",
    "total_distance_km": 51.5,
    "latitude": 35.340297250468545,
    "longitude": 139.47800605618633,
    "is_shadow_confederation": false
  },
  {
    "rank": 15,
    "team_name": "山梨学院大学",
    "team_short_name": "山学",
    "runner_name": "長野",
    "total_distance_km": 50.4,
    "latitude": 35.346200036430005,
    "longitude": 139.4873813587421,
    "is_shadow_confederation": false
  },
  {
    "rank": 16,
    "team_name": "三重大学",
    "team_short_name": "三重",
    "runner_name": "粥見",
    "total_distance_km": 49.7,
    "latitude": 35.35166541258049,
    "longitude": 139.4907816414275,
    "is_shadow_confederation": false
  },
  {
    "rank": 17,
    "team_name": "東北大学",
    "team_short_name": "東北",
    "runner_name": "帯広",
    "total_distance_km": 33.9,
    "latitude": 35.44452653015909,
    "longitude": 139.59304738863284,
    "is_shadow_confederation": false
  },
  {
    "rank": 18,
    "team_name": "学連選抜",
    "team_short_name": "学連",
    "runner_name": "美幌",
    "total_distance_km": 22.9,
    "latitude": 35.50505154257118,
    "longitude": 139.67862332606995,
    "is_shadow_confederation": false
  }
]