[
  {
    "rank": 1,
    "team_name": "琉球大学",
    "team_short_name": "琉球",
    "runner_name": "那覇",
    "total_distance_km": 728.4,
    "latitude": 34.577741764012856,
    "longitude": 133.71277137995585,
    "is_shadow_confederation": false
  },
  {
    "rank": 2,
    "team_name": "名古屋大学",
    "team_short_name": "名大",
    "runner_name": "名古屋",
    "total_distance_km": 721.2,
    "latitude": 34.60892860092991,
    "longitude": 133.77789821407998,
    "is_shadow_confederation": false
  },
  {
    "rank": 3,
    "team_name": "四国大学",
    "team_short_name": "四国",
    "runner_name": "新居浜",
    "total_distance_km": 717.7,
    "latitude": 34.62999038931969,
    "longitude": 133.80487801907034,
    "is_shadow_confederation": false
  },
  {
    "rank": 4,
    "team_name": "関西大学",
    "team_short_name": "関大",
    "runner_name": "八尾（大阪）",
    "total_distance_km": 713.3,
    "latitude": 34.646035078314824,
    "longitude": 133.84828245403313,
    "is_shadow_confederation": false
  },
  {
    "rank": 5,
    "team_name": "福岡大学",
    "team_short_name": "福岡",
    "runner_name": "口之津",
    "total_distance_km": 712.9,
    "latitude": 34.64609510878124,
    "longitude": 133.8526448742158,
    "is_shadow_confederation": false
  },
  {
    "rank": 6,
    "team_name": "熊本学園大学",
    "team_short_name": "熊学",
    "runner_name": "犬飼",
    "total_distance_km": 712.2,
    "latitude": 34.64599560232496,
    "longitude": 133.86027884661277,
    "is_shadow_confederation": false
  },
  {
    "rank": 7,
    "team_name": "広島経済大学",
    "team_short_name": "広経",
    "runner_name": "福山",
    "total_distance_km": 710.9,
    "latitude": 34.647393315897936,
    "longitude": 133.87268188295596,
    "is_shadow_confederation": false
  },
  {
    "rank": 8,
    "team_name": "鹿児島大学",
    "team_short_name": "鹿大",
    "runner_name": "鹿児島",
    "total_distance_km": 710.4,
    "latitude": 34.64825229991069,
    "longitude": 133.87797576535775,
    "is_shadow_confederation": false
  },
  {
    "rank": 9,
    "team_name": "立命館大学",
    "team_short_name": "立命",
    "runner_name": "長浜（滋賀）",
    "total_distance_km": 709.1,
    "latitude": 34.65087116421435,
    "longitude": 133.89163213086138,
    "is_shadow_confederation": false
  },
  {
    "rank": 10,
    "team_name": "三重大学",
    "team_short_name": "三重",
    "runner_name": "津",
    "total_distance_km": 703.1,
    "latitude": 34.667589473237626,
    "longitude": 133.94774544319404,
    "is_shadow_confederation": false
  },
  {
    "rank": 11,
    "team_name": "山梨学院大学",
    "team_short_name": "山学",
    "runner_name": "三島",
    "total_distance_km": 696.4,
    "latitude": 34.693707060034924,
    "longitude": 134.01195408812026,
    "is_shadow_confederation": false
  },
  {
    "rank": 12,
    "team_name": "日本大学",
    "team_short_name": "日大",
    "runner_name": "練馬",
    "total_distance_km": 690.9,
    "latitude": 34.705421745039274,
    "longitude": 134.06794542650374,
    "is_shadow_confederation": false
  },
  {
    "rank": 13,
    "team_name": "鳥取大学",
    "team_short_name": "鳥取",
    "runner_name": "米子",
    "total_distance_km": 683.5,
    "latitude": 34.73325114171921,
    "longitude": 134.13598263672057,
    "is_shadow_confederation": false
  },
  {
    "rank": 14,
    "team_name": "金沢大学",
    "team_short_name": "金沢",
    "runner_name": "敦賀",
    "total_distance_km": 681.1,
    "latitude": 34.73903950939798,
    "longitude": 134.1610400680567,
    "is_shadow_confederation": false
  },
  {
    "rank": 15,
    "team_name": "上武大学",
    "team_short_name": "上武",
    "runner_name": "小山",
    "total_distance_km": 680.6,
    "latitude": 34.740230657567935,
    "longitude": 134.16630590228186,
    "is_shadow_confederation": false
  },
  {
    "rank": 16,
    "team_name": "福島大学",
    "team_short_name": "福島",
    "runner_name": "寺泊",
    "total_distance_km": 657.0,
    "latitude": 34.8276313704286,
    "longitude": 134.36266770932295,
    "is_shadow_confederation": false
  },
  {
    "rank": 17,
    "team_name": "学連選抜",
    "team_short_name": "学連",
    "runner_name": "多度津",
    "total_distance_km": 653.1,
    "latitude": 34.83009963348327,
    "longitude": 134.40362090354742,
    "is_shadow_confederation": false
  },
  {
    "rank": 18,
    "team_name": "東北大学",
    "team_short_name": "東北",
    "runner_name": "丸森",
    "total_distance_km": 601.3,
    "latitude": 34.720822382415655,
    "longitude": 134.8914276204751,
    "is_shadow_confederation": false
  },
  {
    "rank": null,
    "team_name": "区間記録連合",
    "team_short_name": "区間記録",
    "runner_name": "新居浜",
    "total_distance_km": 755.2,
    "latitude": 34.506605896282295,
    "longitude": 133.46126153236224,
    "is_shadow_confederation": true
  }
]