[
  {
    "rank": 1,
    "team_name": "琉球大学",
    "team_short_name": "琉球",
    "runner_name": "名護",
    "total_distance_km": 388.5,
    "latitude": 34.96330346932319,
    "longitude": 136.62134994244596,
    "is_shadow_confederation": false
  },
  {
    "rank": 2,
    "team_name": "熊本学園大学",
    "team_short_name": "熊学",
    "runner_name": "人吉",
    "total_distance_km": 381.4,
    "latitude": 35.01447215990269,
    "longitude": 136.66145574810747,
    "is_shadow_confederation": false
  },
  {
    "rank": 3,
    "team_name": "福岡大学",
    "team_short_name": "福岡",
    "runner_name": "朝倉",
    "total_distance_km": 375.5,
    "latitude": 35.06178682534395,
    "longitude": 136.685304241269,
    "is_shadow_confederation": false
  },
  {
    "rank": 4,
    "team_name": "立命館大学",
    "team_short_name": "立命",
    "runner_name": "米原",
    "total_distance_km": 369.3,
    "latitude": 35.10582078993212,
    "longitude": 136.71448849163122,
    "is_shadow_confederation": false
  },
  {
    "rank": 5,
    "team_name": "四国大学",
    "team_short_name": "四国",
    "runner_name": "松山",
    "total_distance_km": 364.3,
    "latitude": 35.12101709835497,
    "longitude": 136.76558891785376,
    "is_shadow_confederation": false
  },
  {
    "rank": 6,
    "team_name": "関西大学",
    "team_short_name": "関大",
    "runner_name": "柏原",
    "total_distance_km": 362.6,
    "latitude": 35.124369849037436,
    "longitude": 136.7837538947805,
    "is_shadow_confederation": false
  },
  {
    "rank": 7,
    "team_name": "広島経済大学",
    "team_short_name": "広経",
    "runner_name": "大竹",
    "total_distance_km": 362.2,
    "latitude": 35.12467769494236,
    "longitude": 136.7881263006248,
    "is_shadow_confederation": false
  },
  {
    "rank": 8,
    "team_name": "鳥取大学",
    "team_short_name": "鳥取",
    "runner_name": "防府",
    "total_distance_km": 362.1,
    "latitude": 35.124754656418595,
    "longitude": 136.7892194020859,
    "is_shadow_confederation": false
  },
  {
    "rank": 8,
    "team_name": "名古屋大学",
    "team_short_name": "名大",
    "runner_name": "愛西",
    "total_distance_km": 362.1,
    "latitude": 35.124754656418595,
    "longitude": 136.7892194020859,
    "is_shadow_confederation": false
  },
  {
    "rank": 10,
    "team_name": "鹿児島大学",
    "team_short_name": "鹿大",
    "runner_name": "西米良",
    "total_distance_km": 359.1,
    "latitude": 35.1262895903189,
    "longitude": 136.82204600069406,
    "is_shadow_confederation": false
  },
  {
    "rank": 11,
    "team_name": "山梨学院大学",
    "team_short_name": "山学",
    "runner_name": "浜松",
    "total_distance_km": 354.7,
    "latitude": 35.124880467972204,
    "longitude": 136.86980449212345,
    "is_shadow_confederation": false
  },
  {
    "rank": 12,
    "team_name": "上武大学",
    "team_short_name": "上武",
    "runner_name": "寄居",
    "total_distance_km": 352.8,
    "latitude": 35.12389934603579,
    "longitude": 136.89041572664112,
    "is_shadow_confederation": false
  },
  {
    "rank": 13,
    "team_name": "三重大学",
    "team_short_name": "三重",
    "runner_name": "風屋",
    "total_distance_km": 352.0,
    "latitude": 35.1239319745803,
    "longitude": 136.89919234555762,
    "is_shadow_confederation": false
  },
  {
    "rank": 14,
    "team_name": "金沢大学",
    "team_short_name": "金沢",
    "runner_name": "志賀",
    "total_distance_km": 350.5,
    "latitude": 35.118350056712096,
    "longitude": 136.9133902526021,
    "is_shadow_confederation": false
  },
  {
    "rank": 15,
    "team_name": "日本大学",
    "team_short_name": "日大",
    "runner_name": "小田原",
    "total_distance_km": 344.4,
    "latitude": 35.076331095332954,
    "longitude": 136.9490793715447,
    "is_shadow_confederation": false
  },
  {
    "rank": 16,
    "team_name": "福島大学",
    "team_short_name": "福島",
    "runner_name": "津川",
    "total_distance_km": 322.5,
    "latitude": 34.96346745584665,
    "longitude": 137.13962588649872,
    "is_shadow_confederation": false
  },
  {
    "rank": 17,
    "team_name": "東北大学",
    "team_short_name": "東北",
    "runner_name": "高畠",
    "total_distance_km": 307.4,
    "latitude": 34.88643357739047,
    "longitude": 137.26490715955288,
    "is_shadow_confederation": false
  },
  {
    "rank": 18,
    "team_name": "学連選抜",
    "team_short_name": "学連",
    "runner_name": "大村",
    "total_distance_km": 299.9,
    "latitude": 34.84179425389071,
    "longitude": 137.3237226046625,
    "is_shadow_confederation": false
  }
]