[
  {
    "rank": 1,
    "team_name": "琉球大学",
    "team_short_name": "琉球",
    "runner_name": "大原",
    "total_distance_km": 955.7,
    "latitude": 34.069832784093755,
    "longitude": 131.78495413069155,
    "is_shadow_confederation": false
  },
  {
    "rank": 2,
    "team_name": "名古屋大学",
    "team_short_name": "名大",
    "runner_name": "揖斐川",
    "total_distance_km": 931.3,
    "latitude": 34.079806830252274,
    "longitude": 131.99339206071292,
    "is_shadow_confederation": false
  },
  {
    "rank": 3,
    "team_name": "鹿児島大学",
    "team_short_name": "鹿大",
    "runner_name": "喜入",
    "total_distance_km": 927.1,
    "latitude": 34.09075883012909,
    "longitude": 132.03238520633073,
    "is_shadow_confederation": false
  },
  {
    "rank": 4,
    "team_name": "福岡大学",
    "team_short_name": "福岡",
    "runner_name": "佐賀（佐賀）",
    "total_distance_km": 926.6,
    "latitude": 34.09130228394008,
    "longitude": 132.03776366616876,
    "is_shadow_confederation": false
  },
  {
    "rank": 5,
    "team_name": "熊本学園大学",
    "team_short_name": "熊学",
    "runner_name": "菊池",
    "total_distance_km": 918.5,
    "latitude": 34.11452519727838,
    "longitude": 132.11758642543413,
    "is_shadow_confederation": false
  },
  {
    "rank": 6,
    "team_name": "関西大学",
    "team_short_name": "関大",
    "runner_name": "西脇",
    "total_distance_km": 916.6,
    "latitude": 34.12442910466543,
    "longitude": 132.13372596340284,
    "is_shadow_confederation": false
  },
  {
    "rank": 7,
    "team_name": "四国大学",
    "team_short_name": "四国",
    "runner_name": "西条",
    "total_distance_km": 915.8,
    "latitude": 34.12853039169137,
    "longitude": 132.14045333747362,
    "is_shadow_confederation": false
  },
  {
    "rank": 8,
    "team_name": "立命館大学",
    "team_short_name": "立命",
    "runner_name": "園部",
    "total_distance_km": 908.0,
    "latitude": 34.165750551650994,
    "longitude": 132.19925676898453,
    "is_shadow_confederation": false
  },
  {
    "rank": 9,
    "team_name": "広島経済大学",
    "team_short_name": "広経",
    "runner_name": "滝宮",
    "total_distance_km": 907.5,
    "latitude": 34.16936361086392,
    "longitude": 132.2024638599782,
    "is_shadow_confederation": false
  },
  {
    "rank": 10,
    "team_name": "日本大学",
    "team_short_name": "日大",
    "runner_name": "海老名",
    "total_distance_km": 904.8,
    "latitude": 34.17709110406694,
    "longitude": 132.22906758535345,
    "is_shadow_confederation": false
  },
  {
    "rank": 11,
    "team_name": "山梨学院大学",
    "team_short_name": "山学",
    "runner_name": "佐久間",
    "total_distance_km": 898.3,
    "latitude": 34.23289048058325,
    "longitude": 132.22004264976914,
    "is_shadow_confederation": false
  },
  {
    "rank": 12,
    "team_name": "三重大学",
    "team_short_name": "三重",
    "runner_name": "上野",
    "total_distance_km": 897.7,
    "latitude": 34.23816188951539,
    "longitude": 132.2205572027434,
    "is_shadow_confederation": false
  },
  {
    "rank": 13,
    "team_name": "上武大学",
    "team_short_name": "上武",
    "runner_name": "館林",
    "total_distance_km": 890.0,
    "latitude": 34.287000551739254,
    "longitude": 132.2741271915457,
    "is_shadow_confederation": false
  },
  {
    "rank": 14,
    "team_name": "鳥取大学",
    "team_short_name": "鳥取",
    "runner_name": "津和野",
    "total_distance_km": 886.5,
    "latitude": 34.307748220624774,
    "longitude": 132.30063225086664,
    "is_shadow_confederation": false
  },
  {
    "rank": 15,
    "team_name": "金沢大学",
    "team_short_name": "金沢",
    "runner_name": "大野（福井）",
    "total_distance_km": 873.4,
    "latitude": 34.37777029974892,
    "longitude": 132.39920480780768,
    "is_shadow_confederation": false
  },
  {
    "rank": 16,
    "team_name": "学連選抜",
    "team_short_name": "学連",
    "runner_name": "飯塚",
    "total_distance_km": 861.0,
    "latitude": 34.36752311412544,
    "longitude": 132.51633908032238,
    "is_shadow_confederation": false
  },
  {
    "rank": 17,
    "team_name": "福島大学",
    "team_short_name": "福島",
    "runner_name": "喜多方",
    "total_distance_km": 852.0,
    "latitude": 34.41231476248352,
    "longitude": 132.58514261920817,
    "is_shadow_confederation": false
  },
  {
    "rank": 18,
    "team_name": "東北大学",
    "team_short_name": "東北",
    "runner_name": "東根",
    "total_distance_km": 784.1,
    "latitude": 34.41129657140767,
    "longitude": 133.21013832309188,
    "is_shadow_confederation": false
  },
  {
    "rank": null,
    "team_name": "区間記録連合",
    "team_short_name": "区間記録",
    "runner_name": "豊中",
    "total_distance_km": 955.7,
    "latitude": 34.069832784093755,
    "longitude": 131.78495413069155,
    "is_shadow_confederation": true
  }
]