[
  {
    "rank": 1,
    "team_name": "琉球大学",
    "team_short_name": "琉球",
    "runner_name": "盛山",
    "total_distance_km": 216.6,
    "latitude": 34.7885634176645,
    "longitude": 138.07051067654794,
    "current_leg": 3,
    "is_shadow_confederation": false
  },
  {
    "rank": 2,
    "team_name": "名古屋大学",
    "team_short_name": "名大",
    "runner_name": "美濃",
    "total_distance_km": 202.9,
    "latitude": 34.84593890309055,
    "longitude": 138.16784662957826,
    "current_leg": 2,
    "is_shadow_confederation": false
  },
  {
    "rank": 3,
    "team_name": "山梨学院大学",
    "team_short_name": "山学",
    "runner_name": "南信濃",
    "total_distance_km": 192.4,
    "latitude": 34.89152006174434,
    "longitude": 138.26165100896532,
    "current_leg": 2,
    "is_shadow_confederation": false
  },
  {
    "rank": 4,
    "team_name": "立命館大学",
    "team_short_name": "立命",
    "runner_name": "福知山",
    "total_distance_km": 189.6,
    "latitude": 34.90478058222754,
    "longitude": 138.28671809985306,
    "current_leg": 2,
    "is_shadow_confederation": false
  },
  {
    "rank": 5,
    "team_name": "上武大学",
    "team_short_name": "上武",
    "runner_name": "越谷",
    "total_distance_km": 189.4,
    "latitude": 34.906514192033754,
    "longitude": 138.28731854233325,
    "current_leg": 2,
    "is_shadow_confederation": false
  },
  {
    "rank": 6,
    "team_name": "金沢大学",
    "team_short_name": "金沢",
    "runner_name": "小浜",
    "total_distance_km": 189.3,
    "latitude": 34.907380996936865,
    "longitude": 138.28761876357336,
    "current_leg": 2,
    "is_shadow_confederation": false
  },
  {
    "rank": 6,
    "team_name": "日本大学",
    "team_short_name": "日大",
    "runner_name": "古河",
    "total_distance_km": 189.3,
    "latitude": 34.907380996936865,
    "longitude": 138.28761876357336,
    "current_leg": 2,
    "is_shadow_confederation": false
  },
  {
    "rank": 8,
    "team_name": "三重大学",
    "team_short_name": "三重",
    "runner_name": "五條",
    "total_distance_km": 188.6,
    "latitude": 34.91344808651929,
    "longitude": 138.28972262437233,
    "current_leg": 2,
    "is_shadow_confederation": false
  },
  {
    "rank": 9,
    "team_name": "熊本学園大学",
    "team_short_name": "熊学",
    "runner_name": "岱明",
    "total_distance_km": 187.7,
    "latitude": 34.92133706135426,
    "longitude": 138.2918709599642,
    "current_leg": 2,
    "is_shadow_confederation": false
  },
  {
    "rank": 10,
    "team_name": "福岡大学",
    "team_short_name": "福岡",
    "runner_name": "福岡",
    "total_distance_km": 187.5,
    "latitude": 34.92284392127398,
    "longitude": 138.29261002716518,
    "current_leg": 2,
    "is_shadow_confederation": false
  },
  {
    "rank": 11,
    "team_name": "鳥取大学",
    "team_short_name": "鳥取",
    "runner_name": "鳥取",
    "total_distance_km": 186.5,
    "latitude": 34.92673371565312,
    "longitude": 138.30167126937062,
    "current_leg": 2,
    "is_shadow_confederation": false
  },
  {
    "rank": 12,
    "team_name": "鹿児島大学",
    "team_short_name": "鹿大",
    "runner_name": "川内（鹿児島）",
    "total_distance_km": 185.1,
    "latitude": 34.937631975422825,
    "longitude": 138.30900470601875,
    "current_leg": 2,
    "is_shadow_confederation": false
  },
  {
    "rank": 13,
    "team_name": "関西大学",
    "team_short_name": "関大",
    "runner_name": "和田山",
    "total_distance_km": 183.9,
    "latitude": 34.94125271279508,
    "longitude": 138.3209828920297,
    "current_leg": 2,
    "is_shadow_confederation": false
  },
  {
    "rank": 14,
    "team_name": "四国大学",
    "team_short_name": "四国",
    "runner_name": "大三島",
    "total_distance_km": 181.6,
    "latitude": 34.95041122086566,
    "longitude": 138.33964581437078,
    "current_leg": 2,
    "is_shadow_confederation": false
  },
  {
    "rank": 15,
    "team_name": "広島経済大学",
    "team_short_name": "広経",
    "runner_name": "加計",
    "total_distance_km": 176.1,
    "latitude": 34.97210800710749,
    "longitude": 138.3869662563777,
    "current_leg": 2,
    "is_shadow_confederation": false
  },
  {
    "rank": 16,
    "team_name": "福島大学",
    "team_short_name": "福島",
    "runner_name": "石川",
    "total_distance_km": 162.4,
    "latitude": 35.04334304908177,
    "longitude": 138.49926309001816,
    "current_leg": 2,
    "is_shadow_confederation": false
  },
  {
    "rank": 17,
    "team_name": "東北大学",
    "team_short_name": "東北",
    "runner_name": "山形（山形）",
    "total_distance_km": 158.2,
    "latitude": 35.06189744510403,
    "longitude": 138.537571783017,
    "current_leg": 2,
    "is_shadow_confederation": false
  },
  {
    "rank": 18,
    "team_name": "学連選抜",
    "team_short_name": "学連",
    "runner_name": "新潟",
    "total_distance_km": 149.0,
    "latitude": 35.11573373003985,
    "longitude": 138.59841465543386,
    "current_leg": 2,
    "is_shadow_confederation": false
  },
  {
    "rank": null,
    "team_name": "区間記録連合",
    "team_short_name": "区間記録",
    "runner_name": "伊勢崎",
    "total_distance_km": 249.1,
    "latitude": 34.70858791386677,
    "longitude": 137.74669134618335,
    "current_leg": 3,
    "is_shadow_confederation": true
  }
]