[
  {
    "rank": 1,
    "team_name": "琉球大学",
    "team_short_name": "琉球",
    "runner_name": "北原",
    "total_distance_km": 101.2,
    "latitude": 35.184343054203,
    "longitude": 139.02528665530548,
    "is_shadow_confederation": false
  },
  {
    "rank": 2,
    "team_name": "鹿児島大学",
    "team_short_name": "鹿大",
    "runner_name": "東市来",
    "total_distance_km": 74.8,
    "latitude": 35.29206750902739,
    "longitude": 139.2415544188552,
    "is_shadow_confederation": false
  },
  {
    "rank": 3,
    "team_name": "熊本学園大学",
    "team_short_name": "熊学",
    "runner_name": "甲佐",
    "total_distance_km": 68.8,
    "latitude": 35.30709324080918,
    "longitude": 139.30362562108877,
    "is_shadow_confederation": false
  },
  {
    "rank": 4,
    "team_name": "福岡大学",
    "team_short_name": "福岡",
    "runner_name": "久留米",
    "total_distance_km": 67.8,
    "latitude": 35.30773352566165,
    "longitude": 139.31433857853855,
    "is_shadow_confederation": false
  },
  {
    "rank": 5,
    "team_name": "四国大学",
    "team_short_name": "四国",
    "runner_name": "穴吹",
    "total_distance_km": 58.6,
    "latitude": 35.31855562497749,
    "longitude": 139.40930419517147,
    "is_shadow_confederation": false
  },
  {
    "rank": 6,
    "team_name": "三重大学",
    "team_short_name": "三重",
    "runner_name": "粥見",
    "total_distance_km": 57.1,
    "latitude": 35.31959998951573,
    "longitude": 139.42546000584701,
    "is_shadow_confederation": false
  },
  {
    "rank": 7,
    "team_name": "名古屋大学",
    "team_short_name": "名大",
    "runner_name": "美濃加茂",
    "total_distance_km": 54.4,
    "latitude": 35.327280632319045,
    "longitude": 139.45257513371646,
    "is_shadow_confederation": false
  },
  {
    "rank": 8,
    "team_name": "関西大学",
    "team_short_name": "関大",
    "runner_name": "福崎",
    "total_distance_km": 52.7,
    "latitude": 35.33491448811597,
    "longitude": 139.4682332841246,
    "is_shadow_confederation": false
  },
  {
    "rank": 9,
    "team_name": "上武大学",
    "team_short_name": "上武",
    "runner_name": "佐野",
    "total_distance_km": 52.3,
    "latitude": 35.33490000517225,
    "longitude": 139.47243642229986,
    "is_shadow_confederation": false
  },
  {
    "rank": 10,
    "team_name": "日本大学",
    "team_short_name": "日大",
    "runner_name": "大子",
    "total_distance_km": 51.9,
    "latitude": 35.337216262768486,
    "longitude": 139.47580809301775,
    "is_shadow_confederation": false
  },
  {
    "rank": 11,
    "team_name": "鳥取大学",
    "team_short_name": "鳥取",
    "runner_name": "川本",
    "total_distance_km": 47.1,
    "latitude": 35.372859203055945,
    "longitude": 139.50251793878218,
    "is_shadow_confederation": false
  },
  {
    "rank": 12,
    "team_name": "立命館大学",
    "team_short_name": "立命",
    "runner_name": "東近江",
    "total_distance_km": 46.9,
    "latitude": 35.374438748870645,
    "longitude": 139.5035785403483,
    "is_shadow_confederation": false
  },
  {
    "rank": 13,
    "team_name": "広島経済大学",
    "team_short_name": "広経",
    "runner_name": "三次",
    "total_distance_km": 45.6,
    "latitude": 35.382175264603006,
    "longitude": 139.51385336060792,
    "is_shadow_confederation": false
  },
  {
    "rank": 14,
    "team_name": "福島大学",
    "team_short_name": "福島",
    "runner_name": "梁川",
    "total_distance_km": 41.7,
    "latitude": 35.412056695178705,
    "longitude": 139.5319643226215,
    "is_shadow_confederation": false
  },
  {
    "rank": 15,
    "team_name": "金沢大学",
    "team_short_name": "金沢",
    "runner_name": "秋ヶ島",
    "total_distance_km": 37.5,
    "latitude": 35.42731228794395,
    "longitude": 139.57109415452445,
    "is_shadow_confederation": false
  },
  {
    "rank": 16,
    "team_name": "山梨学院大学",
    "team_short_name": "山学",
    "runner_name": "長野",
    "total_distance_km": 30.1,
    "latitude": 35.46305606651281,
    "longitude": 139.62395271252373,
    "is_shadow_confederation": false
  },
  {
    "rank": 17,
    "team_name": "東北大学",
    "team_short_name": "東北",
    "runner_name": "帯広",
    "total_distance_km": 23.0,
    "latitude": 35.50431417305949,
    "longitude": 139.67798944701605,
    "is_shadow_confederation": false
  },
  {
    "rank": 18,
    "team_name": "学連選抜",
    "team_short_name": "学連",
    "runner_name": "美幌",
    "total_distance_km": 2.5,
    "latitude": 35.668938941785406,
    "longitude": 139.75118865834887,
    "is_shadow_confederation": false
  }
]