[
  {
    "rank": 1,
    "team_name": "琉球大学",
    "team_short_name": "琉球",
    "runner_name": "石垣島",
    "total_distance_km": 1051.8,
    "latitude": 33.97289572457369,
    "longitude": 130.96944601305015,
    "is_shadow_confederation": false
  },
  {
    "rank": 2,
    "team_name": "鹿児島大学",
    "team_short_name": "鹿大",
    "runner_name": "指宿",
    "total_distance_km": 1014.1,
    "latitude": 34.03947941544073,
    "longitude": 131.262773154591,
    "is_shadow_confederation": false
  },
  {
    "rank": 3,
    "team_name": "名古屋大学",
    "team_short_name": "名大",
    "runner_name": "岐阜",
    "total_distance_km": 1012.8,
    "latitude": 34.04066549825044,
    "longitude": 131.27645237311864,
    "is_shadow_confederation": false
  },
  {
    "rank": 4,
    "team_name": "福岡大学",
    "team_short_name": "福岡",
    "runner_name": "太宰府",
    "total_distance_km": 1012.4,
    "latitude": 34.04278968980726,
    "longitude": 131.2795037634231,
    "is_shadow_confederation": false
  },
  {
    "rank": 5,
    "team_name": "熊本学園大学",
    "team_short_name": "熊学",
    "runner_name": "日田",
    "total_distance_km": 1003.3,
    "latitude": 34.058336037456954,
    "longitude": 131.35791000878672,
    "is_shadow_confederation": false
  },
  {
    "rank": 6,
    "team_name": "関西大学",
    "team_short_name": "関大",
    "runner_name": "大阪",
    "total_distance_km": 998.2,
    "latitude": 34.09296753765864,
    "longitude": 131.3918776676943,
    "is_shadow_confederation": false
  },
  {
    "rank": 7,
    "team_name": "四国大学",
    "team_short_name": "四国",
    "runner_name": "中村",
    "total_distance_km": 997.1,
    "latitude": 34.09780203980905,
    "longitude": 131.40039836196252,
    "is_shadow_confederation": false
  },
  {
    "rank": 8,
    "team_name": "立命館大学",
    "team_short_name": "立命",
    "runner_name": "大津（滋賀）",
    "total_distance_km": 991.2,
    "latitude": 34.07494486327499,
    "longitude": 131.45713161009445,
    "is_shadow_confederation": false
  },
  {
    "rank": 9,
    "team_name": "広島経済大学",
    "team_short_name": "広経",
    "runner_name": "財田",
    "total_distance_km": 988.5,
    "latitude": 34.06482817504862,
    "longitude": 131.48236023187982,
    "is_shadow_confederation": false
  },
  {
    "rank": 10,
    "team_name": "日本大学",
    "team_short_name": "日大",
    "runner_name": "青梅",
    "total_distance_km": 979.2,
    "latitude": 34.056964969204486,
    "longitude": 131.56931352815502,
    "is_shadow_confederation": false
  },
  {
    "rank": 10,
    "team_name": "三重大学",
    "team_short_name": "三重",
    "runner_name": "桑名",
    "total_distance_km": 979.2,
    "latitude": 34.056964969204486,
    "longitude": 131.56931352815502,
    "is_shadow_confederation": false
  },
  {
    "rank": 12,
    "team_name": "山梨学院大学",
    "team_short_name": "山学",
    "runner_name": "勝沼",
    "total_distance_km": 969.7,
    "latitude": 34.058375066994046,
    "longitude": 131.6571035805426,
    "is_shadow_confederation": false
  },
  {
    "rank": 13,
    "team_name": "鳥取大学",
    "team_short_name": "鳥取",
    "runner_name": "山口（山口）",
    "total_distance_km": 965.9,
    "latitude": 34.07545328315388,
    "longitude": 131.68862627826297,
    "is_shadow_confederation": false
  },
  {
    "rank": 14,
    "team_name": "上武大学",
    "team_short_name": "上武",
    "runner_name": "鳩山",
    "total_distance_km": 963.5,
    "latitude": 34.07683106985306,
    "longitude": 131.70654424680137,
    "is_shadow_confederation": false
  },
  {
    "rank": 15,
    "team_name": "金沢大学",
    "team_short_name": "金沢",
    "runner_name": "大野（福井）",
    "total_distance_km": 945.4,
    "latitude": 34.03354465212722,
    "longitude": 131.87162208124357,
    "is_shadow_confederation": false
  },
  {
    "rank": 16,
    "team_name": "学連選抜",
    "team_short_name": "学連",
    "runner_name": "恵那",
    "total_distance_km": 934.0,
    "latitude": 34.0627614670688,
    "longitude": 131.97405136869742,
    "is_shadow_confederation": false
  },
  {
    "rank": 17,
    "team_name": "福島大学",
    "team_short_name": "福島",
    "runner_name": "新津",
    "total_distance_km": 926.4,
    "latitude": 34.09151966546448,
    "longitude": 132.03991505010396,
    "is_shadow_confederation": false
  },
  {
    "rank": 18,
    "team_name": "東北大学",
    "team_short_name": "東北",
    "runner_name": "東根",
    "total_distance_km": 853.9,
    "latitude": 34.398136825512545,
    "longitude": 132.57694966612357,
    "is_shadow_confederation": false
  },
  {
    "rank": null,
    "team_name": "区間記録連合",
    "team_short_name": "区間記録",
    "runner_name": "鳩山",
    "total_distance_km": 1073.3,
    "latitude": 33.950916,
    "longitude": 130.924104,
    "is_shadow_confederation": true
  }
]