[
  {
    "rank": 1,
    "team_name": "琉球大学",
    "team_short_name": "琉球",
    "runner_name": "名護",
    "total_distance_km": 360.5,
    "latitude": 35.1259860400383,
    "longitude": 136.80670902546322,
    "is_shadow_confederation": false
  },
  {
    "rank": 2,
    "team_name": "熊本学園大学",
    "team_short_name": "熊学",
    "runner_name": "人吉",
    "total_distance_km": 330.5,
    "latitude": 34.998859140282754,
    "longitude": 137.06419050187174,
    "is_shadow_confederation": false
  },
  {
    "rank": 3,
    "team_name": "鹿児島大学",
    "team_short_name": "鹿大",
    "runner_name": "加久藤",
    "total_distance_km": 319.3,
    "latitude": 34.954645493982056,
    "longitude": 137.17254670714607,
    "is_shadow_confederation": false
  },
  {
    "rank": 4,
    "team_name": "福岡大学",
    "team_short_name": "福岡",
    "runner_name": "黒木",
    "total_distance_km": 313.7,
    "latitude": 34.91758143570448,
    "longitude": 137.21076028082592,
    "is_shadow_confederation": false
  },
  {
    "rank": 5,
    "team_name": "四国大学",
    "team_short_name": "四国",
    "runner_name": "御荘",
    "total_distance_km": 298.2,
    "latitude": 34.829426584610076,
    "longitude": 137.33398502498224,
    "is_shadow_confederation": false
  },
  {
    "rank": 6,
    "team_name": "広島経済大学",
    "team_short_name": "広経",
    "runner_name": "府中（広島）",
    "total_distance_km": 283.8,
    "latitude": 34.73003234071799,
    "longitude": 137.42484752112665,
    "is_shadow_confederation": false
  },
  {
    "rank": 7,
    "team_name": "鳥取大学",
    "team_short_name": "鳥取",
    "runner_name": "広瀬",
    "total_distance_km": 275.3,
    "latitude": 34.69171712200008,
    "longitude": 137.49815312233878,
    "is_shadow_confederation": false
  },
  {
    "rank": 8,
    "team_name": "三重大学",
    "team_short_name": "三重",
    "runner_name": "小俣",
    "total_distance_km": 271.2,
    "latitude": 34.68040723838246,
    "longitude": 137.5305020617406,
    "is_shadow_confederation": false
  },
  {
    "rank": 9,
    "team_name": "名古屋大学",
    "team_short_name": "名大",
    "runner_name": "大垣",
    "total_distance_km": 271.0,
    "latitude": 34.68065677494146,
    "longitude": 137.5326634497206,
    "is_shadow_confederation": false
  },
  {
    "rank": 10,
    "team_name": "立命館大学",
    "team_short_name": "立命",
    "runner_name": "京田辺",
    "total_distance_km": 269.2,
    "latitude": 34.68516763830283,
    "longitude": 137.5514284111419,
    "is_shadow_confederation": false
  },
  {
    "rank": 11,
    "team_name": "関西大学",
    "team_short_name": "関大",
    "runner_name": "上郡",
    "total_distance_km": 268.1,
    "latitude": 34.689002466170706,
    "longitude": 137.5623282311233,
    "is_shadow_confederation": false
  },
  {
    "rank": 12,
    "team_name": "金沢大学",
    "team_short_name": "金沢",
    "runner_name": "七尾",
    "total_distance_km": 258.1,
    "latitude": 34.6860462211645,
    "longitude": 137.66530134161619,
    "is_shadow_confederation": false
  },
  {
    "rank": 13,
    "team_name": "上武大学",
    "team_short_name": "上武",
    "runner_name": "熊谷",
    "total_distance_km": 249.3,
    "latitude": 34.7080712114296,
    "longitude": 137.74459976667865,
    "is_shadow_confederation": false
  },
  {
    "rank": 14,
    "team_name": "日本大学",
    "team_short_name": "日大",
    "runner_name": "下館",
    "total_distance_km": 243.6,
    "latitude": 34.73101681226142,
    "longitude": 137.7987926788025,
    "is_shadow_confederation": false
  },
  {
    "rank": 15,
    "team_name": "山梨学院大学",
    "team_short_name": "山学",
    "runner_name": "大月",
    "total_distance_km": 233.9,
    "latitude": 34.74193342136748,
    "longitude": 137.89712420325566,
    "is_shadow_confederation": false
  },
  {
    "rank": 16,
    "team_name": "福島大学",
    "team_short_name": "福島",
    "runner_name": "津川",
    "total_distance_km": 221.6,
    "latitude": 34.77849697810097,
    "longitude": 138.01948436738707,
    "is_shadow_confederation": false
  },
  {
    "rank": 17,
    "team_name": "東北大学",
    "team_short_name": "東北",
    "runner_name": "山形（山形）",
    "total_distance_km": 175.1,
    "latitude": 34.97635577482111,
    "longitude": 138.39658748196393,
    "is_shadow_confederation": false
  },
  {
    "rank": 18,
    "team_name": "学連選抜",
    "team_short_name": "学連",
    "runner_name": "新潟",
    "total_distance_km": 169.2,
    "latitude": 35.00919530979605,
    "longitude": 138.44693653058505,
    "is_shadow_confederation": false
  }
]