[
  {
    "rank": 1,
    "team_name": "琉球大学",
    "team_short_name": "琉球",
    "runner_name": "ゴール",
    "total_distance_km": 1082.6,
    "latitude": 33.950916,
    "longitude": 130.924104,
    "is_shadow_confederation": false
  },
  {
    "rank": 2,
    "team_name": "鹿児島大学",
    "team_short_name": "鹿大",
    "runner_name": "指宿",
    "total_distance_km": 1014.9,
    "latitude": 34.037528324659014,
    "longitude": 131.25455977445347,
    "is_shadow_confederation": false
  },
  {
    "rank": 3,
    "team_name": "熊本学園大学",
    "team_short_name": "熊学",
    "runner_name": "日田",
    "total_distance_km": 968.8,
    "latitude": 34.06522166035809,
    "longitude": 131.6620422255404,
    "is_shadow_confederation": false
  },
  {
    "rank": 4,
    "team_name": "福岡大学",
    "team_short_name": "福岡",
    "runner_name": "佐賀（佐賀）",
    "total_distance_km": 939.6,
    "latitude": 34.03115044315146,
    "longitude": 131.9324648708626,
    "is_shadow_confederation": false
  },
  {
    "rank": 5,
    "team_name": "名古屋大学",
    "team_short_name": "名大",
    "runner_name": "揖斐川",
    "total_distance_km": 913.4,
    "latitude": 34.14225782734579,
    "longitude": 132.15888947152436,
    "is_shadow_confederation": false
  },
  {
    "rank": 6,
    "team_name": "日本大学",
    "team_short_name": "日大",
    "runner_name": "海老名",
    "total_distance_km": 898.9,
    "latitude": 34.22754001485174,
    "longitude": 132.2209979816493,
    "is_shadow_confederation": false
  },
  {
    "rank": 7,
    "team_name": "上武大学",
    "team_short_name": "上武",
    "runner_name": "館林",
    "total_distance_km": 894.3,
    "latitude": 34.262046207636125,
    "longitude": 132.2406771986405,
    "is_shadow_confederation": false
  },
  {
    "rank": 8,
    "team_name": "四国大学",
    "team_short_name": "四国",
    "runner_name": "西条",
    "total_distance_km": 889.3,
    "latitude": 34.28957463963471,
    "longitude": 132.2809430999718,
    "is_shadow_confederation": false
  },
  {
    "rank": 9,
    "team_name": "関西大学",
    "team_short_name": "関大",
    "runner_name": "西脇",
    "total_distance_km": 866.3,
    "latitude": 34.38084779841228,
    "longitude": 132.46708747786127,
    "is_shadow_confederation": false
  },
  {
    "rank": 10,
    "team_name": "広島経済大学",
    "team_short_name": "広経",
    "runner_name": "引田",
    "total_distance_km": 855.4,
    "latitude": 34.390242907207636,
    "longitude": 132.56409060284005,
    "is_shadow_confederation": false
  },
  {
    "rank": 11,
    "team_name": "三重大学",
    "team_short_name": "三重",
    "runner_name": "和歌山",
    "total_distance_km": 853.3,
    "latitude": 34.401710552397894,
    "longitude": 132.58180970483787,
    "is_shadow_confederation": false
  },
  {
    "rank": 12,
    "team_name": "山梨学院大学",
    "team_short_name": "山学",
    "runner_name": "上田",
    "total_distance_km": 852.3,
    "latitude": 34.40993677194982,
    "longitude": 132.58366118367496,
    "is_shadow_confederation": false
  },
  {
    "rank": 13,
    "team_name": "鳥取大学",
    "team_short_name": "鳥取",
    "runner_name": "玖珂",
    "total_distance_km": 835.6,
    "latitude": 34.418768241884365,
    "longitude": 132.72426156044472,
    "is_shadow_confederation": false
  },
  {
    "rank": 14,
    "team_name": "立命館大学",
    "team_short_name": "立命",
    "runner_name": "京都",
    "total_distance_km": 822.8,
    "latitude": 34.40677681374879,
    "longitude": 132.8494221670359,
    "is_shadow_confederation": false
  },
  {
    "rank": 15,
    "team_name": "福島大学",
    "team_short_name": "福島",
    "runner_name": "喜多方",
    "total_distance_km": 764.1,
    "latitude": 34.48747238738893,
    "longitude": 133.37379558417763,
    "is_shadow_confederation": false
  },
  {
    "rank": 16,
    "team_name": "金沢大学",
    "team_short_name": "金沢",
    "runner_name": "敦賀",
    "total_distance_km": 749.9,
    "latitude": 34.49975104156005,
    "longitude": 133.51155301411075,
    "is_shadow_confederation": false
  },
  {
    "rank": 17,
    "team_name": "東北大学",
    "team_short_name": "東北",
    "runner_name": "秋田",
    "total_distance_km": 673.3,
    "latitude": 34.7700659677725,
    "longitude": 134.23537252426442,
    "is_shadow_confederation": false
  },
  {
    "rank": 18,
    "team_name": "学連選抜",
    "team_short_name": "学連",
    "runner_name": "多度津",
    "total_distance_km": 605.3,
    "latitude": 34.74678146010011,
    "longitude": 134.86221435428817,
    "is_shadow_confederation": false
  },
  {
    "rank": null,
    "team_name": "区間記録連合",
    "team_short_name": "区間記録",
    "runner_name": "ゴール",
    "total_distance_km": 1082.6,
    "latitude": 33.950916,
    "longitude": 130.924104,
    "is_shadow_confederation": true
  }
]