[
  {
    "rank": 1,
    "team_name": "琉球大学",
    "team_short_name": "琉球",
    "runner_name": "仲筋",
    "total_distance_km": 223.0,
    "latitude": 34.77620131320217,
    "longitude": 138.0045015432078,
    "is_shadow_confederation": false
  },
  {
    "rank": 2,
    "team_name": "熊本学園大学",
    "team_short_name": "熊学",
    "runner_name": "岱明",
    "total_distance_km": 215.3,
    "latitude": 34.79957455228754,
    "longitude": 138.07527448945967,
    "is_shadow_confederation": false
  },
  {
    "rank": 3,
    "team_name": "鹿児島大学",
    "team_short_name": "鹿大",
    "runner_name": "川内（鹿児島）",
    "total_distance_km": 211.2,
    "latitude": 34.821049287584614,
    "longitude": 138.10399095186443,
    "is_shadow_confederation": false
  },
  {
    "rank": 4,
    "team_name": "福岡大学",
    "team_short_name": "福岡",
    "runner_name": "福岡",
    "total_distance_km": 206.1,
    "latitude": 34.83876000713911,
    "longitude": 138.13456326936856,
    "is_shadow_confederation": false
  },
  {
    "rank": 5,
    "team_name": "四国大学",
    "team_short_name": "四国",
    "runner_name": "大三島",
    "total_distance_km": 190.4,
    "latitude": 34.89969954596343,
    "longitude": 138.2807174986015,
    "is_shadow_confederation": false
  },
  {
    "rank": 6,
    "team_name": "広島経済大学",
    "team_short_name": "広経",
    "runner_name": "加計",
    "total_distance_km": 184.1,
    "latitude": 34.94022800591796,
    "longitude": 138.3191953943645,
    "is_shadow_confederation": false
  },
  {
    "rank": 7,
    "team_name": "関西大学",
    "team_short_name": "関大",
    "runner_name": "和田山",
    "total_distance_km": 181.1,
    "latitude": 34.949380514549304,
    "longitude": 138.3449727168041,
    "is_shadow_confederation": false
  },
  {
    "rank": 8,
    "team_name": "鳥取大学",
    "team_short_name": "鳥取",
    "runner_name": "鳥取",
    "total_distance_km": 179.5,
    "latitude": 34.950308970274676,
    "longitude": 138.36136104892938,
    "is_shadow_confederation": false
  },
  {
    "rank": 9,
    "team_name": "三重大学",
    "team_short_name": "三重",
    "runner_name": "五條",
    "total_distance_km": 178.9,
    "latitude": 34.95335775695541,
    "longitude": 138.36677593248487,
    "is_shadow_confederation": false
  },
  {
    "rank": 10,
    "team_name": "立命館大学",
    "team_short_name": "立命",
    "runner_name": "福知山",
    "total_distance_km": 178.7,
    "latitude": 34.9547488155017,
    "longitude": 138.36816877647425,
    "is_shadow_confederation": false
  },
  {
    "rank": 11,
    "team_name": "名古屋大学",
    "team_short_name": "名大",
    "runner_name": "美濃",
    "total_distance_km": 170.0,
    "latitude": 35.00476618996187,
    "longitude": 138.4400209975456,
    "is_shadow_confederation": false
  },
  {
    "rank": 12,
    "team_name": "金沢大学",
    "team_short_name": "金沢",
    "runner_name": "小浜",
    "total_distance_km": 167.0,
    "latitude": 35.017203857495936,
    "longitude": 138.46843819935248,
    "is_shadow_confederation": false
  },
  {
    "rank": 13,
    "team_name": "上武大学",
    "team_short_name": "上武",
    "runner_name": "越谷",
    "total_distance_km": 166.0,
    "latitude": 35.02119741205687,
    "longitude": 138.47731391323694,
    "is_shadow_confederation": false
  },
  {
    "rank": 14,
    "team_name": "日本大学",
    "team_short_name": "日大",
    "runner_name": "古河",
    "total_distance_km": 159.5,
    "latitude": 35.053630362993864,
    "longitude": 138.52755561390325,
    "is_shadow_confederation": false
  },
  {
    "rank": 15,
    "team_name": "山梨学院大学",
    "team_short_name": "山学",
    "runner_name": "南信濃",
    "total_distance_km": 150.0,
    "latitude": 35.11388209502164,
    "longitude": 138.58772309165636,
    "is_shadow_confederation": false
  },
  {
    "rank": 16,
    "team_name": "福島大学",
    "team_short_name": "福島",
    "runner_name": "石川",
    "total_distance_km": 145.9,
    "latitude": 35.12383802524907,
    "longitude": 138.62333268084694,
    "is_shadow_confederation": false
  },
  {
    "rank": 17,
    "team_name": "東北大学",
    "team_short_name": "東北",
    "runner_name": "帯広",
    "total_distance_km": 104.8,
    "latitude": 35.17096457745313,
    "longitude": 139.0122451750374,
    "is_shadow_confederation": false
  },
  {
    "rank": 18,
    "team_name": "学連選抜",
    "team_short_name": "学連",
    "runner_name": "美幌",
    "total_distance_km": 96.6,
    "latitude": 35.20819967668495,
    "longitude": 139.05819207207063,
    "is_shadow_confederation": false
  }
]