[
  {
    "rank": 1,
    "team_name": "琉球大学",
    "team_short_name": "琉球",
    "runner_name": "西表島",
    "total_distance_km": 869.3,
    "latitude": 34.38843776763083,
    "longitude": 132.43606318937233,
    "is_shadow_confederation": false
  },
  {
    "rank": 2,
    "team_name": "熊本学園大学",
    "team_short_name": "熊学",
    "runner_name": "三角",
    "total_distance_km": 816.7,
    "latitude": 34.39186909450554,
    "longitude": 132.90555829669594,
    "is_shadow_confederation": false
  },
  {
    "rank": 3,
    "team_name": "福岡大学",
    "team_short_name": "福岡",
    "runner_name": "大牟田",
    "total_distance_km": 797.5,
    "latitude": 34.3975753155456,
    "longitude": 133.08393433223696,
    "is_shadow_confederation": false
  },
  {
    "rank": 4,
    "team_name": "名古屋大学",
    "team_short_name": "名大",
    "runner_name": "大府",
    "total_distance_km": 794.6,
    "latitude": 34.38992894971382,
    "longitude": 133.11163304132995,
    "is_shadow_confederation": false
  },
  {
    "rank": 5,
    "team_name": "関西大学",
    "team_short_name": "関大",
    "runner_name": "郡家",
    "total_distance_km": 793.4,
    "latitude": 34.38279727658679,
    "longitude": 133.12008518884923,
    "is_shadow_confederation": false
  },
  {
    "rank": 6,
    "team_name": "鹿児島大学",
    "team_short_name": "鹿大",
    "runner_name": "さつま柏原",
    "total_distance_km": 793.3,
    "latitude": 34.38283795105956,
    "longitude": 133.12117141403252,
    "is_shadow_confederation": false
  },
  {
    "rank": 7,
    "team_name": "広島経済大学",
    "team_short_name": "広経",
    "runner_name": "引田",
    "total_distance_km": 784.8,
    "latitude": 34.4114118959728,
    "longitude": 133.20322266996453,
    "is_shadow_confederation": false
  },
  {
    "rank": 8,
    "team_name": "鳥取大学",
    "team_short_name": "鳥取",
    "runner_name": "玖珂",
    "total_distance_km": 784.4,
    "latitude": 34.412433,
    "longitude": 133.20720679601396,
    "is_shadow_confederation": false
  },
  {
    "rank": 9,
    "team_name": "立命館大学",
    "team_short_name": "立命",
    "runner_name": "京都",
    "total_distance_km": 781.8,
    "latitude": 34.41494293405282,
    "longitude": 133.2314875702477,
    "is_shadow_confederation": false
  },
  {
    "rank": 10,
    "team_name": "四国大学",
    "team_short_name": "四国",
    "runner_name": "江川崎",
    "total_distance_km": 778.1,
    "latitude": 34.444313567965516,
    "longitude": 133.23802743836154,
    "is_shadow_confederation": false
  },
  {
    "rank": 11,
    "team_name": "三重大学",
    "team_short_name": "三重",
    "runner_name": "和歌山",
    "total_distance_km": 763.6,
    "latitude": 34.48778856652246,
    "longitude": 133.37919012196878,
    "is_shadow_confederation": false
  },
  {
    "rank": 12,
    "team_name": "上武大学",
    "team_short_name": "上武",
    "runner_name": "前橋",
    "total_distance_km": 763.1,
    "latitude": 34.4874957273416,
    "longitude": 133.38462207239013,
    "is_shadow_confederation": false
  },
  {
    "rank": 13,
    "team_name": "山梨学院大学",
    "team_short_name": "山学",
    "runner_name": "上田",
    "total_distance_km": 762.5,
    "latitude": 34.48839144284224,
    "longitude": 133.39105355057052,
    "is_shadow_confederation": false
  },
  {
    "rank": 14,
    "team_name": "金沢大学",
    "team_short_name": "金沢",
    "runner_name": "小松",
    "total_distance_km": 760.9,
    "latitude": 34.492882498308475,
    "longitude": 133.40737223620005,
    "is_shadow_confederation": false
  },
  {
    "rank": 15,
    "team_name": "日本大学",
    "team_short_name": "日大",
    "runner_name": "練馬",
    "total_distance_km": 733.7,
    "latitude": 34.5556101744269,
    "longitude": 133.6666117479781,
    "is_shadow_confederation": false
  },
  {
    "rank": 16,
    "team_name": "学連選抜",
    "team_short_name": "学連",
    "runner_name": "加世田",
    "total_distance_km": 718.0,
    "latitude": 34.62845077927404,
    "longitude": 133.80218835665357,
    "is_shadow_confederation": false
  },
  {
    "rank": 17,
    "team_name": "福島大学",
    "team_short_name": "福島",
    "runner_name": "寺泊",
    "total_distance_km": 699.3,
    "latitude": 34.67918372108388,
    "longitude": 133.9857124058271,
    "is_shadow_confederation": false
  },
  {
    "rank": 18,
    "team_name": "東北大学",
    "team_short_name": "東北",
    "runner_name": "秋田",
    "total_distance_km": 692.4,
    "latitude": 34.70603363823504,
    "longitude": 134.05167409564484,
    "is_shadow_confederation": false
  }
]