[
  {
    "rank": 1,
    "team_name": "熊本学園大学",
    "team_short_name": "熊学",
    "runner_name": "岱明",
    "total_distance_km": 234.1,
    "latitude": 34.74136072627207,
    "longitude": 137.89505332582317,
    "is_shadow_confederation": false
  },
  {
    "rank": 2,
    "team_name": "琉球大学",
    "team_short_name": "琉球",
    "runner_name": "仲筋",
    "total_distance_km": 233.0,
    "latitude": 34.74402990979223,
    "longitude": 137.9066140698529,
    "is_shadow_confederation": false
  },
  {
    "rank": 3,
    "team_name": "福岡大学",
    "team_short_name": "福岡",
    "runner_name": "福岡",
    "total_distance_km": 227.3,
    "latitude": 34.76293093416764,
    "longitude": 137.96334127076005,
    "is_shadow_confederation": false
  },
  {
    "rank": 4,
    "team_name": "立命館大学",
    "team_short_name": "立命",
    "runner_name": "福知山",
    "total_distance_km": 221.8,
    "latitude": 34.77822144473778,
    "longitude": 138.01732504564006,
    "is_shadow_confederation": false
  },
  {
    "rank": 5,
    "team_name": "鹿児島大学",
    "team_short_name": "鹿大",
    "runner_name": "川内（鹿児島）",
    "total_distance_km": 221.5,
    "latitude": 34.778634744782565,
    "longitude": 138.02056402826054,
    "is_shadow_confederation": false
  },
  {
    "rank": 6,
    "team_name": "関西大学",
    "team_short_name": "関大",
    "runner_name": "和田山",
    "total_distance_km": 216.1,
    "latitude": 34.79283507945569,
    "longitude": 138.0722532958131,
    "is_shadow_confederation": false
  },
  {
    "rank": 7,
    "team_name": "鳥取大学",
    "team_short_name": "鳥取",
    "runner_name": "鳥取",
    "total_distance_km": 214.2,
    "latitude": 34.80813412965172,
    "longitude": 138.079551744515,
    "is_shadow_confederation": false
  },
  {
    "rank": 8,
    "team_name": "広島経済大学",
    "team_short_name": "広経",
    "runner_name": "加計",
    "total_distance_km": 213.6,
    "latitude": 34.812079511782876,
    "longitude": 138.0836017476826,
    "is_shadow_confederation": false
  },
  {
    "rank": 9,
    "team_name": "三重大学",
    "team_short_name": "三重",
    "runner_name": "五條",
    "total_distance_km": 212.8,
    "latitude": 34.817412732706615,
    "longitude": 138.08902759128551,
    "is_shadow_confederation": false
  },
  {
    "rank": 10,
    "team_name": "四国大学",
    "team_short_name": "四国",
    "runner_name": "大三島",
    "total_distance_km": 212.7,
    "latitude": 34.818148999519124,
    "longitude": 138.08965817644642,
    "is_shadow_confederation": false
  },
  {
    "rank": 11,
    "team_name": "金沢大学",
    "team_short_name": "金沢",
    "runner_name": "小浜",
    "total_distance_km": 211.9,
    "latitude": 34.82214531941998,
    "longitude": 138.0967284278094,
    "is_shadow_confederation": false
  },
  {
    "rank": 12,
    "team_name": "名古屋大学",
    "team_short_name": "名大",
    "runner_name": "美濃",
    "total_distance_km": 209.2,
    "latitude": 34.82487530855042,
    "longitude": 138.1210255853448,
    "is_shadow_confederation": false
  },
  {
    "rank": 13,
    "team_name": "山梨学院大学",
    "team_short_name": "山学",
    "runner_name": "南信濃",
    "total_distance_km": 197.5,
    "latitude": 34.867870366177335,
    "longitude": 138.21583850540213,
    "is_shadow_confederation": false
  },
  {
    "rank": 14,
    "team_name": "上武大学",
    "team_short_name": "上武",
    "runner_name": "越谷",
    "total_distance_km": 194.0,
    "latitude": 34.88412328230699,
    "longitude": 138.24675728698517,
    "is_shadow_confederation": false
  },
  {
    "rank": 15,
    "team_name": "日本大学",
    "team_short_name": "日大",
    "runner_name": "古河",
    "total_distance_km": 191.6,
    "latitude": 34.89362860620303,
    "longitude": 138.26995454318643,
    "is_shadow_confederation": false
  },
  {
    "rank": 16,
    "team_name": "福島大学",
    "team_short_name": "福島",
    "runner_name": "石川",
    "total_distance_km": 182.7,
    "latitude": 34.94718704248048,
    "longitude": 138.33062158008698,
    "is_shadow_confederation": false
  },
  {
    "rank": 17,
    "team_name": "東北大学",
    "team_short_name": "東北",
    "runner_name": "山形（山形）",
    "total_distance_km": 160.9,
    "latitude": 35.04685893939717,
    "longitude": 138.5146878170441,
    "is_shadow_confederation": false
  },
  {
    "rank": 18,
    "team_name": "学連選抜",
    "team_short_name": "学連",
    "runner_name": "新潟",
    "total_distance_km": 148.2,
    "latitude": 35.116066398251554,
    "longitude": 138.60677690838747,
    "is_shadow_confederation": false
  }
]