[
  {
    "rank": 1,
    "team_name": "名古屋大学",
    "team_short_name": "名大",
    "runner_name": "多治見",
    "total_distance_km": 468.2,
    "latitude": 34.99307584002727,
    "longitude": 135.93920439608902,
    "is_shadow_confederation": false
  },
  {
    "rank": 2,
    "team_name": "四国大学",
    "team_short_name": "四国",
    "runner_name": "大洲",
    "total_distance_km": 465.9,
    "latitude": 35.00807695650355,
    "longitude": 135.95652025512305,
    "is_shadow_confederation": false
  },
  {
    "rank": 3,
    "team_name": "琉球大学",
    "team_short_name": "琉球",
    "runner_name": "波照間",
    "total_distance_km": 464.8,
    "latitude": 35.014806952691096,
    "longitude": 135.96536402802946,
    "is_shadow_confederation": false
  },
  {
    "rank": 4,
    "team_name": "福岡大学",
    "team_short_name": "福岡",
    "runner_name": "前原",
    "total_distance_km": 463.1,
    "latitude": 35.02217568216896,
    "longitude": 135.98064251741425,
    "is_shadow_confederation": false
  },
  {
    "rank": 5,
    "team_name": "熊本学園大学",
    "team_short_name": "熊学",
    "runner_name": "熊本",
    "total_distance_km": 462.9,
    "latitude": 35.02251262705861,
    "longitude": 135.98279535401363,
    "is_shadow_confederation": false
  },
  {
    "rank": 6,
    "team_name": "立命館大学",
    "team_short_name": "立命",
    "runner_name": "舞鶴",
    "total_distance_km": 461.6,
    "latitude": 35.02716794541548,
    "longitude": 135.99569647800496,
    "is_shadow_confederation": false
  },
  {
    "rank": 7,
    "team_name": "関西大学",
    "team_short_name": "関大",
    "runner_name": "枚方",
    "total_distance_km": 458.1,
    "latitude": 35.027601150353654,
    "longitude": 136.03215088801525,
    "is_shadow_confederation": false
  },
  {
    "rank": 8,
    "team_name": "日本大学",
    "team_short_name": "日大",
    "runner_name": "牛久",
    "total_distance_km": 456.3,
    "latitude": 35.021146364881176,
    "longitude": 136.0502468141063,
    "is_shadow_confederation": false
  },
  {
    "rank": 9,
    "team_name": "広島経済大学",
    "team_short_name": "広経",
    "runner_name": "高梁",
    "total_distance_km": 453.6,
    "latitude": 35.007843859743986,
    "longitude": 136.07496914591562,
    "is_shadow_confederation": false
  },
  {
    "rank": 10,
    "team_name": "鳥取大学",
    "team_short_name": "鳥取",
    "runner_name": "境",
    "total_distance_km": 452.1,
    "latitude": 35.0002693463228,
    "longitude": 136.08858147464096,
    "is_shadow_confederation": false
  },
  {
    "rank": 11,
    "team_name": "三重大学",
    "team_short_name": "三重",
    "runner_name": "奈良",
    "total_distance_km": 449.0,
    "latitude": 34.984285343133834,
    "longitude": 136.11628268649426,
    "is_shadow_confederation": false
  },
  {
    "rank": 12,
    "team_name": "山梨学院大学",
    "team_short_name": "山学",
    "runner_name": "甲府",
    "total_distance_km": 448.4,
    "latitude": 34.98575563123711,
    "longitude": 136.12175935043095,
    "is_shadow_confederation": false
  },
  {
    "rank": 13,
    "team_name": "鹿児島大学",
    "team_short_name": "鹿大",
    "runner_name": "西都",
    "total_distance_km": 447.5,
    "latitude": 34.985161941815235,
    "longitude": 136.13151999551985,
    "is_shadow_confederation": false
  },
  {
    "rank": 14,
    "team_name": "金沢大学",
    "team_short_name": "金沢",
    "runner_name": "福井",
    "total_distance_km": 444.5,
    "latitude": 34.97837046251507,
    "longitude": 136.16326653830473,
    "is_shadow_confederation": false
  },
  {
    "rank": 15,
    "team_name": "上武大学",
    "team_short_name": "上武",
    "runner_name": "桐生",
    "total_distance_km": 440.8,
    "latitude": 34.95915342673412,
    "longitude": 136.19593032238095,
    "is_shadow_confederation": false
  },
  {
    "rank": 16,
    "team_name": "福島大学",
    "team_short_name": "福島",
    "runner_name": "福島",
    "total_distance_km": 433.2,
    "latitude": 34.93829270071331,
    "longitude": 136.27302930662898,
    "is_shadow_confederation": false
  },
  {
    "rank": 17,
    "team_name": "学連選抜",
    "team_short_name": "学連",
    "runner_name": "上",
    "total_distance_km": 404.8,
    "latitude": 34.87667523921544,
    "longitude": 136.49930209696885,
    "is_shadow_confederation": false
  },
  {
    "rank": 18,
    "team_name": "東北大学",
    "team_short_name": "東北",
    "runner_name": "大館",
    "total_distance_km": 393.8,
    "latitude": 34.92645541467051,
    "longitude": 136.5867670315864,
    "is_shadow_confederation": false
  },
  {
    "rank": null,
    "team_name": "区間記録連合",
    "team_short_name": "区間記録",
    "runner_name": "桐生",
    "total_distance_km": 489.4,
    "latitude": 34.995843744012895,
    "longitude": 135.7640454877525,
    "is_shadow_confederation": true
  }
]