[
  {
    "rank": 1,
    "team_name": "琉球大学",
    "team_short_name": "琉球",
    "runner_name": "北原",
    "total_distance_km": 126.4,
    "latitude": 35.11252277574315,
    "longitude": 138.82285290508258,
    "is_shadow_confederation": false
  },
  {
    "rank": 2,
    "team_name": "熊本学園大学",
    "team_short_name": "熊学",
    "runner_name": "甲佐",
    "total_distance_km": 126.3,
    "latitude": 35.11205608783441,
    "longitude": 138.82379135231275,
    "is_shadow_confederation": false
  },
  {
    "rank": 3,
    "team_name": "鹿児島大学",
    "team_short_name": "鹿大",
    "runner_name": "東市来",
    "total_distance_km": 121.3,
    "latitude": 35.1005511801906,
    "longitude": 138.874134648057,
    "is_shadow_confederation": false
  },
  {
    "rank": 4,
    "team_name": "福岡大学",
    "team_short_name": "福岡",
    "runner_name": "久留米",
    "total_distance_km": 121.2,
    "latitude": 35.10083774670827,
    "longitude": 138.87512929951606,
    "is_shadow_confederation": false
  },
  {
    "rank": 5,
    "team_name": "四国大学",
    "team_short_name": "四国",
    "runner_name": "穴吹",
    "total_distance_km": 110.8,
    "latitude": 35.14121969190941,
    "longitude": 138.96905957707764,
    "is_shadow_confederation": false
  },
  {
    "rank": 6,
    "team_name": "関西大学",
    "team_short_name": "関大",
    "runner_name": "福崎",
    "total_distance_km": 107.1,
    "latitude": 35.15866806479477,
    "longitude": 138.99570059612623,
    "is_shadow_confederation": false
  },
  {
    "rank": 7,
    "team_name": "広島経済大学",
    "team_short_name": "広経",
    "runner_name": "三次",
    "total_distance_km": 106.0,
    "latitude": 35.16490753192993,
    "longitude": 139.00298412812225,
    "is_shadow_confederation": false
  },
  {
    "rank": 8,
    "team_name": "立命館大学",
    "team_short_name": "立命",
    "runner_name": "東近江",
    "total_distance_km": 104.8,
    "latitude": 35.17096457745313,
    "longitude": 139.0122451750374,
    "is_shadow_confederation": false
  },
  {
    "rank": 9,
    "team_name": "鳥取大学",
    "team_short_name": "鳥取",
    "runner_name": "川本",
    "total_distance_km": 103.8,
    "latitude": 35.174836485658204,
    "longitude": 139.00969829508855,
    "is_shadow_confederation": false
  },
  {
    "rank": 10,
    "team_name": "三重大学",
    "team_short_name": "三重",
    "runner_name": "粥見",
    "total_distance_km": 101.3,
    "latitude": 35.18482847284403,
    "longitude": 139.02442995225653,
    "is_shadow_confederation": false
  },
  {
    "rank": 11,
    "team_name": "名古屋大学",
    "team_short_name": "名大",
    "runner_name": "美濃加茂",
    "total_distance_km": 98.6,
    "latitude": 35.192729985369795,
    "longitude": 139.0483173022222,
    "is_shadow_confederation": false
  },
  {
    "rank": 12,
    "team_name": "金沢大学",
    "team_short_name": "金沢",
    "runner_name": "秋ヶ島",
    "total_distance_km": 94.1,
    "latitude": 35.21261259720965,
    "longitude": 139.06647401982426,
    "is_shadow_confederation": false
  },
  {
    "rank": 13,
    "team_name": "上武大学",
    "team_short_name": "上武",
    "runner_name": "佐野",
    "total_distance_km": 88.5,
    "latitude": 35.2366201087591,
    "longitude": 139.1156040951433,
    "is_shadow_confederation": false
  },
  {
    "rank": 14,
    "team_name": "日本大学",
    "team_short_name": "日大",
    "runner_name": "大子",
    "total_distance_km": 83.8,
    "latitude": 35.249362889457444,
    "longitude": 139.16181513945565,
    "is_shadow_confederation": false
  },
  {
    "rank": 15,
    "team_name": "山梨学院大学",
    "team_short_name": "山学",
    "runner_name": "長野",
    "total_distance_km": 83.3,
    "latitude": 35.2522854008949,
    "longitude": 139.16468742567784,
    "is_shadow_confederation": false
  },
  {
    "rank": 16,
    "team_name": "福島大学",
    "team_short_name": "福島",
    "runner_name": "梁川",
    "total_distance_km": 77.6,
    "latitude": 35.28053599127156,
    "longitude": 139.2147167049892,
    "is_shadow_confederation": false
  },
  {
    "rank": 17,
    "team_name": "東北大学",
    "team_short_name": "東北",
    "runner_name": "帯広",
    "total_distance_km": 56.7,
    "latitude": 35.32000142268491,
    "longitude": 139.42983146173532,
    "is_shadow_confederation": false
  },
  {
    "rank": 18,
    "team_name": "学連選抜",
    "team_short_name": "学連",
    "runner_name": "美幌",
    "total_distance_km": 49.8,
    "latitude": 35.350764222069735,
    "longitude": 139.49076221350862,
    "is_shadow_confederation": false
  }
]