[
  {
    "rank": 1,
    "team_name": "琉球大学",
    "team_short_name": "琉球",
    "runner_name": "大原",
    "total_distance_km": 964.2,
    "latitude": 34.07121045019975,
    "longitude": 131.70310082006552,
    "is_shadow_confederation": false
  },
  {
    "rank": 2,
    "team_name": "鹿児島大学",
    "team_short_name": "鹿大",
    "runner_name": "さつま柏原",
    "total_distance_km": 775.2,
    "latitude": 34.45441449183329,
    "longitude": 133.26641651672057,
    "is_shadow_confederation": false
  },
  {
    "rank": 3,
    "team_name": "熊本学園大学",
    "team_short_name": "熊学",
    "runner_name": "三角",
    "total_distance_km": 754.4,
    "latitude": 34.50859275443477,
    "longitude": 133.46904231921323,
    "is_shadow_confederation": false
  },
  {
    "rank": 4,
    "team_name": "福岡大学",
    "team_short_name": "福岡",
    "runner_name": "口之津",
    "total_distance_km": 720.2,
    "latitude": 34.61532039776056,
    "longitude": 133.7855554763937,
    "is_shadow_confederation": false
  },
  {
    "rank": 5,
    "team_name": "名古屋大学",
    "team_short_name": "名大",
    "runner_name": "名古屋",
    "total_distance_km": 688.3,
    "latitude": 34.714176921630404,
    "longitude": 134.09292039368123,
    "is_shadow_confederation": false
  },
  {
    "rank": 6,
    "team_name": "四国大学",
    "team_short_name": "四国",
    "runner_name": "新居浜",
    "total_distance_km": 687.3,
    "latitude": 34.71910224005244,
    "longitude": 134.09989535969555,
    "is_shadow_confederation": false
  },
  {
    "rank": 7,
    "team_name": "日本大学",
    "team_short_name": "日大",
    "runner_name": "練馬",
    "total_distance_km": 662.7,
    "latitude": 34.83310393525108,
    "longitude": 134.31480735005627,
    "is_shadow_confederation": false
  },
  {
    "rank": 8,
    "team_name": "上武大学",
    "team_short_name": "上武",
    "runner_name": "小山",
    "total_distance_km": 661.2,
    "latitude": 34.84228033115553,
    "longitude": 134.32308862732006,
    "is_shadow_confederation": false
  },
  {
    "rank": 9,
    "team_name": "広島経済大学",
    "team_short_name": "広経",
    "runner_name": "高松（香川）",
    "total_distance_km": 648.3,
    "latitude": 34.82622744327901,
    "longitude": 134.45332671990323,
    "is_shadow_confederation": false
  },
  {
    "rank": 10,
    "team_name": "三重大学",
    "team_short_name": "三重",
    "runner_name": "新宮",
    "total_distance_km": 646.2,
    "latitude": 34.8185329521202,
    "longitude": 134.47198780023535,
    "is_shadow_confederation": false
  },
  {
    "rank": 11,
    "team_name": "関西大学",
    "team_short_name": "関大",
    "runner_name": "豊中",
    "total_distance_km": 641.3,
    "latitude": 34.826316454683585,
    "longitude": 134.5236377417868,
    "is_shadow_confederation": false
  },
  {
    "rank": 12,
    "team_name": "山梨学院大学",
    "team_short_name": "山学",
    "runner_name": "静岡",
    "total_distance_km": 635.4,
    "latitude": 34.83299786727886,
    "longitude": 134.58668602108477,
    "is_shadow_confederation": false
  },
  {
    "rank": 13,
    "team_name": "鳥取大学",
    "team_short_name": "鳥取",
    "runner_name": "松江",
    "total_distance_km": 633.3,
    "latitude": 34.829059343477624,
    "longitude": 134.60831145201828,
    "is_shadow_confederation": false
  },
  {
    "rank": 14,
    "team_name": "立命館大学",
    "team_short_name": "立命",
    "runner_name": "彦根",
    "total_distance_km": 602.3,
    "latitude": 34.72787407109392,
    "longitude": 134.88488518113837,
    "is_shadow_confederation": false
  },
  {
    "rank": 15,
    "team_name": "福島大学",
    "team_short_name": "福島",
    "runner_name": "浪江",
    "total_distance_km": 574.4,
    "latitude": 34.65432021661188,
    "longitude": 135.13178824751884,
    "is_shadow_confederation": false
  },
  {
    "rank": 16,
    "team_name": "金沢大学",
    "team_short_name": "金沢",
    "runner_name": "富山",
    "total_distance_km": 550.0,
    "latitude": 34.73413148457431,
    "longitude": 135.36790870640698,
    "is_shadow_confederation": false
  },
  {
    "rank": 17,
    "team_name": "東北大学",
    "team_short_name": "東北",
    "runner_name": "一関",
    "total_distance_km": 459.2,
    "latitude": 35.031503608658724,
    "longitude": 136.02107695198464,
    "is_shadow_confederation": false
  },
  {
    "rank": 18,
    "team_name": "学連選抜",
    "team_short_name": "学連",
    "runner_name": "上",
    "total_distance_km": 404.4,
    "latitude": 34.87753983463627,
    "longitude": 136.50346228346928,
    "is_shadow_confederation": false
  },
  {
    "rank": null,
    "team_name": "区間記録連合",
    "team_short_name": "区間記録",
    "runner_name": "豊中",
    "total_distance_km": 964.2,
    "latitude": 34.07121045019975,
    "longitude": 131.70310082006552,
    "is_shadow_confederation": true
  }
]