[
  {
    "rank": 1,
    "team_name": "琉球大学",
    "team_short_name": "琉球",
    "runner_name": "盛山",
    "total_distance_km": 276.3,
    "latitude": 34.695626748656935,
    "longitude": 137.4890765294321,
    "current_leg": 3,
    "is_shadow_confederation": false
  },
  {
    "rank": 2,
    "team_name": "名古屋大学",
    "team_short_name": "名大",
    "runner_name": "大垣",
    "total_distance_km": 249.8,
    "latitude": 34.708052,
    "longitude": 137.7391453241176,
    "current_leg": 3,
    "is_shadow_confederation": false
  },
  {
    "rank": 3,
    "team_name": "鹿児島大学",
    "team_short_name": "鹿大",
    "runner_name": "加久藤",
    "total_distance_km": 245.4,
    "latitude": 34.72293133370041,
    "longitude": 137.78288852862445,
    "current_leg": 3,
    "is_shadow_confederation": false
  },
  {
    "rank": 4,
    "team_name": "立命館大学",
    "team_short_name": "立命",
    "runner_name": "京田辺",
    "total_distance_km": 237.5,
    "latitude": 34.725830256589234,
    "longitude": 137.86346114007256,
    "current_leg": 3,
    "is_shadow_confederation": false
  },
  {
    "rank": 5,
    "team_name": "山梨学院大学",
    "team_short_name": "山学",
    "runner_name": "大月",
    "total_distance_km": 237.0,
    "latitude": 34.72819171631822,
    "longitude": 137.8681109520492,
    "current_leg": 3,
    "is_shadow_confederation": false
  },
  {
    "rank": 5,
    "team_name": "熊本学園大学",
    "team_short_name": "熊学",
    "runner_name": "八代",
    "total_distance_km": 237.0,
    "latitude": 34.72819171631822,
    "longitude": 137.8681109520492,
    "current_leg": 3,
    "is_shadow_confederation": false
  },
  {
    "rank": 7,
    "team_name": "日本大学",
    "team_short_name": "日大",
    "runner_name": "下館",
    "total_distance_km": 236.1,
    "latitude": 34.73319865034337,
    "longitude": 137.87569551196177,
    "current_leg": 3,
    "is_shadow_confederation": false
  },
  {
    "rank": 8,
    "team_name": "福岡大学",
    "team_short_name": "福岡",
    "runner_name": "黒木",
    "total_distance_km": 235.9,
    "latitude": 34.73411806503798,
    "longitude": 137.87757403603445,
    "current_leg": 3,
    "is_shadow_confederation": false
  },
  {
    "rank": 9,
    "team_name": "上武大学",
    "team_short_name": "上武",
    "runner_name": "熊谷",
    "total_distance_km": 235.6,
    "latitude": 34.735497187079915,
    "longitude": 137.88039182214345,
    "current_leg": 3,
    "is_shadow_confederation": false
  },
  {
    "rank": 10,
    "team_name": "三重大学",
    "team_short_name": "三重",
    "runner_name": "小俣",
    "total_distance_km": 234.7,
    "latitude": 34.739634553205704,
    "longitude": 137.88884518047047,
    "current_leg": 3,
    "is_shadow_confederation": false
  },
  {
    "rank": 11,
    "team_name": "鳥取大学",
    "team_short_name": "鳥取",
    "runner_name": "広瀬",
    "total_distance_km": 233.6,
    "latitude": 34.74261211449199,
    "longitude": 137.9002952394539,
    "current_leg": 3,
    "is_shadow_confederation": false
  },
  {
    "rank": 12,
    "team_name": "関西大学",
    "team_short_name": "関大",
    "runner_name": "和田山",
    "total_distance_km": 232.3,
    "latitude": 34.74652039121875,
    "longitude": 137.91361681436464,
    "current_leg": 3,
    "is_shadow_confederation": false
  },
  {
    "rank": 13,
    "team_name": "四国大学",
    "team_short_name": "四国",
    "runner_name": "大三島",
    "total_distance_km": 225.2,
    "latitude": 34.77180690188257,
    "longitude": 137.98154983471483,
    "current_leg": 3,
    "is_shadow_confederation": false
  },
  {
    "rank": 14,
    "team_name": "広島経済大学",
    "team_short_name": "広経",
    "runner_name": "加計",
    "total_distance_km": 218.4,
    "latitude": 34.78436499529728,
    "longitude": 138.05230213068492,
    "current_leg": 3,
    "is_shadow_confederation": false
  },
  {
    "rank": 15,
    "team_name": "金沢大学",
    "team_short_name": "金沢",
    "runner_name": "七尾",
    "total_distance_km": 213.5,
    "latitude": 34.81294189677938,
    "longitude": 138.0839198587432,
    "current_leg": 3,
    "is_shadow_confederation": false
  },
  {
    "rank": 16,
    "team_name": "東北大学",
    "team_short_name": "東北",
    "runner_name": "山形（山形）",
    "total_distance_km": 212.1,
    "latitude": 34.82095402158455,
    "longitude": 138.0951004693983,
    "current_leg": 3,
    "is_shadow_confederation": false
  },
  {
    "rank": 17,
    "team_name": "福島大学",
    "team_short_name": "福島",
    "runner_name": "石川",
    "total_distance_km": 208.1,
    "latitude": 34.834260784268814,
    "longitude": 138.11733447201752,
    "current_leg": 2,
    "is_shadow_confederation": false
  },
  {
    "rank": 18,
    "team_name": "学連選抜",
    "team_short_name": "学連",
    "runner_name": "新潟",
    "total_distance_km": 203.5,
    "latitude": 34.84587672051871,
    "longitude": 138.16139798083947,
    "current_leg": 2,
    "is_shadow_confederation": false
  },
  {
    "rank": null,
    "team_name": "区間記録連合",
    "team_short_name": "区間記録",
    "runner_name": "伊勢崎",
    "total_distance_km": 288.2,
    "latitude": 34.763751445646506,
    "longitude": 137.4031912146462,
    "current_leg": 3,
    "is_shadow_confederation": true
  }
]