[
  {
    "rank": 1,
    "team_name": "琉球大学",
    "team_short_name": "琉球",
    "runner_name": "那覇",
    "total_distance_km": 728.4,
    "latitude": 34.577741764012856,
    "longitude": 133.71277137995585,
    "is_shadow_confederation": false
  },
  {
    "rank": 2,
    "team_name": "名古屋大学",
    "team_short_name": "名大",
    "runner_name": "名古屋",
    "total_distance_km": 722.2,
    "latitude": 34.60291954992968,
    "longitude": 133.7697715807794,
    "is_shadow_confederation": false
  },
  {
    "rank": 3,
    "team_name": "四国大学",
    "team_short_name": "四国",
    "runner_name": "新居浜",
    "total_distance_km": 717.7,
    "latitude": 34.62999038931969,
    "longitude": 133.80487801907034,
    "is_shadow_confederation": false
  },
  {
    "rank": 4,
    "team_name": "関西大学",
    "team_short_name": "関大",
    "runner_name": "八尾（大阪）",
    "total_distance_km": 714.8,
    "latitude": 34.641749237882046,
    "longitude": 133.8328810088241,
    "is_shadow_confederation": false
  },
  {
    "rank": 5,
    "team_name": "福岡大学",
    "team_short_name": "福岡",
    "runner_name": "口之津",
    "total_distance_km": 714.5,
    "latitude": 34.64272213952621,
    "longitude": 133.83593400472256,
    "is_shadow_confederation": false
  },
  {
    "rank": 6,
    "team_name": "熊本学園大学",
    "team_short_name": "熊学",
    "runner_name": "犬飼",
    "total_distance_km": 712.5,
    "latitude": 34.64604635384112,
    "longitude": 133.8570071545755,
    "is_shadow_confederation": false
  },
  {
    "rank": 7,
    "team_name": "立命館大学",
    "team_short_name": "立命",
    "runner_name": "長浜（滋賀）",
    "total_distance_km": 711.2,
    "latitude": 34.64638982180395,
    "longitude": 133.86964323801212,
    "is_shadow_confederation": false
  },
  {
    "rank": 8,
    "team_name": "広島経済大学",
    "team_short_name": "広経",
    "runner_name": "福山",
    "total_distance_km": 710.9,
    "latitude": 34.647393315897936,
    "longitude": 133.87268188295596,
    "is_shadow_confederation": false
  },
  {
    "rank": 9,
    "team_name": "鹿児島大学",
    "team_short_name": "鹿大",
    "runner_name": "鹿児島",
    "total_distance_km": 710.8,
    "latitude": 34.647727813929265,
    "longitude": 133.8736947646039,
    "is_shadow_confederation": false
  },
  {
    "rank": 10,
    "team_name": "三重大学",
    "team_short_name": "三重",
    "runner_name": "津",
    "total_distance_km": 704.4,
    "latitude": 34.65843796946556,
    "longitude": 133.9394540784959,
    "is_shadow_confederation": false
  },
  {
    "rank": 11,
    "team_name": "山梨学院大学",
    "team_short_name": "山学",
    "runner_name": "三島",
    "total_distance_km": 699.2,
    "latitude": 34.67958934871218,
    "longitude": 133.9866868652338,
    "is_shadow_confederation": false
  },
  {
    "rank": 12,
    "team_name": "日本大学",
    "team_short_name": "日大",
    "runner_name": "練馬",
    "total_distance_km": 692.8,
    "latitude": 34.70544150182464,
    "longitude": 134.04753649972074,
    "is_shadow_confederation": false
  },
  {
    "rank": 13,
    "team_name": "鳥取大学",
    "team_short_name": "鳥取",
    "runner_name": "米子",
    "total_distance_km": 687.0,
    "latitude": 34.721404339584275,
    "longitude": 134.1016138388049,
    "is_shadow_confederation": false
  },
  {
    "rank": 14,
    "team_name": "金沢大学",
    "team_short_name": "金沢",
    "runner_name": "敦賀",
    "total_distance_km": 682.9,
    "latitude": 34.73529289006607,
    "longitude": 134.14204931529028,
    "is_shadow_confederation": false
  },
  {
    "rank": 15,
    "team_name": "上武大学",
    "team_short_name": "上武",
    "runner_name": "小山",
    "total_distance_km": 682.6,
    "latitude": 34.7363137642395,
    "longitude": 134.1450826545751,
    "is_shadow_confederation": false
  },
  {
    "rank": 16,
    "team_name": "福島大学",
    "team_short_name": "福島",
    "runner_name": "寺泊",
    "total_distance_km": 658.8,
    "latitude": 34.83597123711863,
    "longitude": 134.34578854595387,
    "is_shadow_confederation": false
  },
  {
    "rank": 17,
    "team_name": "学連選抜",
    "team_short_name": "学連",
    "runner_name": "多度津",
    "total_distance_km": 654.4,
    "latitude": 34.82878266934174,
    "longitude": 134.38970404356706,
    "is_shadow_confederation": false
  },
  {
    "rank": 18,
    "team_name": "東北大学",
    "team_short_name": "東北",
    "runner_name": "丸森",
    "total_distance_km": 604.9,
    "latitude": 34.74430642148898,
    "longitude": 134.86538631698207,
    "is_shadow_confederation": false
  },
  {
    "rank": null,
    "team_name": "区間記録連合",
    "team_short_name": "区間記録",
    "runner_name": "新居浜",
    "total_distance_km": 755.2,
    "latitude": 34.506605896282295,
    "longitude": 133.46126153236224,
    "is_shadow_confederation": true
  }
]