[
  {
    "rank": 1,
    "team_name": "琉球大学",
    "team_short_name": "琉球",
    "runner_name": "石垣島",
    "total_distance_km": 1019.9,
    "latitude": 34.04553489303597,
    "longitude": 131.20887921096977,
    "is_shadow_confederation": false
  },
  {
    "rank": 2,
    "team_name": "鹿児島大学",
    "team_short_name": "鹿大",
    "runner_name": "指宿",
    "total_distance_km": 983.4,
    "latitude": 34.04675817880314,
    "longitude": 131.52665518345748,
    "is_shadow_confederation": false
  },
  {
    "rank": 3,
    "team_name": "福岡大学",
    "team_short_name": "福岡",
    "runner_name": "太宰府",
    "total_distance_km": 982.3,
    "latitude": 34.04992524102143,
    "longitude": 131.53790737028447,
    "is_shadow_confederation": false
  },
  {
    "rank": 4,
    "team_name": "名古屋大学",
    "team_short_name": "名大",
    "runner_name": "岐阜",
    "total_distance_km": 981.3,
    "latitude": 34.05186632791737,
    "longitude": 131.5484841349479,
    "is_shadow_confederation": false
  },
  {
    "rank": 5,
    "team_name": "熊本学園大学",
    "team_short_name": "熊学",
    "runner_name": "日田",
    "total_distance_km": 971.4,
    "latitude": 34.05099177637296,
    "longitude": 131.6422756426594,
    "is_shadow_confederation": false
  },
  {
    "rank": 6,
    "team_name": "関西大学",
    "team_short_name": "関大",
    "runner_name": "大阪",
    "total_distance_km": 969.9,
    "latitude": 34.05679185726942,
    "longitude": 131.65616174983506,
    "is_shadow_confederation": false
  },
  {
    "rank": 7,
    "team_name": "四国大学",
    "team_short_name": "四国",
    "runner_name": "中村",
    "total_distance_km": 967.5,
    "latitude": 34.071145126797695,
    "longitude": 131.67403227308225,
    "is_shadow_confederation": false
  },
  {
    "rank": 8,
    "team_name": "広島経済大学",
    "team_short_name": "広経",
    "runner_name": "滝宮",
    "total_distance_km": 962.4,
    "latitude": 34.08050766663169,
    "longitude": 131.71636806181547,
    "is_shadow_confederation": false
  },
  {
    "rank": 9,
    "team_name": "立命館大学",
    "team_short_name": "立命",
    "runner_name": "園部",
    "total_distance_km": 958.9,
    "latitude": 34.07252993608831,
    "longitude": 131.7510166852965,
    "is_shadow_confederation": false
  },
  {
    "rank": 10,
    "team_name": "日本大学",
    "team_short_name": "日大",
    "runner_name": "海老名",
    "total_distance_km": 950.2,
    "latitude": 34.03772486532921,
    "longitude": 131.82467946246723,
    "is_shadow_confederation": false
  },
  {
    "rank": 11,
    "team_name": "三重大学",
    "team_short_name": "三重",
    "runner_name": "上野",
    "total_distance_km": 948.9,
    "latitude": 34.03261807853685,
    "longitude": 131.83695500421652,
    "is_shadow_confederation": false
  },
  {
    "rank": 12,
    "team_name": "山梨学院大学",
    "team_short_name": "山学",
    "runner_name": "佐久間",
    "total_distance_km": 943.8,
    "latitude": 34.035099259927044,
    "longitude": 131.88866214176284,
    "is_shadow_confederation": false
  },
  {
    "rank": 13,
    "team_name": "鳥取大学",
    "team_short_name": "鳥取",
    "runner_name": "津和野",
    "total_distance_km": 936.6,
    "latitude": 34.04583689002676,
    "longitude": 131.9580534048142,
    "is_shadow_confederation": false
  },
  {
    "rank": 14,
    "team_name": "上武大学",
    "team_short_name": "上武",
    "runner_name": "館林",
    "total_distance_km": 934.2,
    "latitude": 34.06098725741655,
    "longitude": 131.9736654754212,
    "is_shadow_confederation": false
  },
  {
    "rank": 15,
    "team_name": "金沢大学",
    "team_short_name": "金沢",
    "runner_name": "大野（福井）",
    "total_distance_km": 919.4,
    "latitude": 34.11044402345799,
    "longitude": 132.10916231945163,
    "is_shadow_confederation": false
  },
  {
    "rank": 16,
    "team_name": "学連選抜",
    "team_short_name": "学連",
    "runner_name": "恵那",
    "total_distance_km": 906.3,
    "latitude": 34.17109296319581,
    "longitude": 132.21491455774918,
    "is_shadow_confederation": false
  },
  {
    "rank": 17,
    "team_name": "福島大学",
    "team_short_name": "福島",
    "runner_name": "新津",
    "total_distance_km": 899.6,
    "latitude": 34.222038008995106,
    "longitude": 132.2240011173743,
    "is_shadow_confederation": false
  },
  {
    "rank": 18,
    "team_name": "東北大学",
    "team_short_name": "東北",
    "runner_name": "東根",
    "total_distance_km": 831.4,
    "latitude": 34.39793782264134,
    "longitude": 132.76173848660216,
    "is_shadow_confederation": false
  },
  {
    "rank": null,
    "team_name": "区間記録連合",
    "team_short_name": "区間記録",
    "runner_name": "鳩山",
    "total_distance_km": 1034.7,
    "latitude": 34.04780755503983,
    "longitude": 131.0607583357333,
    "is_shadow_confederation": true
  }
]