[
  {
    "rank": 1,
    "team_name": "琉球大学",
    "team_short_name": "琉球",
    "runner_name": "西表島",
    "total_distance_km": 825.2,
    "latitude": 34.40557056269561,
    "longitude": 132.8243582005163,
    "is_shadow_confederation": false
  },
  {
    "rank": 2,
    "team_name": "福岡大学",
    "team_short_name": "福岡",
    "runner_name": "大牟田",
    "total_distance_km": 808.2,
    "latitude": 34.406041782685946,
    "longitude": 132.98201679332507,
    "is_shadow_confederation": false
  },
  {
    "rank": 3,
    "team_name": "名古屋大学",
    "team_short_name": "名大",
    "runner_name": "大府",
    "total_distance_km": 802.6,
    "latitude": 34.39440286537506,
    "longitude": 133.03599056403266,
    "is_shadow_confederation": false
  },
  {
    "rank": 4,
    "team_name": "鹿児島大学",
    "team_short_name": "鹿大",
    "runner_name": "さつま柏原",
    "total_distance_km": 802.5,
    "latitude": 34.39404655974217,
    "longitude": 133.0369894945566,
    "is_shadow_confederation": false
  },
  {
    "rank": 5,
    "team_name": "熊本学園大学",
    "team_short_name": "熊学",
    "runner_name": "三角",
    "total_distance_km": 799.8,
    "latitude": 34.391416380796656,
    "longitude": 133.0623349292261,
    "is_shadow_confederation": false
  },
  {
    "rank": 6,
    "team_name": "関西大学",
    "team_short_name": "関大",
    "runner_name": "郡家",
    "total_distance_km": 797.6,
    "latitude": 34.39790633755058,
    "longitude": 133.08292277450784,
    "is_shadow_confederation": false
  },
  {
    "rank": 7,
    "team_name": "四国大学",
    "team_short_name": "四国",
    "runner_name": "江川崎",
    "total_distance_km": 797.5,
    "latitude": 34.3975753155456,
    "longitude": 133.08393433223696,
    "is_shadow_confederation": false
  },
  {
    "rank": 8,
    "team_name": "広島経済大学",
    "team_short_name": "広経",
    "runner_name": "引田",
    "total_distance_km": 793.8,
    "latitude": 34.38411141716928,
    "longitude": 133.11616435692486,
    "is_shadow_confederation": false
  },
  {
    "rank": 9,
    "team_name": "立命館大学",
    "team_short_name": "立命",
    "runner_name": "京都",
    "total_distance_km": 789.8,
    "latitude": 34.39479376093434,
    "longitude": 133.15511483736353,
    "is_shadow_confederation": false
  },
  {
    "rank": 10,
    "team_name": "三重大学",
    "team_short_name": "三重",
    "runner_name": "和歌山",
    "total_distance_km": 781.7,
    "latitude": 34.41584225095165,
    "longitude": 133.23156270797995,
    "is_shadow_confederation": false
  },
  {
    "rank": 11,
    "team_name": "山梨学院大学",
    "team_short_name": "山学",
    "runner_name": "上田",
    "total_distance_km": 779.1,
    "latitude": 34.43799137439294,
    "longitude": 133.23112681415031,
    "is_shadow_confederation": false
  },
  {
    "rank": 12,
    "team_name": "日本大学",
    "team_short_name": "日大",
    "runner_name": "府中（東京）",
    "total_distance_km": 775.1,
    "latitude": 34.454823656350165,
    "longitude": 133.2673862445568,
    "is_shadow_confederation": false
  },
  {
    "rank": 13,
    "team_name": "鳥取大学",
    "team_short_name": "鳥取",
    "runner_name": "玖珂",
    "total_distance_km": 774.8,
    "latitude": 34.45605114990079,
    "longitude": 133.27029542806554,
    "is_shadow_confederation": false
  },
  {
    "rank": 14,
    "team_name": "上武大学",
    "team_short_name": "上武",
    "runner_name": "前橋",
    "total_distance_km": 763.4,
    "latitude": 34.48767143085012,
    "longitude": 133.3813629021373,
    "is_shadow_confederation": false
  },
  {
    "rank": 15,
    "team_name": "金沢大学",
    "team_short_name": "金沢",
    "runner_name": "小松",
    "total_distance_km": 759.4,
    "latitude": 34.498139680866764,
    "longitude": 133.4222895455438,
    "is_shadow_confederation": false
  },
  {
    "rank": 16,
    "team_name": "福島大学",
    "team_short_name": "福島",
    "runner_name": "寺泊",
    "total_distance_km": 745.6,
    "latitude": 34.50885448357695,
    "longitude": 133.554154183146,
    "is_shadow_confederation": false
  },
  {
    "rank": 17,
    "team_name": "学連選抜",
    "team_short_name": "学連",
    "runner_name": "加世田",
    "total_distance_km": 743.6,
    "latitude": 34.51898396276522,
    "longitude": 133.57214586947288,
    "is_shadow_confederation": false
  },
  {
    "rank": 18,
    "team_name": "東北大学",
    "team_short_name": "東北",
    "runner_name": "秋田",
    "total_distance_km": 680.8,
    "latitude": 34.73975419830001,
    "longitude": 134.1641995685921,
    "is_shadow_confederation": false
  },
  {
    "rank": null,
    "team_name": "区間記録連合",
    "team_short_name": "区間記録",
    "runner_name": "西脇",
    "total_distance_km": 843.3,
    "latitude": 34.44425119780709,
    "longitude": 132.6549839285995,
    "is_shadow_confederation": true
  }
]