[
  {
    "rank": 1,
    "team_name": "琉球大学",
    "team_short_name": "琉球",
    "runner_name": "盛山",
    "total_distance_km": 234.1,
    "latitude": 34.74136072627207,
    "longitude": 137.89505332582317,
    "is_shadow_confederation": false
  },
  {
    "rank": 2,
    "team_name": "鹿児島大学",
    "team_short_name": "鹿大",
    "runner_name": "川内（鹿児島）",
    "total_distance_km": 168.6,
    "latitude": 35.01251714967169,
    "longitude": 138.45212318036462,
    "is_shadow_confederation": false
  },
  {
    "rank": 3,
    "team_name": "熊本学園大学",
    "team_short_name": "熊学",
    "runner_name": "岱明",
    "total_distance_km": 166.0,
    "latitude": 35.02119741205687,
    "longitude": 138.47731391323694,
    "is_shadow_confederation": false
  },
  {
    "rank": 4,
    "team_name": "福岡大学",
    "team_short_name": "福岡",
    "runner_name": "福岡",
    "total_distance_km": 153.6,
    "latitude": 35.10066119371802,
    "longitude": 138.5540038968064,
    "is_shadow_confederation": false
  },
  {
    "rank": 5,
    "team_name": "名古屋大学",
    "team_short_name": "名大",
    "runner_name": "美濃",
    "total_distance_km": 139.9,
    "latitude": 35.14458243412186,
    "longitude": 138.68353703824883,
    "is_shadow_confederation": false
  },
  {
    "rank": 6,
    "team_name": "四国大学",
    "team_short_name": "四国",
    "runner_name": "大三島",
    "total_distance_km": 137.5,
    "latitude": 35.1426333305764,
    "longitude": 138.70746290214956,
    "is_shadow_confederation": false
  },
  {
    "rank": 7,
    "team_name": "三重大学",
    "team_short_name": "三重",
    "runner_name": "五條",
    "total_distance_km": 133.3,
    "latitude": 35.133724098654874,
    "longitude": 138.75208813912207,
    "is_shadow_confederation": false
  },
  {
    "rank": 8,
    "team_name": "上武大学",
    "team_short_name": "上武",
    "runner_name": "越谷",
    "total_distance_km": 133.1,
    "latitude": 35.13323152472436,
    "longitude": 138.75419908532922,
    "is_shadow_confederation": false
  },
  {
    "rank": 9,
    "team_name": "日本大学",
    "team_short_name": "日大",
    "runner_name": "古河",
    "total_distance_km": 131.0,
    "latitude": 35.12850404649609,
    "longitude": 138.77649593338734,
    "is_shadow_confederation": false
  },
  {
    "rank": 10,
    "team_name": "関西大学",
    "team_short_name": "関大",
    "runner_name": "和田山",
    "total_distance_km": 119.6,
    "latitude": 35.10612508544001,
    "longitude": 138.89091362225656,
    "is_shadow_confederation": false
  },
  {
    "rank": 11,
    "team_name": "鳥取大学",
    "team_short_name": "鳥取",
    "runner_name": "鳥取",
    "total_distance_km": 118.0,
    "latitude": 35.11513347485743,
    "longitude": 138.90400335687335,
    "is_shadow_confederation": false
  },
  {
    "rank": 12,
    "team_name": "広島経済大学",
    "team_short_name": "広経",
    "runner_name": "加計",
    "total_distance_km": 117.8,
    "latitude": 35.116137539285795,
    "longitude": 138.9058234701217,
    "is_shadow_confederation": false
  },
  {
    "rank": 13,
    "team_name": "立命館大学",
    "team_short_name": "立命",
    "runner_name": "福知山",
    "total_distance_km": 112.9,
    "latitude": 35.135417105239696,
    "longitude": 138.95197780675585,
    "is_shadow_confederation": false
  },
  {
    "rank": 14,
    "team_name": "福島大学",
    "team_short_name": "福島",
    "runner_name": "石川",
    "total_distance_km": 108.5,
    "latitude": 35.149203754597515,
    "longitude": 138.9893092997371,
    "is_shadow_confederation": false
  },
  {
    "rank": 15,
    "team_name": "金沢大学",
    "team_short_name": "金沢",
    "runner_name": "秋ヶ島",
    "total_distance_km": 91.1,
    "latitude": 35.22476515180998,
    "longitude": 139.09315064036662,
    "is_shadow_confederation": false
  },
  {
    "rank": 16,
    "team_name": "山梨学院大学",
    "team_short_name": "山学",
    "runner_name": "長野",
    "total_distance_km": 79.1,
    "latitude": 35.27414655100997,
    "longitude": 139.201523518338,
    "is_shadow_confederation": false
  },
  {
    "rank": 17,
    "team_name": "東北大学",
    "team_short_name": "東北",
    "runner_name": "帯広",
    "total_distance_km": 69.7,
    "latitude": 35.30486685134371,
    "longitude": 139.29410972191744,
    "is_shadow_confederation": false
  },
  {
    "rank": 18,
    "team_name": "学連選抜",
    "team_short_name": "学連",
    "runner_name": "美幌",
    "total_distance_km": 14.8,
    "latitude": 35.56461988425253,
    "longitude": 139.72702984142992,
    "is_shadow_confederation": false
  },
  {
    "rank": null,
    "team_name": "区間記録連合",
    "team_short_name": "区間記録",
    "runner_name": "伊勢崎",
    "total_distance_km": 251.1,
    "latitude": 34.706059929661755,
    "longitude": 137.72804739482265,
    "is_shadow_confederation": true
  }
]