[
  {
    "rank": 1,
    "team_name": "琉球大学",
    "team_short_name": "琉球",
    "runner_name": "西表島",
    "total_distance_km": 860.0,
    "latitude": 34.369823043813184,
    "longitude": 132.5266582104967,
    "is_shadow_confederation": false
  },
  {
    "rank": 2,
    "team_name": "鹿児島大学",
    "team_short_name": "鹿大",
    "runner_name": "鹿児島",
    "total_distance_km": 736.6,
    "latitude": 34.53932368938728,
    "longitude": 133.64227637284134,
    "is_shadow_confederation": false
  },
  {
    "rank": 3,
    "team_name": "熊本学園大学",
    "team_short_name": "熊学",
    "runner_name": "犬飼",
    "total_distance_km": 708.8,
    "latitude": 34.65203854822791,
    "longitude": 133.89458398744904,
    "is_shadow_confederation": false
  },
  {
    "rank": 4,
    "team_name": "福岡大学",
    "team_short_name": "福岡",
    "runner_name": "口之津",
    "total_distance_km": 692.0,
    "latitude": 34.705725576227145,
    "longitude": 134.05602428054502,
    "is_shadow_confederation": false
  },
  {
    "rank": 5,
    "team_name": "四国大学",
    "team_short_name": "四国",
    "runner_name": "新居浜",
    "total_distance_km": 657.4,
    "latitude": 34.829484674137404,
    "longitude": 134.35891678413,
    "is_shadow_confederation": false
  },
  {
    "rank": 6,
    "team_name": "広島経済大学",
    "team_short_name": "広経",
    "runner_name": "高松（香川）",
    "total_distance_km": 635.2,
    "latitude": 34.83304120130799,
    "longitude": 134.58887182237405,
    "is_shadow_confederation": false
  },
  {
    "rank": 7,
    "team_name": "名古屋大学",
    "team_short_name": "名大",
    "runner_name": "豊田（愛知）",
    "total_distance_km": 620.0,
    "latitude": 34.82075978579958,
    "longitude": 134.73527082731,
    "is_shadow_confederation": false
  },
  {
    "rank": 8,
    "team_name": "鳥取大学",
    "team_short_name": "鳥取",
    "runner_name": "松江",
    "total_distance_km": 617.4,
    "latitude": 34.805230607579205,
    "longitude": 134.75624127229992,
    "is_shadow_confederation": false
  },
  {
    "rank": 9,
    "team_name": "関西大学",
    "team_short_name": "関大",
    "runner_name": "豊中",
    "total_distance_km": 615.0,
    "latitude": 34.79502397234266,
    "longitude": 134.7780425461594,
    "is_shadow_confederation": false
  },
  {
    "rank": 10,
    "team_name": "三重大学",
    "team_short_name": "三重",
    "runner_name": "新宮",
    "total_distance_km": 610.5,
    "latitude": 34.77770755345094,
    "longitude": 134.8208087325168,
    "is_shadow_confederation": false
  },
  {
    "rank": 11,
    "team_name": "立命館大学",
    "team_short_name": "立命",
    "runner_name": "彦根",
    "total_distance_km": 603.9,
    "latitude": 34.73782793832163,
    "longitude": 134.87294721258937,
    "is_shadow_confederation": false
  },
  {
    "rank": 12,
    "team_name": "上武大学",
    "team_short_name": "上武",
    "runner_name": "伊勢崎",
    "total_distance_km": 581.6,
    "latitude": 34.6286255806719,
    "longitude": 135.061902943265,
    "is_shadow_confederation": false
  },
  {
    "rank": 13,
    "team_name": "日本大学",
    "team_short_name": "日大",
    "runner_name": "八王子",
    "total_distance_km": 580.9,
    "latitude": 34.62979853889339,
    "longitude": 135.0693868652114,
    "is_shadow_confederation": false
  },
  {
    "rank": 14,
    "team_name": "金沢大学",
    "team_short_name": "金沢",
    "runner_name": "富山",
    "total_distance_km": 578.3,
    "latitude": 34.635879099397094,
    "longitude": 135.09673415938605,
    "is_shadow_confederation": false
  },
  {
    "rank": 15,
    "team_name": "山梨学院大学",
    "team_short_name": "山学",
    "runner_name": "静岡",
    "total_distance_km": 561.4,
    "latitude": 34.715223407692605,
    "longitude": 135.24883965722867,
    "is_shadow_confederation": false
  },
  {
    "rank": 16,
    "team_name": "学連選抜",
    "team_short_name": "学連",
    "runner_name": "久世",
    "total_distance_km": 515.9,
    "latitude": 34.805551851335544,
    "longitude": 135.6500760723536,
    "is_shadow_confederation": false
  },
  {
    "rank": 17,
    "team_name": "福島大学",
    "team_short_name": "福島",
    "runner_name": "福島",
    "total_distance_km": 509.1,
    "latitude": 34.84756010824757,
    "longitude": 135.7018441823748,
    "is_shadow_confederation": false
  },
  {
    "rank": 18,
    "team_name": "東北大学",
    "team_short_name": "東北",
    "runner_name": "一関",
    "total_distance_km": 432.2,
    "latitude": 34.93658670291525,
    "longitude": 136.28356233241325,
    "is_shadow_confederation": false
  }
]