[
  {
    "rank": 1,
    "team_name": "琉球大学",
    "team_short_name": "琉球",
    "runner_name": "久米島",
    "total_distance_km": 613.1,
    "latitude": 34.7907265894797,
    "longitude": 134.79782369920477,
    "is_shadow_confederation": false
  },
  {
    "rank": 2,
    "team_name": "熊本学園大学",
    "team_short_name": "熊学",
    "runner_name": "熊本",
    "total_distance_km": 532.7,
    "latitude": 34.69984248899447,
    "longitude": 135.53904428038484,
    "is_shadow_confederation": false
  },
  {
    "rank": 3,
    "team_name": "鹿児島大学",
    "team_short_name": "鹿大",
    "runner_name": "西都",
    "total_distance_km": 518.1,
    "latitude": 34.79910243144608,
    "longitude": 135.62845645775167,
    "is_shadow_confederation": false
  },
  {
    "rank": 4,
    "team_name": "福岡大学",
    "team_short_name": "福岡",
    "runner_name": "前原",
    "total_distance_km": 504.6,
    "latitude": 34.87700614614042,
    "longitude": 135.73415991457296,
    "is_shadow_confederation": false
  },
  {
    "rank": 5,
    "team_name": "四国大学",
    "team_short_name": "四国",
    "runner_name": "大洲",
    "total_distance_km": 483.5,
    "latitude": 34.99458266546362,
    "longitude": 135.80452630351795,
    "is_shadow_confederation": false
  },
  {
    "rank": 6,
    "team_name": "広島経済大学",
    "team_short_name": "広経",
    "runner_name": "高梁",
    "total_distance_km": 462.3,
    "latitude": 35.02408073718723,
    "longitude": 135.98900693637472,
    "is_shadow_confederation": false
  },
  {
    "rank": 7,
    "team_name": "鳥取大学",
    "team_short_name": "鳥取",
    "runner_name": "境",
    "total_distance_km": 454.6,
    "latitude": 35.01289965100717,
    "longitude": 136.0658989702003,
    "is_shadow_confederation": false
  },
  {
    "rank": 8,
    "team_name": "名古屋大学",
    "team_short_name": "名大",
    "runner_name": "多治見",
    "total_distance_km": 453.0,
    "latitude": 35.00481038498607,
    "longitude": 136.0804112513448,
    "is_shadow_confederation": false
  },
  {
    "rank": 9,
    "team_name": "関西大学",
    "team_short_name": "関大",
    "runner_name": "枚方",
    "total_distance_km": 451.1,
    "latitude": 34.99524222262625,
    "longitude": 136.097673729313,
    "is_shadow_confederation": false
  },
  {
    "rank": 10,
    "team_name": "立命館大学",
    "team_short_name": "立命",
    "runner_name": "舞鶴",
    "total_distance_km": 444.2,
    "latitude": 34.97754550506982,
    "longitude": 136.16639536241416,
    "is_shadow_confederation": false
  },
  {
    "rank": 11,
    "team_name": "三重大学",
    "team_short_name": "三重",
    "runner_name": "奈良",
    "total_distance_km": 439.0,
    "latitude": 34.95562844645062,
    "longitude": 136.21468648615343,
    "is_shadow_confederation": false
  },
  {
    "rank": 12,
    "team_name": "日本大学",
    "team_short_name": "日大",
    "runner_name": "牛久",
    "total_distance_km": 423.0,
    "latitude": 34.88844021161507,
    "longitude": 136.34937098174666,
    "is_shadow_confederation": false
  },
  {
    "rank": 13,
    "team_name": "金沢大学",
    "team_short_name": "金沢",
    "runner_name": "福井",
    "total_distance_km": 421.9,
    "latitude": 34.88283088514608,
    "longitude": 136.3583192735415,
    "is_shadow_confederation": false
  },
  {
    "rank": 14,
    "team_name": "上武大学",
    "team_short_name": "上武",
    "runner_name": "桐生",
    "total_distance_km": 420.2,
    "latitude": 34.86925434060745,
    "longitude": 136.36511361162908,
    "is_shadow_confederation": false
  },
  {
    "rank": 15,
    "team_name": "山梨学院大学",
    "team_short_name": "山学",
    "runner_name": "浜松",
    "total_distance_km": 404.7,
    "latitude": 34.87704588594322,
    "longitude": 136.50029914029682,
    "is_shadow_confederation": false
  },
  {
    "rank": 16,
    "team_name": "福島大学",
    "team_short_name": "福島",
    "runner_name": "長岡",
    "total_distance_km": 371.1,
    "latitude": 35.09397701085794,
    "longitude": 136.70284824453788,
    "is_shadow_confederation": false
  },
  {
    "rank": 17,
    "team_name": "学連選抜",
    "team_short_name": "学連",
    "runner_name": "上",
    "total_distance_km": 350.3,
    "latitude": 35.11733979297619,
    "longitude": 136.91512312018324,
    "is_shadow_confederation": false
  },
  {
    "rank": 18,
    "team_name": "東北大学",
    "team_short_name": "東北",
    "runner_name": "高畠",
    "total_distance_km": 313.8,
    "latitude": 34.918015201058346,
    "longitude": 137.20980164085114,
    "is_shadow_confederation": false
  }
]