[
  {
    "rank": 1,
    "team_name": "琉球大学",
    "team_short_name": "琉球",
    "runner_name": "名護",
    "total_distance_km": 383.6,
    "latitude": 34.99937150399701,
    "longitude": 136.64976718469467,
    "is_shadow_confederation": false
  },
  {
    "rank": 2,
    "team_name": "鹿児島大学",
    "team_short_name": "鹿大",
    "runner_name": "加久藤",
    "total_distance_km": 290.0,
    "latitude": 34.772524670676475,
    "longitude": 137.3902312769179,
    "is_shadow_confederation": false
  },
  {
    "rank": 3,
    "team_name": "熊本学園大学",
    "team_short_name": "熊学",
    "runner_name": "八代",
    "total_distance_km": 284.2,
    "latitude": 34.73362233805679,
    "longitude": 137.42449597257706,
    "is_shadow_confederation": false
  },
  {
    "rank": 4,
    "team_name": "福岡大学",
    "team_short_name": "福岡",
    "runner_name": "黒木",
    "total_distance_km": 266.4,
    "latitude": 34.69403207610818,
    "longitude": 137.5778587087066,
    "is_shadow_confederation": false
  },
  {
    "rank": 5,
    "team_name": "名古屋大学",
    "team_short_name": "名大",
    "runner_name": "大垣",
    "total_distance_km": 245.8,
    "latitude": 34.72085069864558,
    "longitude": 137.77939191177177,
    "is_shadow_confederation": false
  },
  {
    "rank": 6,
    "team_name": "四国大学",
    "team_short_name": "四国",
    "runner_name": "御荘",
    "total_distance_km": 237.7,
    "latitude": 34.72529560303623,
    "longitude": 137.86138812635278,
    "is_shadow_confederation": false
  },
  {
    "rank": 7,
    "team_name": "上武大学",
    "team_short_name": "上武",
    "runner_name": "熊谷",
    "total_distance_km": 236.6,
    "latitude": 34.73081327301973,
    "longitude": 137.87108608961654,
    "is_shadow_confederation": false
  },
  {
    "rank": 8,
    "team_name": "日本大学",
    "team_short_name": "日大",
    "runner_name": "下館",
    "total_distance_km": 234.7,
    "latitude": 34.739634553205704,
    "longitude": 137.88884518047047,
    "is_shadow_confederation": false
  },
  {
    "rank": 9,
    "team_name": "三重大学",
    "team_short_name": "三重",
    "runner_name": "小俣",
    "total_distance_km": 230.2,
    "latitude": 34.75626308136831,
    "longitude": 137.9330850430392,
    "is_shadow_confederation": false
  },
  {
    "rank": 10,
    "team_name": "広島経済大学",
    "team_short_name": "広経",
    "runner_name": "加計",
    "total_distance_km": 223.9,
    "latitude": 34.775552347821105,
    "longitude": 137.99487781406097,
    "is_shadow_confederation": false
  },
  {
    "rank": 11,
    "team_name": "鳥取大学",
    "team_short_name": "鳥取",
    "runner_name": "鳥取",
    "total_distance_km": 213.4,
    "latitude": 34.813708622789754,
    "longitude": 138.08447271304715,
    "is_shadow_confederation": false
  },
  {
    "rank": 12,
    "team_name": "関西大学",
    "team_short_name": "関大",
    "runner_name": "和田山",
    "total_distance_km": 212.7,
    "latitude": 34.818148999519124,
    "longitude": 138.08965817644642,
    "is_shadow_confederation": false
  },
  {
    "rank": 13,
    "team_name": "立命館大学",
    "team_short_name": "立命",
    "runner_name": "福知山",
    "total_distance_km": 204.5,
    "latitude": 34.84420717039039,
    "longitude": 138.15075874314363,
    "is_shadow_confederation": false
  },
  {
    "rank": 14,
    "team_name": "福島大学",
    "team_short_name": "福島",
    "runner_name": "石川",
    "total_distance_km": 197.8,
    "latitude": 34.86626982966878,
    "longitude": 138.21330014431112,
    "is_shadow_confederation": false
  },
  {
    "rank": 15,
    "team_name": "山梨学院大学",
    "team_short_name": "山学",
    "runner_name": "南信濃",
    "total_distance_km": 184.7,
    "latitude": 34.93883986882703,
    "longitude": 138.31312089274323,
    "is_shadow_confederation": false
  },
  {
    "rank": 16,
    "team_name": "金沢大学",
    "team_short_name": "金沢",
    "runner_name": "小浜",
    "total_distance_km": 175.4,
    "latitude": 34.97502969338181,
    "longitude": 138.39372423870643,
    "is_shadow_confederation": false
  },
  {
    "rank": 17,
    "team_name": "東北大学",
    "team_short_name": "東北",
    "runner_name": "山形（山形）",
    "total_distance_km": 123.2,
    "latitude": 35.099846144575125,
    "longitude": 138.85342829102916,
    "is_shadow_confederation": false
  },
  {
    "rank": 18,
    "team_name": "学連選抜",
    "team_short_name": "学連",
    "runner_name": "美幌",
    "total_distance_km": 56.0,
    "latitude": 35.322811682254404,
    "longitude": 139.4360055939863,
    "is_shadow_confederation": false
  },
  {
    "rank": null,
    "team_name": "区間記録連合",
    "team_short_name": "区間記録",
    "runner_name": "風屋",
    "total_distance_km": 432.8,
    "latitude": 34.93816495529414,
    "longitude": 136.27728060463892,
    "is_shadow_confederation": true
  }
]