[
  {
    "rank": 1,
    "team_name": "琉球大学",
    "team_short_name": "琉球",
    "runner_name": "久米島",
    "total_distance_km": 560.3,
    "latitude": 34.71804343417981,
    "longitude": 135.2602105246758,
    "is_shadow_confederation": false
  },
  {
    "rank": 2,
    "team_name": "鹿児島大学",
    "team_short_name": "鹿大",
    "runner_name": "西都",
    "total_distance_km": 444.2,
    "latitude": 34.97754550506982,
    "longitude": 136.16639536241416,
    "is_shadow_confederation": false
  },
  {
    "rank": 3,
    "team_name": "熊本学園大学",
    "team_short_name": "熊学",
    "runner_name": "熊本",
    "total_distance_km": 436.8,
    "latitude": 34.94684785516749,
    "longitude": 136.2358942015222,
    "is_shadow_confederation": false
  },
  {
    "rank": 4,
    "team_name": "福岡大学",
    "team_short_name": "福岡",
    "runner_name": "朝倉",
    "total_distance_km": 412.5,
    "latitude": 34.856165720336044,
    "longitude": 136.43246423841526,
    "is_shadow_confederation": false
  },
  {
    "rank": 5,
    "team_name": "名古屋大学",
    "team_short_name": "名大",
    "runner_name": "愛西",
    "total_distance_km": 381.7,
    "latitude": 35.01241892290878,
    "longitude": 136.65931949536164,
    "is_shadow_confederation": false
  },
  {
    "rank": 6,
    "team_name": "四国大学",
    "team_short_name": "四国",
    "runner_name": "松山",
    "total_distance_km": 375.4,
    "latitude": 35.0626687456032,
    "longitude": 136.6855307724655,
    "is_shadow_confederation": false
  },
  {
    "rank": 7,
    "team_name": "広島経済大学",
    "team_short_name": "広経",
    "runner_name": "大竹",
    "total_distance_km": 363.2,
    "latitude": 35.12350917491976,
    "longitude": 136.77725875996745,
    "is_shadow_confederation": false
  },
  {
    "rank": 8,
    "team_name": "上武大学",
    "team_short_name": "上武",
    "runner_name": "寄居",
    "total_distance_km": 362.8,
    "latitude": 35.12413358456934,
    "longitude": 136.78158079407092,
    "is_shadow_confederation": false
  },
  {
    "rank": 9,
    "team_name": "日本大学",
    "team_short_name": "日大",
    "runner_name": "小田原",
    "total_distance_km": 360.1,
    "latitude": 35.12629388594323,
    "longitude": 136.81108143130757,
    "is_shadow_confederation": false
  },
  {
    "rank": 10,
    "team_name": "三重大学",
    "team_short_name": "三重",
    "runner_name": "風屋",
    "total_distance_km": 360.0,
    "latitude": 35.12637084741946,
    "longitude": 136.81217453276867,
    "is_shadow_confederation": false
  },
  {
    "rank": 11,
    "team_name": "鳥取大学",
    "team_short_name": "鳥取",
    "runner_name": "防府",
    "total_distance_km": 358.4,
    "latitude": 35.125495752410664,
    "longitude": 136.82955029870485,
    "is_shadow_confederation": false
  },
  {
    "rank": 12,
    "team_name": "関西大学",
    "team_short_name": "関大",
    "runner_name": "柏原",
    "total_distance_km": 352.4,
    "latitude": 35.12391566030804,
    "longitude": 136.89480403609937,
    "is_shadow_confederation": false
  },
  {
    "rank": 13,
    "team_name": "立命館大学",
    "team_short_name": "立命",
    "runner_name": "米原",
    "total_distance_km": 344.6,
    "latitude": 35.07733292427906,
    "longitude": 136.9472687881837,
    "is_shadow_confederation": false
  },
  {
    "rank": 14,
    "team_name": "福島大学",
    "team_short_name": "福島",
    "runner_name": "津川",
    "total_distance_km": 312.1,
    "latitude": 34.91112442364603,
    "longitude": 137.2264161231635,
    "is_shadow_confederation": false
  },
  {
    "rank": 15,
    "team_name": "山梨学院大学",
    "team_short_name": "山学",
    "runner_name": "大月",
    "total_distance_km": 309.6,
    "latitude": 34.89804087612111,
    "longitude": 137.24713728060004,
    "is_shadow_confederation": false
  },
  {
    "rank": 16,
    "team_name": "金沢大学",
    "team_short_name": "金沢",
    "runner_name": "七尾",
    "total_distance_km": 290.7,
    "latitude": 34.77765466245565,
    "longitude": 137.38600571563228,
    "is_shadow_confederation": false
  },
  {
    "rank": 17,
    "team_name": "東北大学",
    "team_short_name": "東北",
    "runner_name": "高畠",
    "total_distance_km": 231.0,
    "latitude": 34.75190904165781,
    "longitude": 137.9262160064795,
    "is_shadow_confederation": false
  },
  {
    "rank": 18,
    "team_name": "学連選抜",
    "team_short_name": "学連",
    "runner_name": "新潟",
    "total_distance_km": 135.6,
    "latitude": 35.1386106329586,
    "longitude": 138.72759926462135,
    "is_shadow_confederation": false
  },
  {
    "rank": null,
    "team_name": "区間記録連合",
    "team_short_name": "区間記録",
    "runner_name": "勝沼",
    "total_distance_km": 575.9,
    "latitude": 34.64685825978711,
    "longitude": 135.11816612082072,
    "is_shadow_confederation": true
  }
]