[
  {
    "rank": 1,
    "team_name": "熊本学園大学",
    "team_short_name": "熊学",
    "runner_name": "岱明",
    "total_distance_km": 240.8,
    "latitude": 34.724528471916294,
    "longitude": 137.82805438638593,
    "is_shadow_confederation": false
  },
  {
    "rank": 2,
    "team_name": "琉球大学",
    "team_short_name": "琉球",
    "runner_name": "仲筋",
    "total_distance_km": 236.2,
    "latitude": 34.73273894299606,
    "longitude": 137.87475624992544,
    "is_shadow_confederation": false
  },
  {
    "rank": 3,
    "team_name": "福岡大学",
    "team_short_name": "福岡",
    "runner_name": "福岡",
    "total_distance_km": 233.4,
    "latitude": 34.743061772407174,
    "longitude": 137.9024102698869,
    "is_shadow_confederation": false
  },
  {
    "rank": 4,
    "team_name": "立命館大学",
    "team_short_name": "立命",
    "runner_name": "福知山",
    "total_distance_km": 231.5,
    "latitude": 34.74995762973419,
    "longitude": 137.9212936967802,
    "is_shadow_confederation": false
  },
  {
    "rank": 5,
    "team_name": "鹿児島大学",
    "team_short_name": "鹿大",
    "runner_name": "川内（鹿児島）",
    "total_distance_km": 226.4,
    "latitude": 34.764496942130506,
    "longitude": 137.9725477210886,
    "is_shadow_confederation": false
  },
  {
    "rank": 6,
    "team_name": "関西大学",
    "team_short_name": "関大",
    "runner_name": "和田山",
    "total_distance_km": 226.2,
    "latitude": 34.76562700736204,
    "longitude": 137.97424270418608,
    "is_shadow_confederation": false
  },
  {
    "rank": 7,
    "team_name": "三重大学",
    "team_short_name": "三重",
    "runner_name": "五條",
    "total_distance_km": 223.5,
    "latitude": 34.77638150859718,
    "longitude": 137.9991305604318,
    "is_shadow_confederation": false
  },
  {
    "rank": 8,
    "team_name": "広島経済大学",
    "team_short_name": "広経",
    "runner_name": "加計",
    "total_distance_km": 223.1,
    "latitude": 34.77630019770489,
    "longitude": 138.00342178452854,
    "is_shadow_confederation": false
  },
  {
    "rank": 9,
    "team_name": "鳥取大学",
    "team_short_name": "鳥取",
    "runner_name": "鳥取",
    "total_distance_km": 221.9,
    "latitude": 34.77801969303797,
    "longitude": 138.01626288324277,
    "is_shadow_confederation": false
  },
  {
    "rank": 10,
    "team_name": "四国大学",
    "team_short_name": "四国",
    "runner_name": "大三島",
    "total_distance_km": 219.6,
    "latitude": 34.781757687432396,
    "longitude": 138.0401316182926,
    "is_shadow_confederation": false
  },
  {
    "rank": 11,
    "team_name": "金沢大学",
    "team_short_name": "金沢",
    "runner_name": "小浜",
    "total_distance_km": 219.1,
    "latitude": 34.78371720561487,
    "longitude": 138.04479325207902,
    "is_shadow_confederation": false
  },
  {
    "rank": 12,
    "team_name": "名古屋大学",
    "team_short_name": "名大",
    "runner_name": "美濃",
    "total_distance_km": 217.6,
    "latitude": 34.78436753741632,
    "longitude": 138.06095172515867,
    "is_shadow_confederation": false
  },
  {
    "rank": 13,
    "team_name": "山梨学院大学",
    "team_short_name": "山学",
    "runner_name": "南信濃",
    "total_distance_km": 206.8,
    "latitude": 34.837051542163806,
    "longitude": 138.12732233472605,
    "is_shadow_confederation": false
  },
  {
    "rank": 14,
    "team_name": "上武大学",
    "team_short_name": "上武",
    "runner_name": "越谷",
    "total_distance_km": 200.1,
    "latitude": 34.85242181779566,
    "longitude": 138.1966665963508,
    "is_shadow_confederation": false
  },
  {
    "rank": 15,
    "team_name": "日本大学",
    "team_short_name": "日大",
    "runner_name": "古河",
    "total_distance_km": 198.4,
    "latitude": 34.86150483583817,
    "longitude": 138.21020843177746,
    "is_shadow_confederation": false
  },
  {
    "rank": 16,
    "team_name": "福島大学",
    "team_short_name": "福島",
    "runner_name": "石川",
    "total_distance_km": 188.5,
    "latitude": 34.914313883844024,
    "longitude": 138.2900271222275,
    "is_shadow_confederation": false
  },
  {
    "rank": 17,
    "team_name": "東北大学",
    "team_short_name": "東北",
    "runner_name": "山形（山形）",
    "total_distance_km": 170.8,
    "latitude": 35.00033707012769,
    "longitude": 138.43310546450616,
    "is_shadow_confederation": false
  },
  {
    "rank": 18,
    "team_name": "学連選抜",
    "team_short_name": "学連",
    "runner_name": "新潟",
    "total_distance_km": 152.8,
    "latitude": 35.10619716646251,
    "longitude": 138.5592172495859,
    "is_shadow_confederation": false
  }
]