[
  {
    "rank": 1,
    "team_name": "琉球大学",
    "team_short_name": "琉球",
    "runner_name": "石垣島",
    "total_distance_km": 1024.2,
    "latitude": 34.043363088513196,
    "longitude": 131.1670984099241,
    "is_shadow_confederation": false
  },
  {
    "rank": 2,
    "team_name": "鹿児島大学",
    "team_short_name": "鹿大",
    "runner_name": "さつま柏原",
    "total_distance_km": 827.7,
    "latitude": 34.400273903296764,
    "longitude": 132.8013712783278,
    "is_shadow_confederation": false
  },
  {
    "rank": 3,
    "team_name": "熊本学園大学",
    "team_short_name": "熊学",
    "runner_name": "三角",
    "total_distance_km": 796.9,
    "latitude": 34.3973570097543,
    "longitude": 133.090411657531,
    "is_shadow_confederation": false
  },
  {
    "rank": 4,
    "team_name": "福岡大学",
    "team_short_name": "福岡",
    "runner_name": "大牟田",
    "total_distance_km": 766.7,
    "latitude": 34.48466511221079,
    "longitude": 133.34630901783288,
    "is_shadow_confederation": false
  },
  {
    "rank": 5,
    "team_name": "名古屋大学",
    "team_short_name": "名大",
    "runner_name": "名古屋",
    "total_distance_km": 739.8,
    "latitude": 34.53522067468876,
    "longitude": 133.60831903102812,
    "is_shadow_confederation": false
  },
  {
    "rank": 6,
    "team_name": "四国大学",
    "team_short_name": "四国",
    "runner_name": "新居浜",
    "total_distance_km": 729.4,
    "latitude": 34.5776368045827,
    "longitude": 133.70271467802013,
    "is_shadow_confederation": false
  },
  {
    "rank": 7,
    "team_name": "日本大学",
    "team_short_name": "日大",
    "runner_name": "練馬",
    "total_distance_km": 718.1,
    "latitude": 34.62793757592545,
    "longitude": 133.80129180251458,
    "is_shadow_confederation": false
  },
  {
    "rank": 8,
    "team_name": "上武大学",
    "team_short_name": "上武",
    "runner_name": "小山",
    "total_distance_km": 717.7,
    "latitude": 34.62999038931981,
    "longitude": 133.80487801907057,
    "is_shadow_confederation": false
  },
  {
    "rank": 9,
    "team_name": "広島経済大学",
    "team_short_name": "広経",
    "runner_name": "福山",
    "total_distance_km": 695.0,
    "latitude": 34.700253025798084,
    "longitude": 134.02490766701098,
    "is_shadow_confederation": false
  },
  {
    "rank": 10,
    "team_name": "関西大学",
    "team_short_name": "関大",
    "runner_name": "八尾（大阪）",
    "total_distance_km": 691.7,
    "latitude": 34.70549452972122,
    "longitude": 134.05928691922014,
    "is_shadow_confederation": false
  },
  {
    "rank": 11,
    "team_name": "山梨学院大学",
    "team_short_name": "山学",
    "runner_name": "三島",
    "total_distance_km": 687.6,
    "latitude": 34.71680014052041,
    "longitude": 134.09817688058607,
    "is_shadow_confederation": false
  },
  {
    "rank": 12,
    "team_name": "三重大学",
    "team_short_name": "三重",
    "runner_name": "津",
    "total_distance_km": 686.6,
    "latitude": 34.72433620448067,
    "longitude": 134.10414240549602,
    "is_shadow_confederation": false
  },
  {
    "rank": 13,
    "team_name": "鳥取大学",
    "team_short_name": "鳥取",
    "runner_name": "米子",
    "total_distance_km": 669.7,
    "latitude": 34.7916687748551,
    "longitude": 134.261930893454,
    "is_shadow_confederation": false
  },
  {
    "rank": 14,
    "team_name": "立命館大学",
    "team_short_name": "立命",
    "runner_name": "彦根",
    "total_distance_km": 649.5,
    "latitude": 34.829432934828574,
    "longitude": 134.441053865372,
    "is_shadow_confederation": false
  },
  {
    "rank": 15,
    "team_name": "福島大学",
    "team_short_name": "福島",
    "runner_name": "浪江",
    "total_distance_km": 608.0,
    "latitude": 34.76260545831418,
    "longitude": 134.83998953915608,
    "is_shadow_confederation": false
  },
  {
    "rank": 16,
    "team_name": "金沢大学",
    "team_short_name": "金沢",
    "runner_name": "富山",
    "total_distance_km": 586.2,
    "latitude": 34.643060434141354,
    "longitude": 135.01842710740715,
    "is_shadow_confederation": false
  },
  {
    "rank": 17,
    "team_name": "東北大学",
    "team_short_name": "東北",
    "runner_name": "一関",
    "total_distance_km": 505.9,
    "latitude": 34.86710964423085,
    "longitude": 135.72654551231824,
    "is_shadow_confederation": false
  },
  {
    "rank": 18,
    "team_name": "学連選抜",
    "team_short_name": "学連",
    "runner_name": "久世",
    "total_distance_km": 443.3,
    "latitude": 34.97315268800593,
    "longitude": 136.17461791838033,
    "is_shadow_confederation": false
  },
  {
    "rank": null,
    "team_name": "区間記録連合",
    "team_short_name": "区間記録",
    "runner_name": "鳩山",
    "total_distance_km": 1044.6,
    "latitude": 34.025595968330464,
    "longitude": 131.0069637836688,
    "is_shadow_confederation": true
  }
]