[
  {
    "rank": 1,
    "team_name": "琉球大学",
    "team_short_name": "琉球",
    "runner_name": "久米島",
    "total_distance_km": 642.1,
    "latitude": 34.82490857159852,
    "longitude": 134.51506104422342,
    "is_shadow_confederation": false
  },
  {
    "rank": 2,
    "team_name": "熊本学園大学",
    "team_short_name": "熊学",
    "runner_name": "大分",
    "total_distance_km": 597.2,
    "latitude": 34.693582913943175,
    "longitude": 134.9210894408341,
    "is_shadow_confederation": false
  },
  {
    "rank": 3,
    "team_name": "福岡大学",
    "team_short_name": "福岡",
    "runner_name": "博多",
    "total_distance_km": 585.4,
    "latitude": 34.639356910201585,
    "longitude": 135.02591408192905,
    "is_shadow_confederation": false
  },
  {
    "rank": 4,
    "team_name": "鹿児島大学",
    "team_short_name": "鹿大",
    "runner_name": "笠利",
    "total_distance_km": 580.0,
    "latitude": 34.63226447582068,
    "longitude": 135.07872640823712,
    "is_shadow_confederation": false
  },
  {
    "rank": 5,
    "team_name": "立命館大学",
    "team_short_name": "立命",
    "runner_name": "彦根",
    "total_distance_km": 572.1,
    "latitude": 34.66721554564508,
    "longitude": 135.15142913005204,
    "is_shadow_confederation": false
  },
  {
    "rank": 6,
    "team_name": "関西大学",
    "team_short_name": "関大",
    "runner_name": "豊中",
    "total_distance_km": 570.7,
    "latitude": 34.672965658335265,
    "longitude": 135.16450892907412,
    "is_shadow_confederation": false
  },
  {
    "rank": 7,
    "team_name": "四国大学",
    "team_short_name": "四国",
    "runner_name": "徳島",
    "total_distance_km": 570.4,
    "latitude": 34.67462772719223,
    "longitude": 135.1670911115563,
    "is_shadow_confederation": false
  },
  {
    "rank": 8,
    "team_name": "鳥取大学",
    "team_short_name": "鳥取",
    "runner_name": "松江",
    "total_distance_km": 569.3,
    "latitude": 34.68072197966777,
    "longitude": 135.17655911399095,
    "is_shadow_confederation": false
  },
  {
    "rank": 9,
    "team_name": "広島経済大学",
    "team_short_name": "広経",
    "runner_name": "高松（香川）",
    "total_distance_km": 567.2,
    "latitude": 34.69274247706618,
    "longitude": 135.19341691015566,
    "is_shadow_confederation": false
  },
  {
    "rank": 10,
    "team_name": "名古屋大学",
    "team_short_name": "名大",
    "runner_name": "豊田（愛知）",
    "total_distance_km": 566.4,
    "latitude": 34.69601077731556,
    "longitude": 135.20119988138902,
    "is_shadow_confederation": false
  },
  {
    "rank": 11,
    "team_name": "山梨学院大学",
    "team_short_name": "山学",
    "runner_name": "静岡",
    "total_distance_km": 561.7,
    "latitude": 34.714172454373916,
    "longitude": 135.2458222030629,
    "is_shadow_confederation": false
  },
  {
    "rank": 12,
    "team_name": "金沢大学",
    "team_short_name": "金沢",
    "runner_name": "富山",
    "total_distance_km": 557.5,
    "latitude": 34.72721373626408,
    "longitude": 135.2886628337066,
    "is_shadow_confederation": false
  },
  {
    "rank": 12,
    "team_name": "三重大学",
    "team_short_name": "三重",
    "runner_name": "新宮",
    "total_distance_km": 557.5,
    "latitude": 34.72721373626408,
    "longitude": 135.2886628337066,
    "is_shadow_confederation": false
  },
  {
    "rank": 14,
    "team_name": "上武大学",
    "team_short_name": "上武",
    "runner_name": "伊勢崎",
    "total_distance_km": 555.4,
    "latitude": 34.733065573849295,
    "longitude": 135.31041992901388,
    "is_shadow_confederation": false
  },
  {
    "rank": 15,
    "team_name": "日本大学",
    "team_short_name": "日大",
    "runner_name": "牛久",
    "total_distance_km": 533.3,
    "latitude": 34.69856436159313,
    "longitude": 135.53268115586778,
    "is_shadow_confederation": false
  },
  {
    "rank": 16,
    "team_name": "福島大学",
    "team_short_name": "福島",
    "runner_name": "福島",
    "total_distance_km": 504.1,
    "latitude": 34.88081249302871,
    "longitude": 135.73708853082476,
    "is_shadow_confederation": false
  },
  {
    "rank": 17,
    "team_name": "東北大学",
    "team_short_name": "東北",
    "runner_name": "一関",
    "total_distance_km": 497.4,
    "latitude": 34.93967490226163,
    "longitude": 135.74518503603875,
    "is_shadow_confederation": false
  },
  {
    "rank": 18,
    "team_name": "学連選抜",
    "team_short_name": "学連",
    "runner_name": "久世",
    "total_distance_km": 495.6,
    "latitude": 34.955894923730604,
    "longitude": 135.74567513448085,
    "is_shadow_confederation": false
  }
]