[
  {
    "rank": 1,
    "team_name": "琉球大学",
    "team_short_name": "琉球",
    "runner_name": "西表島",
    "total_distance_km": 776.2,
    "latitude": 34.45216453098976,
    "longitude": 133.25615554671424,
    "is_shadow_confederation": false
  },
  {
    "rank": 2,
    "team_name": "熊本学園大学",
    "team_short_name": "熊学",
    "runner_name": "犬飼",
    "total_distance_km": 728.1,
    "latitude": 34.577061547386364,
    "longitude": 133.7159358531255,
    "is_shadow_confederation": false
  },
  {
    "rank": 3,
    "team_name": "福岡大学",
    "team_short_name": "福岡",
    "runner_name": "口之津",
    "total_distance_km": 712.9,
    "latitude": 34.64609510878124,
    "longitude": 133.85264487421605,
    "is_shadow_confederation": false
  },
  {
    "rank": 4,
    "team_name": "鹿児島大学",
    "team_short_name": "鹿大",
    "runner_name": "鹿児島",
    "total_distance_km": 711.3,
    "latitude": 34.6460553237727,
    "longitude": 133.8686303563644,
    "is_shadow_confederation": false
  },
  {
    "rank": 5,
    "team_name": "名古屋大学",
    "team_short_name": "名大",
    "runner_name": "名古屋",
    "total_distance_km": 710.4,
    "latitude": 34.6482522999107,
    "longitude": 133.877975765358,
    "is_shadow_confederation": false
  },
  {
    "rank": 6,
    "team_name": "関西大学",
    "team_short_name": "関大",
    "runner_name": "八尾（大阪）",
    "total_distance_km": 708.5,
    "latitude": 34.653157749015726,
    "longitude": 133.89756187280148,
    "is_shadow_confederation": false
  },
  {
    "rank": 7,
    "team_name": "鳥取大学",
    "team_short_name": "鳥取",
    "runner_name": "米子",
    "total_distance_km": 703.4,
    "latitude": 34.66551632545214,
    "longitude": 133.945769619353,
    "is_shadow_confederation": false
  },
  {
    "rank": 8,
    "team_name": "四国大学",
    "team_short_name": "四国",
    "runner_name": "新居浜",
    "total_distance_km": 702.4,
    "latitude": 34.67033842265699,
    "longitude": 133.9545943225582,
    "is_shadow_confederation": false
  },
  {
    "rank": 9,
    "team_name": "立命館大学",
    "team_short_name": "立命",
    "runner_name": "長浜（滋賀）",
    "total_distance_km": 701.8,
    "latitude": 34.67322500225328,
    "longitude": 133.95995536635525,
    "is_shadow_confederation": false
  },
  {
    "rank": 9,
    "team_name": "広島経済大学",
    "team_short_name": "広経",
    "runner_name": "福山",
    "total_distance_km": 701.8,
    "latitude": 34.67322500225328,
    "longitude": 133.95995536635525,
    "is_shadow_confederation": false
  },
  {
    "rank": 11,
    "team_name": "上武大学",
    "team_short_name": "上武",
    "runner_name": "小山",
    "total_distance_km": 688.5,
    "latitude": 34.7147124382127,
    "longitude": 134.09083563635554,
    "is_shadow_confederation": false
  },
  {
    "rank": 12,
    "team_name": "山梨学院大学",
    "team_short_name": "山学",
    "runner_name": "三島",
    "total_distance_km": 687.8,
    "latitude": 34.71526540749906,
    "longitude": 134.0970312278464,
    "is_shadow_confederation": false
  },
  {
    "rank": 13,
    "team_name": "三重大学",
    "team_short_name": "三重",
    "runner_name": "津",
    "total_distance_km": 684.7,
    "latitude": 34.72961108673214,
    "longitude": 134.1236681219717,
    "is_shadow_confederation": false
  },
  {
    "rank": 14,
    "team_name": "金沢大学",
    "team_short_name": "金沢",
    "runner_name": "敦賀",
    "total_distance_km": 681.7,
    "latitude": 34.73813578648809,
    "longitude": 134.1545897465686,
    "is_shadow_confederation": false
  },
  {
    "rank": 15,
    "team_name": "日本大学",
    "team_short_name": "日大",
    "runner_name": "八王子",
    "total_distance_km": 658.2,
    "latitude": 34.833191281555195,
    "longitude": 134.35141493374374,
    "is_shadow_confederation": false
  },
  {
    "rank": 16,
    "team_name": "学連選抜",
    "team_short_name": "学連",
    "runner_name": "多度津",
    "total_distance_km": 631.5,
    "latitude": 34.83695427894084,
    "longitude": 134.62012087408507,
    "is_shadow_confederation": false
  },
  {
    "rank": 17,
    "team_name": "福島大学",
    "team_short_name": "福島",
    "runner_name": "浪江",
    "total_distance_km": 623.1,
    "latitude": 34.83077885473581,
    "longitude": 134.70373487414548,
    "is_shadow_confederation": false
  },
  {
    "rank": 18,
    "team_name": "東北大学",
    "team_short_name": "東北",
    "runner_name": "丸森",
    "total_distance_km": 615.7,
    "latitude": 34.79548500100949,
    "longitude": 134.77048053516424,
    "is_shadow_confederation": false
  }
]