[
  {
    "rank": 1,
    "team_name": "琉球大学",
    "team_short_name": "琉球",
    "runner_name": "大原",
    "total_distance_km": 901.5,
    "latitude": 34.20547869542786,
    "longitude": 132.22910387493778,
    "is_shadow_confederation": false
  },
  {
    "rank": 2,
    "team_name": "熊本学園大学",
    "team_short_name": "熊学",
    "runner_name": "三角",
    "total_distance_km": 847.9,
    "latitude": 34.42652373353198,
    "longitude": 132.62131748878616,
    "is_shadow_confederation": false
  },
  {
    "rank": 3,
    "team_name": "福岡大学",
    "team_short_name": "福岡",
    "runner_name": "大牟田",
    "total_distance_km": 828.8,
    "latitude": 34.40012046076869,
    "longitude": 132.78953251570314,
    "is_shadow_confederation": false
  },
  {
    "rank": 4,
    "team_name": "名古屋大学",
    "team_short_name": "名大",
    "runner_name": "大府",
    "total_distance_km": 825.3,
    "latitude": 34.40561603723825,
    "longitude": 132.82327195955426,
    "is_shadow_confederation": false
  },
  {
    "rank": 5,
    "team_name": "関西大学",
    "team_short_name": "関大",
    "runner_name": "郡家",
    "total_distance_km": 824.6,
    "latitude": 34.407055664379165,
    "longitude": 132.83056701005444,
    "is_shadow_confederation": false
  },
  {
    "rank": 6,
    "team_name": "鹿児島大学",
    "team_short_name": "鹿大",
    "runner_name": "さつま柏原",
    "total_distance_km": 820.4,
    "latitude": 34.39684707006058,
    "longitude": 132.87206043361886,
    "is_shadow_confederation": false
  },
  {
    "rank": 7,
    "team_name": "鳥取大学",
    "team_short_name": "鳥取",
    "runner_name": "玖珂",
    "total_distance_km": 817.1,
    "latitude": 34.390115980886414,
    "longitude": 132.90185974208782,
    "is_shadow_confederation": false
  },
  {
    "rank": 8,
    "team_name": "立命館大学",
    "team_short_name": "立命",
    "runner_name": "京都",
    "total_distance_km": 814.9,
    "latitude": 34.398498845621,
    "longitude": 132.92241584232914,
    "is_shadow_confederation": false
  },
  {
    "rank": 9,
    "team_name": "広島経済大学",
    "team_short_name": "広経",
    "runner_name": "引田",
    "total_distance_km": 814.8,
    "latitude": 34.398084504871385,
    "longitude": 132.92338169223737,
    "is_shadow_confederation": false
  },
  {
    "rank": 10,
    "team_name": "四国大学",
    "team_short_name": "四国",
    "runner_name": "江川崎",
    "total_distance_km": 805.9,
    "latitude": 34.40519549479235,
    "longitude": 133.00473982099066,
    "is_shadow_confederation": false
  },
  {
    "rank": 11,
    "team_name": "山梨学院大学",
    "team_short_name": "山学",
    "runner_name": "上田",
    "total_distance_km": 800.2,
    "latitude": 34.38970439557064,
    "longitude": 133.05850659908103,
    "is_shadow_confederation": false
  },
  {
    "rank": 12,
    "team_name": "上武大学",
    "team_short_name": "上武",
    "runner_name": "前橋",
    "total_distance_km": 799.3,
    "latitude": 34.39355636232918,
    "longitude": 133.0671203419074,
    "is_shadow_confederation": false
  },
  {
    "rank": 13,
    "team_name": "金沢大学",
    "team_short_name": "金沢",
    "runner_name": "小松",
    "total_distance_km": 793.8,
    "latitude": 34.38411141716928,
    "longitude": 133.11616435692486,
    "is_shadow_confederation": false
  },
  {
    "rank": 14,
    "team_name": "三重大学",
    "team_short_name": "三重",
    "runner_name": "和歌山",
    "total_distance_km": 793.2,
    "latitude": 34.38287862553232,
    "longitude": 133.12225763921577,
    "is_shadow_confederation": false
  },
  {
    "rank": 15,
    "team_name": "日本大学",
    "team_short_name": "日大",
    "runner_name": "府中（東京）",
    "total_distance_km": 769.0,
    "latitude": 34.48152343529288,
    "longitude": 133.32341133578186,
    "is_shadow_confederation": false
  },
  {
    "rank": 16,
    "team_name": "学連選抜",
    "team_short_name": "学連",
    "runner_name": "加世田",
    "total_distance_km": 744.7,
    "latitude": 34.513377392743564,
    "longitude": 133.5622656261545,
    "is_shadow_confederation": false
  },
  {
    "rank": 17,
    "team_name": "福島大学",
    "team_short_name": "福島",
    "runner_name": "寺泊",
    "total_distance_km": 729.8,
    "latitude": 34.57508332829191,
    "longitude": 133.69963674599904,
    "is_shadow_confederation": false
  },
  {
    "rank": 18,
    "team_name": "東北大学",
    "team_short_name": "東北",
    "runner_name": "秋田",
    "total_distance_km": 723.0,
    "latitude": 34.59811494819494,
    "longitude": 133.76326753836855,
    "is_shadow_confederation": false
  }
]