[
  {
    "rank": 1,
    "team_name": "名古屋大学",
    "team_short_name": "名大",
    "runner_name": "愛西",
    "total_distance_km": 382.8,
    "latitude": 35.004368980951334,
    "longitude": 136.65542382331103,
    "is_shadow_confederation": false
  },
  {
    "rank": 2,
    "team_name": "四国大学",
    "team_short_name": "四国",
    "runner_name": "松山",
    "total_distance_km": 371.9,
    "latitude": 35.08695197220256,
    "longitude": 136.70086885670958,
    "is_shadow_confederation": false
  },
  {
    "rank": 3,
    "team_name": "立命館大学",
    "team_short_name": "立命",
    "runner_name": "米原",
    "total_distance_km": 371.0,
    "latitude": 35.094855140689866,
    "longitude": 136.70309566801643,
    "is_shadow_confederation": false
  },
  {
    "rank": 4,
    "team_name": "熊本学園大学",
    "team_short_name": "熊学",
    "runner_name": "人吉",
    "total_distance_km": 368.7,
    "latitude": 35.108947229606756,
    "longitude": 136.7198584490857,
    "is_shadow_confederation": false
  },
  {
    "rank": 5,
    "team_name": "福岡大学",
    "team_short_name": "福岡",
    "runner_name": "朝倉",
    "total_distance_km": 368.4,
    "latitude": 35.11051044944407,
    "longitude": 136.72254342781295,
    "is_shadow_confederation": false
  },
  {
    "rank": 6,
    "team_name": "日本大学",
    "team_short_name": "日大",
    "runner_name": "小田原",
    "total_distance_km": 368.1,
    "latitude": 35.111584807085855,
    "longitude": 136.72551526187812,
    "is_shadow_confederation": false
  },
  {
    "rank": 7,
    "team_name": "上武大学",
    "team_short_name": "上武",
    "runner_name": "寄居",
    "total_distance_km": 366.9,
    "latitude": 35.114591540057084,
    "longitude": 136.7381599557303,
    "is_shadow_confederation": false
  },
  {
    "rank": 7,
    "team_name": "琉球大学",
    "team_short_name": "琉球",
    "runner_name": "名護",
    "total_distance_km": 366.9,
    "latitude": 35.114591540057084,
    "longitude": 136.7381599557303,
    "is_shadow_confederation": false
  },
  {
    "rank": 9,
    "team_name": "広島経済大学",
    "team_short_name": "広経",
    "runner_name": "大竹",
    "total_distance_km": 366.1,
    "latitude": 35.11659602870457,
    "longitude": 136.74658975163177,
    "is_shadow_confederation": false
  },
  {
    "rank": 10,
    "team_name": "関西大学",
    "team_short_name": "関大",
    "runner_name": "柏原",
    "total_distance_km": 365.7,
    "latitude": 35.117591794922525,
    "longitude": 136.75080698713697,
    "is_shadow_confederation": false
  },
  {
    "rank": 11,
    "team_name": "鳥取大学",
    "team_short_name": "鳥取",
    "runner_name": "防府",
    "total_distance_km": 364.7,
    "latitude": 35.12003844023142,
    "longitude": 136.76136550907754,
    "is_shadow_confederation": false
  },
  {
    "rank": 12,
    "team_name": "三重大学",
    "team_short_name": "三重",
    "runner_name": "風屋",
    "total_distance_km": 362.7,
    "latitude": 35.12428968698174,
    "longitude": 136.78266130259678,
    "is_shadow_confederation": false
  },
  {
    "rank": 13,
    "team_name": "山梨学院大学",
    "team_short_name": "山学",
    "runner_name": "浜松",
    "total_distance_km": 362.4,
    "latitude": 35.1245237719899,
    "longitude": 136.78594009770265,
    "is_shadow_confederation": false
  },
  {
    "rank": 14,
    "team_name": "鹿児島大学",
    "team_short_name": "鹿大",
    "runner_name": "西米良",
    "total_distance_km": 354.9,
    "latitude": 35.12477617562493,
    "longitude": 136.86761396869676,
    "is_shadow_confederation": false
  },
  {
    "rank": 15,
    "team_name": "金沢大学",
    "team_short_name": "金沢",
    "runner_name": "志賀",
    "total_distance_km": 353.0,
    "latitude": 35.12389118889966,
    "longitude": 136.888221571912,
    "is_shadow_confederation": false
  },
  {
    "rank": 16,
    "team_name": "福島大学",
    "team_short_name": "福島",
    "runner_name": "長岡",
    "total_distance_km": 344.8,
    "latitude": 35.07818093094499,
    "longitude": 136.94533359348452,
    "is_shadow_confederation": false
  },
  {
    "rank": 17,
    "team_name": "学連選抜",
    "team_short_name": "学連",
    "runner_name": "大村",
    "total_distance_km": 312.5,
    "latitude": 34.91273867666064,
    "longitude": 137.2225021625791,
    "is_shadow_confederation": false
  },
  {
    "rank": 18,
    "team_name": "東北大学",
    "team_short_name": "東北",
    "runner_name": "高畠",
    "total_distance_km": 309.8,
    "latitude": 34.89832161733107,
    "longitude": 137.24497581634932,
    "is_shadow_confederation": false
  },
  {
    "rank": null,
    "team_name": "区間記録連合",
    "team_short_name": "区間記録",
    "runner_name": "風屋",
    "total_distance_km": 395.3,
    "latitude": 34.9162178754756,
    "longitude": 136.57669726940284,
    "is_shadow_confederation": true
  }
]