[
  {
    "rank": 1,
    "team_name": "琉球大学",
    "team_short_name": "琉球",
    "runner_name": "名護",
    "total_distance_km": 395.5,
    "latitude": 34.9153678238112,
    "longitude": 136.57476781605226,
    "current_leg": 4,
    "is_shadow_confederation": false
  },
  {
    "rank": 2,
    "team_name": "名古屋大学",
    "team_short_name": "名大",
    "runner_name": "愛西",
    "total_distance_km": 361.6,
    "latitude": 35.12513946379975,
    "longitude": 136.79468490939132,
    "current_leg": 4,
    "is_shadow_confederation": false
  },
  {
    "rank": 3,
    "team_name": "鹿児島大学",
    "team_short_name": "鹿大",
    "runner_name": "西米良",
    "total_distance_km": 354.9,
    "latitude": 35.12477617562493,
    "longitude": 136.86761396869676,
    "current_leg": 4,
    "is_shadow_confederation": false
  },
  {
    "rank": 4,
    "team_name": "立命館大学",
    "team_short_name": "立命",
    "runner_name": "米原",
    "total_distance_km": 347.8,
    "latitude": 35.099205692832605,
    "longitude": 136.92660694053177,
    "current_leg": 4,
    "is_shadow_confederation": false
  },
  {
    "rank": 5,
    "team_name": "熊本学園大学",
    "team_short_name": "熊学",
    "runner_name": "人吉",
    "total_distance_km": 346.6,
    "latitude": 35.0893340629361,
    "longitude": 136.93198610392488,
    "current_leg": 4,
    "is_shadow_confederation": false
  },
  {
    "rank": 6,
    "team_name": "福岡大学",
    "team_short_name": "福岡",
    "runner_name": "朝倉",
    "total_distance_km": 346.1,
    "latitude": 35.08522088381256,
    "longitude": 136.93422742200534,
    "current_leg": 4,
    "is_shadow_confederation": false
  },
  {
    "rank": 6,
    "team_name": "鳥取大学",
    "team_short_name": "鳥取",
    "runner_name": "防府",
    "total_distance_km": 346.1,
    "latitude": 35.08522088381256,
    "longitude": 136.93422742200534,
    "current_leg": 4,
    "is_shadow_confederation": false
  },
  {
    "rank": 8,
    "team_name": "関西大学",
    "team_short_name": "関大",
    "runner_name": "柏原",
    "total_distance_km": 342.0,
    "latitude": 35.06475891238854,
    "longitude": 136.97100908242948,
    "current_leg": 4,
    "is_shadow_confederation": false
  },
  {
    "rank": 9,
    "team_name": "金沢大学",
    "team_short_name": "金沢",
    "runner_name": "志賀",
    "total_distance_km": 340.4,
    "latitude": 35.06006186555765,
    "longitude": 136.98717540604358,
    "current_leg": 4,
    "is_shadow_confederation": false
  },
  {
    "rank": 10,
    "team_name": "日本大学",
    "team_short_name": "日大",
    "runner_name": "小田原",
    "total_distance_km": 338.5,
    "latitude": 35.04881254132588,
    "longitude": 137.00266133971886,
    "current_leg": 4,
    "is_shadow_confederation": false
  },
  {
    "rank": 11,
    "team_name": "三重大学",
    "team_short_name": "三重",
    "runner_name": "風屋",
    "total_distance_km": 338.0,
    "latitude": 35.04518837702225,
    "longitude": 137.0058824794369,
    "current_leg": 4,
    "is_shadow_confederation": false
  },
  {
    "rank": 12,
    "team_name": "四国大学",
    "team_short_name": "四国",
    "runner_name": "松山",
    "total_distance_km": 337.1,
    "latitude": 35.03866994341965,
    "longitude": 137.0117115018687,
    "current_leg": 4,
    "is_shadow_confederation": false
  },
  {
    "rank": 13,
    "team_name": "上武大学",
    "team_short_name": "上武",
    "runner_name": "寄居",
    "total_distance_km": 335.8,
    "latitude": 35.02943941804664,
    "longitude": 137.02046572658642,
    "current_leg": 4,
    "is_shadow_confederation": false
  },
  {
    "rank": 14,
    "team_name": "山梨学院大学",
    "team_short_name": "山学",
    "runner_name": "大月",
    "total_distance_km": 332.0,
    "latitude": 35.00694262086329,
    "longitude": 137.0514137780106,
    "current_leg": 4,
    "is_shadow_confederation": false
  },
  {
    "rank": 15,
    "team_name": "広島経済大学",
    "team_short_name": "広経",
    "runner_name": "府中（広島）",
    "total_distance_km": 328.8,
    "latitude": 34.991522297733354,
    "longitude": 137.0805013278052,
    "current_leg": 4,
    "is_shadow_confederation": false
  },
  {
    "rank": 16,
    "team_name": "東北大学",
    "team_short_name": "東北",
    "runner_name": "高畠",
    "total_distance_km": 321.4,
    "latitude": 34.9589317378262,
    "longitude": 137.15030459166056,
    "current_leg": 4,
    "is_shadow_confederation": false
  },
  {
    "rank": 17,
    "team_name": "福島大学",
    "team_short_name": "福島",
    "runner_name": "津川",
    "total_distance_km": 317.7,
    "latitude": 34.94695307977894,
    "longitude": 137.18724949018662,
    "current_leg": 4,
    "is_shadow_confederation": false
  },
  {
    "rank": 18,
    "team_name": "学連選抜",
    "team_short_name": "学連",
    "runner_name": "大村",
    "total_distance_km": 309.9,
    "latitude": 34.898461987936045,
    "longitude": 137.24389508422396,
    "current_leg": 3,
    "is_shadow_confederation": false
  },
  {
    "rank": null,
    "team_name": "区間記録連合",
    "team_short_name": "区間記録",
    "runner_name": "桐生",
    "total_distance_km": 405.7,
    "latitude": 34.871360832002345,
    "longitude": 136.49234364375002,
    "current_leg": 5,
    "is_shadow_confederation": true
  }
]