[
  {
    "rank": 1,
    "team_name": "琉球大学",
    "team_short_name": "琉球",
    "runner_name": "波照間",
    "total_distance_km": 532.6,
    "latitude": 34.7000204071955,
    "longitude": 135.54011140828104,
    "is_shadow_confederation": false
  },
  {
    "rank": 2,
    "team_name": "熊本学園大学",
    "team_short_name": "熊学",
    "runner_name": "熊本",
    "total_distance_km": 474.8,
    "latitude": 34.994522490350576,
    "longitude": 135.88404483525665,
    "is_shadow_confederation": false
  },
  {
    "rank": 3,
    "team_name": "鹿児島大学",
    "team_short_name": "鹿大",
    "runner_name": "西都",
    "total_distance_km": 461.0,
    "latitude": 35.02944462077326,
    "longitude": 136.00159863768258,
    "is_shadow_confederation": false
  },
  {
    "rank": 4,
    "team_name": "福岡大学",
    "team_short_name": "福岡",
    "runner_name": "前原",
    "total_distance_km": 444.4,
    "latitude": 34.97809547669999,
    "longitude": 136.16430947967453,
    "is_shadow_confederation": false
  },
  {
    "rank": 5,
    "team_name": "四国大学",
    "team_short_name": "四国",
    "runner_name": "大洲",
    "total_distance_km": 430.4,
    "latitude": 34.926796195304036,
    "longitude": 136.298967660321,
    "is_shadow_confederation": false
  },
  {
    "rank": 6,
    "team_name": "広島経済大学",
    "team_short_name": "広経",
    "runner_name": "高梁",
    "total_distance_km": 418.4,
    "latitude": 34.85948928460372,
    "longitude": 136.3738432512065,
    "is_shadow_confederation": false
  },
  {
    "rank": 7,
    "team_name": "鳥取大学",
    "team_short_name": "鳥取",
    "runner_name": "防府",
    "total_distance_km": 405.2,
    "latitude": 34.87508527317766,
    "longitude": 136.49542327552453,
    "is_shadow_confederation": false
  },
  {
    "rank": 8,
    "team_name": "名古屋大学",
    "team_short_name": "名大",
    "runner_name": "愛西",
    "total_distance_km": 399.5,
    "latitude": 34.896455746557685,
    "longitude": 136.54669212497274,
    "is_shadow_confederation": false
  },
  {
    "rank": 9,
    "team_name": "関西大学",
    "team_short_name": "関大",
    "runner_name": "柏原",
    "total_distance_km": 398.1,
    "latitude": 34.90843835471436,
    "longitude": 136.55055030368132,
    "is_shadow_confederation": false
  },
  {
    "rank": 10,
    "team_name": "立命館大学",
    "team_short_name": "立命",
    "runner_name": "米原",
    "total_distance_km": 392.5,
    "latitude": 34.93451530813792,
    "longitude": 136.59629082478193,
    "is_shadow_confederation": false
  },
  {
    "rank": 11,
    "team_name": "三重大学",
    "team_short_name": "三重",
    "runner_name": "風屋",
    "total_distance_km": 389.1,
    "latitude": 34.95865471791531,
    "longitude": 136.61804193960796,
    "is_shadow_confederation": false
  },
  {
    "rank": 12,
    "team_name": "金沢大学",
    "team_short_name": "金沢",
    "runner_name": "志賀",
    "total_distance_km": 371.0,
    "latitude": 35.094855140689866,
    "longitude": 136.70309566801643,
    "is_shadow_confederation": false
  },
  {
    "rank": 13,
    "team_name": "日本大学",
    "team_short_name": "日大",
    "runner_name": "小田原",
    "total_distance_km": 368.2,
    "latitude": 35.111334246004915,
    "longitude": 136.72446153739043,
    "is_shadow_confederation": false
  },
  {
    "rank": 14,
    "team_name": "上武大学",
    "team_short_name": "上武",
    "runner_name": "寄居",
    "total_distance_km": 366.0,
    "latitude": 35.11684658978551,
    "longitude": 136.74764347611946,
    "is_shadow_confederation": false
  },
  {
    "rank": 15,
    "team_name": "山梨学院大学",
    "team_short_name": "山学",
    "runner_name": "浜松",
    "total_distance_km": 346.0,
    "latitude": 35.084500714525234,
    "longitude": 136.9348376893433,
    "is_shadow_confederation": false
  },
  {
    "rank": 16,
    "team_name": "福島大学",
    "team_short_name": "福島",
    "runner_name": "津川",
    "total_distance_km": 323.0,
    "latitude": 34.965747509478916,
    "longitude": 137.13490444134663,
    "is_shadow_confederation": false
  },
  {
    "rank": 17,
    "team_name": "学連選抜",
    "team_short_name": "学連",
    "runner_name": "大村",
    "total_distance_km": 296.2,
    "latitude": 34.81694353525304,
    "longitude": 137.34940137608865,
    "is_shadow_confederation": false
  },
  {
    "rank": 18,
    "team_name": "東北大学",
    "team_short_name": "東北",
    "runner_name": "高畠",
    "total_distance_km": 265.7,
    "latitude": 34.69383499476969,
    "longitude": 137.58548590783613,
    "is_shadow_confederation": false
  }
]