[
  {
    "rank": 1,
    "team_name": "琉球大学",
    "team_short_name": "琉球",
    "runner_name": "仲筋",
    "total_distance_km": 190.1,
    "latitude": 34.90145024157667,
    "longitude": 138.2832190830276,
    "is_shadow_confederation": false
  },
  {
    "rank": 2,
    "team_name": "熊本学園大学",
    "team_short_name": "熊学",
    "runner_name": "岱明",
    "total_distance_km": 184.8,
    "latitude": 34.93857339751108,
    "longitude": 138.31208311204912,
    "is_shadow_confederation": false
  },
  {
    "rank": 3,
    "team_name": "福岡大学",
    "team_short_name": "福岡",
    "runner_name": "福岡",
    "total_distance_km": 179.0,
    "latitude": 34.952817879876314,
    "longitude": 138.3659083590076,
    "is_shadow_confederation": false
  },
  {
    "rank": 4,
    "team_name": "鹿児島大学",
    "team_short_name": "鹿大",
    "runner_name": "川内（鹿児島）",
    "total_distance_km": 178.8,
    "latitude": 34.95405328622856,
    "longitude": 138.36747235447956,
    "is_shadow_confederation": false
  },
  {
    "rank": 5,
    "team_name": "四国大学",
    "team_short_name": "四国",
    "runner_name": "大三島",
    "total_distance_km": 160.7,
    "latitude": 35.04793425133778,
    "longitude": 138.51638960104287,
    "is_shadow_confederation": false
  },
  {
    "rank": 6,
    "team_name": "関西大学",
    "team_short_name": "関大",
    "runner_name": "和田山",
    "total_distance_km": 156.0,
    "latitude": 35.079945074987606,
    "longitude": 138.54668806669667,
    "is_shadow_confederation": false
  },
  {
    "rank": 7,
    "team_name": "鳥取大学",
    "team_short_name": "鳥取",
    "runner_name": "鳥取",
    "total_distance_km": 155.9,
    "latitude": 35.080827075163995,
    "longitude": 138.54691417210176,
    "is_shadow_confederation": false
  },
  {
    "rank": 8,
    "team_name": "広島経済大学",
    "team_short_name": "広経",
    "runner_name": "加計",
    "total_distance_km": 153.0,
    "latitude": 35.105244547093584,
    "longitude": 138.55740898683055,
    "is_shadow_confederation": false
  },
  {
    "rank": 9,
    "team_name": "三重大学",
    "team_short_name": "三重",
    "runner_name": "五條",
    "total_distance_km": 149.6,
    "latitude": 35.1143203798282,
    "longitude": 138.59207836687497,
    "is_shadow_confederation": false
  },
  {
    "rank": 10,
    "team_name": "立命館大学",
    "team_short_name": "立命",
    "runner_name": "福知山",
    "total_distance_km": 149.0,
    "latitude": 35.11573373003985,
    "longitude": 138.59841465543386,
    "is_shadow_confederation": false
  },
  {
    "rank": 11,
    "team_name": "名古屋大学",
    "team_short_name": "名大",
    "runner_name": "美濃",
    "total_distance_km": 146.7,
    "latitude": 35.116843692412154,
    "longitude": 138.62258153466618,
    "is_shadow_confederation": false
  },
  {
    "rank": 12,
    "team_name": "金沢大学",
    "team_short_name": "金沢",
    "runner_name": "小浜",
    "total_distance_km": 141.9,
    "latitude": 35.1380185173486,
    "longitude": 138.66316442468198,
    "is_shadow_confederation": false
  },
  {
    "rank": 13,
    "team_name": "上武大学",
    "team_short_name": "上武",
    "runner_name": "越谷",
    "total_distance_km": 130.7,
    "latitude": 35.12775076351916,
    "longitude": 138.7796571055675,
    "is_shadow_confederation": false
  },
  {
    "rank": 14,
    "team_name": "日本大学",
    "team_short_name": "日大",
    "runner_name": "古河",
    "total_distance_km": 125.7,
    "latitude": 35.10923635040255,
    "longitude": 138.82940645492778,
    "is_shadow_confederation": false
  },
  {
    "rank": 15,
    "team_name": "山梨学院大学",
    "team_short_name": "山学",
    "runner_name": "南信濃",
    "total_distance_km": 125.1,
    "latitude": 35.10613123206873,
    "longitude": 138.83479481314046,
    "is_shadow_confederation": false
  },
  {
    "rank": 16,
    "team_name": "福島大学",
    "team_short_name": "福島",
    "runner_name": "石川",
    "total_distance_km": 116.6,
    "latitude": 35.119852121729856,
    "longitude": 138.91801328302068,
    "is_shadow_confederation": false
  },
  {
    "rank": 17,
    "team_name": "東北大学",
    "team_short_name": "東北",
    "runner_name": "帯広",
    "total_distance_km": 89.1,
    "latitude": 35.232252389782225,
    "longitude": 139.11209931535268,
    "is_shadow_confederation": false
  },
  {
    "rank": 18,
    "team_name": "学連選抜",
    "team_short_name": "学連",
    "runner_name": "美幌",
    "total_distance_km": 78.4,
    "latitude": 35.27885204021564,
    "longitude": 139.20618857496325,
    "is_shadow_confederation": false
  }
]