[
  {
    "rank": 1,
    "team_name": "名古屋大学",
    "team_short_name": "名大",
    "runner_name": "多治見",
    "total_distance_km": 438.9,
    "latitude": 34.955287170619776,
    "longitude": 136.21569981687614,
    "is_shadow_confederation": false
  },
  {
    "rank": 2,
    "team_name": "四国大学",
    "team_short_name": "四国",
    "runner_name": "大洲",
    "total_distance_km": 435.8,
    "latitude": 34.94365455918874,
    "longitude": 136.24606013389902,
    "is_shadow_confederation": false
  },
  {
    "rank": 3,
    "team_name": "熊本学園大学",
    "team_short_name": "熊学",
    "runner_name": "熊本",
    "total_distance_km": 433.3,
    "latitude": 34.93812848565325,
    "longitude": 136.27195301254085,
    "is_shadow_confederation": false
  },
  {
    "rank": 4,
    "team_name": "琉球大学",
    "team_short_name": "琉球",
    "runner_name": "波照間",
    "total_distance_km": 432.3,
    "latitude": 34.936849744978396,
    "longitude": 136.2825153777842,
    "is_shadow_confederation": false
  },
  {
    "rank": 5,
    "team_name": "福岡大学",
    "team_short_name": "福岡",
    "runner_name": "前原",
    "total_distance_km": 432.0,
    "latitude": 34.93606061878895,
    "longitude": 136.28565624167138,
    "is_shadow_confederation": false
  },
  {
    "rank": 6,
    "team_name": "立命館大学",
    "team_short_name": "立命",
    "runner_name": "舞鶴",
    "total_distance_km": 431.3,
    "latitude": 34.93185309533061,
    "longitude": 136.29131796937529,
    "is_shadow_confederation": false
  },
  {
    "rank": 7,
    "team_name": "広島経済大学",
    "team_short_name": "広経",
    "runner_name": "大竹",
    "total_distance_km": 427.6,
    "latitude": 34.911659784834896,
    "longitude": 136.32221062934474,
    "is_shadow_confederation": false
  },
  {
    "rank": 8,
    "team_name": "関西大学",
    "team_short_name": "関大",
    "runner_name": "柏原",
    "total_distance_km": 427.4,
    "latitude": 34.91016473810258,
    "longitude": 136.32343360499397,
    "is_shadow_confederation": false
  },
  {
    "rank": 9,
    "team_name": "鳥取大学",
    "team_short_name": "鳥取",
    "runner_name": "防府",
    "total_distance_km": 423.6,
    "latitude": 34.889603535832876,
    "longitude": 136.34325606272472,
    "is_shadow_confederation": false
  },
  {
    "rank": 10,
    "team_name": "日本大学",
    "team_short_name": "日大",
    "runner_name": "小田原",
    "total_distance_km": 422.6,
    "latitude": 34.88775913542932,
    "longitude": 136.35354288036496,
    "is_shadow_confederation": false
  },
  {
    "rank": 11,
    "team_name": "山梨学院大学",
    "team_short_name": "山学",
    "runner_name": "浜松",
    "total_distance_km": 421.3,
    "latitude": 34.87773599209192,
    "longitude": 136.3603790967216,
    "is_shadow_confederation": false
  },
  {
    "rank": 12,
    "team_name": "三重大学",
    "team_short_name": "三重",
    "runner_name": "風屋",
    "total_distance_km": 419.9,
    "latitude": 34.869038417873995,
    "longitude": 136.36795267396738,
    "is_shadow_confederation": false
  },
  {
    "rank": 13,
    "team_name": "上武大学",
    "team_short_name": "上武",
    "runner_name": "寄居",
    "total_distance_km": 415.3,
    "latitude": 34.850612965376385,
    "longitude": 136.40508841420416,
    "is_shadow_confederation": false
  },
  {
    "rank": 14,
    "team_name": "鹿児島大学",
    "team_short_name": "鹿大",
    "runner_name": "西米良",
    "total_distance_km": 415.2,
    "latitude": 34.85115297099302,
    "longitude": 136.40586521912144,
    "is_shadow_confederation": false
  },
  {
    "rank": 15,
    "team_name": "金沢大学",
    "team_short_name": "金沢",
    "runner_name": "志賀",
    "total_distance_km": 411.9,
    "latitude": 34.85570905107429,
    "longitude": 136.4388436010708,
    "is_shadow_confederation": false
  },
  {
    "rank": 16,
    "team_name": "福島大学",
    "team_short_name": "福島",
    "runner_name": "長岡",
    "total_distance_km": 401.2,
    "latitude": 34.8891024478055,
    "longitude": 136.5322337265503,
    "is_shadow_confederation": false
  },
  {
    "rank": 17,
    "team_name": "学連選抜",
    "team_short_name": "学連",
    "runner_name": "上",
    "total_distance_km": 373.4,
    "latitude": 35.07909856442282,
    "longitude": 136.6876628558315,
    "is_shadow_confederation": false
  },
  {
    "rank": 18,
    "team_name": "東北大学",
    "team_short_name": "東北",
    "runner_name": "大館",
    "total_distance_km": 365.2,
    "latitude": 35.11881511757697,
    "longitude": 136.75608624810727,
    "is_shadow_confederation": false
  },
  {
    "rank": null,
    "team_name": "区間記録連合",
    "team_short_name": "区間記録",
    "runner_name": "桐生",
    "total_distance_km": 450.0,
    "latitude": 34.98901130046927,
    "longitude": 136.1070333089734,
    "is_shadow_confederation": true
  }
]