[
  {
    "rank": 1,
    "team_name": "琉球大学",
    "team_short_name": "琉球",
    "runner_name": "仲筋",
    "total_distance_km": 157.1,
    "latitude": 35.07073815751325,
    "longitude": 138.54254228033523,
    "is_shadow_confederation": false
  },
  {
    "rank": 2,
    "team_name": "熊本学園大学",
    "team_short_name": "熊学",
    "runner_name": "岱明",
    "total_distance_km": 152.9,
    "latitude": 35.105809581394695,
    "longitude": 138.55822695294208,
    "is_shadow_confederation": false
  },
  {
    "rank": 3,
    "team_name": "福岡大学",
    "team_short_name": "福岡",
    "runner_name": "福岡",
    "total_distance_km": 147.4,
    "latitude": 35.115731332450665,
    "longitude": 138.61554327921073,
    "is_shadow_confederation": false
  },
  {
    "rank": 4,
    "team_name": "鹿児島大学",
    "team_short_name": "鹿大",
    "runner_name": "川内（鹿児島）",
    "total_distance_km": 146.6,
    "latitude": 35.11767720028323,
    "longitude": 138.62299911582272,
    "is_shadow_confederation": false
  },
  {
    "rank": 5,
    "team_name": "四国大学",
    "team_short_name": "四国",
    "runner_name": "大三島",
    "total_distance_km": 134.1,
    "latitude": 35.13569439437694,
    "longitude": 138.74364435429337,
    "is_shadow_confederation": false
  },
  {
    "rank": 6,
    "team_name": "関西大学",
    "team_short_name": "関大",
    "runner_name": "和田山",
    "total_distance_km": 129.3,
    "latitude": 35.123589770629444,
    "longitude": 138.79410499714416,
    "is_shadow_confederation": false
  },
  {
    "rank": 7,
    "team_name": "広島経済大学",
    "team_short_name": "広経",
    "runner_name": "加計",
    "total_distance_km": 128.2,
    "latitude": 35.11985192929145,
    "longitude": 138.80524372003444,
    "is_shadow_confederation": false
  },
  {
    "rank": 8,
    "team_name": "鳥取大学",
    "team_short_name": "鳥取",
    "runner_name": "鳥取",
    "total_distance_km": 126.8,
    "latitude": 35.114247762912846,
    "longitude": 138.81900421183755,
    "is_shadow_confederation": false
  },
  {
    "rank": 8,
    "team_name": "三重大学",
    "team_short_name": "三重",
    "runner_name": "五條",
    "total_distance_km": 126.8,
    "latitude": 35.114247762912846,
    "longitude": 138.81900421183755,
    "is_shadow_confederation": false
  },
  {
    "rank": 10,
    "team_name": "立命館大学",
    "team_short_name": "立命",
    "runner_name": "福知山",
    "total_distance_km": 124.9,
    "latitude": 35.10507295509523,
    "longitude": 138.83656720216518,
    "is_shadow_confederation": false
  },
  {
    "rank": 11,
    "team_name": "名古屋大学",
    "team_short_name": "名大",
    "runner_name": "美濃加茂",
    "total_distance_km": 119.3,
    "latitude": 35.107181948965916,
    "longitude": 138.89393425745573,
    "is_shadow_confederation": false
  },
  {
    "rank": 12,
    "team_name": "金沢大学",
    "team_short_name": "金沢",
    "runner_name": "秋ヶ島",
    "total_distance_km": 114.5,
    "latitude": 35.126588970509694,
    "longitude": 138.9389823502493,
    "is_shadow_confederation": false
  },
  {
    "rank": 13,
    "team_name": "上武大学",
    "team_short_name": "上武",
    "runner_name": "佐野",
    "total_distance_km": 107.5,
    "latitude": 35.155691193826065,
    "longitude": 138.99534723008787,
    "is_shadow_confederation": false
  },
  {
    "rank": 14,
    "team_name": "山梨学院大学",
    "team_short_name": "山学",
    "runner_name": "長野",
    "total_distance_km": 102.8,
    "latitude": 35.178837542278906,
    "longitude": 139.01361681948592,
    "is_shadow_confederation": false
  },
  {
    "rank": 15,
    "team_name": "日本大学",
    "team_short_name": "日大",
    "runner_name": "大子",
    "total_distance_km": 102.5,
    "latitude": 35.18149570755199,
    "longitude": 139.0139514472294,
    "is_shadow_confederation": false
  },
  {
    "rank": 16,
    "team_name": "福島大学",
    "team_short_name": "福島",
    "runner_name": "梁川",
    "total_distance_km": 96.5,
    "latitude": 35.208835023312545,
    "longitude": 139.05894980865588,
    "is_shadow_confederation": false
  },
  {
    "rank": 17,
    "team_name": "東北大学",
    "team_short_name": "東北",
    "runner_name": "帯広",
    "total_distance_km": 68.0,
    "latitude": 35.30755950606367,
    "longitude": 139.31224843547682,
    "is_shadow_confederation": false
  },
  {
    "rank": 18,
    "team_name": "学連選抜",
    "team_short_name": "学連",
    "runner_name": "美幌",
    "total_distance_km": 64.0,
    "latitude": 35.31597078469359,
    "longitude": 139.3521089217369,
    "is_shadow_confederation": false
  }
]