[
  {
    "rank": 1,
    "team_name": "琉球大学",
    "team_short_name": "琉球",
    "runner_name": "名護",
    "total_distance_km": 392.5,
    "latitude": 34.93451530813792,
    "longitude": 136.59629082478193,
    "is_shadow_confederation": false
  },
  {
    "rank": 2,
    "team_name": "熊本学園大学",
    "team_short_name": "熊学",
    "runner_name": "人吉",
    "total_distance_km": 353.6,
    "latitude": 35.12429304466674,
    "longitude": 136.8817066362339,
    "is_shadow_confederation": false
  },
  {
    "rank": 3,
    "team_name": "鹿児島大学",
    "team_short_name": "鹿大",
    "runner_name": "西米良",
    "total_distance_km": 341.1,
    "latitude": 35.06129035227523,
    "longitude": 136.97992823700653,
    "is_shadow_confederation": false
  },
  {
    "rank": 4,
    "team_name": "福岡大学",
    "team_short_name": "福岡",
    "runner_name": "朝倉",
    "total_distance_km": 338.1,
    "latitude": 35.04595409873518,
    "longitude": 137.00530422917743,
    "is_shadow_confederation": false
  },
  {
    "rank": 5,
    "team_name": "四国大学",
    "team_short_name": "四国",
    "runner_name": "御荘",
    "total_distance_km": 326.5,
    "latitude": 34.98097850401257,
    "longitude": 137.10201772252276,
    "is_shadow_confederation": false
  },
  {
    "rank": 6,
    "team_name": "広島経済大学",
    "team_short_name": "広経",
    "runner_name": "府中（広島）",
    "total_distance_km": 309.0,
    "latitude": 34.895374949890055,
    "longitude": 137.2528263052253,
    "is_shadow_confederation": false
  },
  {
    "rank": 7,
    "team_name": "鳥取大学",
    "team_short_name": "鳥取",
    "runner_name": "広瀬",
    "total_distance_km": 299.4,
    "latitude": 34.83788010824812,
    "longitude": 137.32643062180838,
    "is_shadow_confederation": false
  },
  {
    "rank": 8,
    "team_name": "立命館大学",
    "team_short_name": "立命",
    "runner_name": "京田辺",
    "total_distance_km": 297.7,
    "latitude": 34.82708551954699,
    "longitude": 137.33865564338925,
    "is_shadow_confederation": false
  },
  {
    "rank": 9,
    "team_name": "関西大学",
    "team_short_name": "関大",
    "runner_name": "上郡",
    "total_distance_km": 295.6,
    "latitude": 34.81278168160263,
    "longitude": 137.35358964614306,
    "is_shadow_confederation": false
  },
  {
    "rank": 10,
    "team_name": "名古屋大学",
    "team_short_name": "名大",
    "runner_name": "大垣",
    "total_distance_km": 295.2,
    "latitude": 34.80999760080278,
    "longitude": 137.3563666913941,
    "is_shadow_confederation": false
  },
  {
    "rank": 11,
    "team_name": "三重大学",
    "team_short_name": "三重",
    "runner_name": "小俣",
    "total_distance_km": 291.7,
    "latitude": 34.784706904421775,
    "longitude": 137.3792007213811,
    "is_shadow_confederation": false
  },
  {
    "rank": 12,
    "team_name": "金沢大学",
    "team_short_name": "金沢",
    "runner_name": "七尾",
    "total_distance_km": 279.1,
    "latitude": 34.714503671062026,
    "longitude": 137.46960012155282,
    "is_shadow_confederation": false
  },
  {
    "rank": 13,
    "team_name": "上武大学",
    "team_short_name": "上武",
    "runner_name": "熊谷",
    "total_distance_km": 269.4,
    "latitude": 34.684528946936595,
    "longitude": 137.54938742829913,
    "is_shadow_confederation": false
  },
  {
    "rank": 14,
    "team_name": "日本大学",
    "team_short_name": "日大",
    "runner_name": "下館",
    "total_distance_km": 266.3,
    "latitude": 34.69403464475363,
    "longitude": 137.5789500894621,
    "is_shadow_confederation": false
  },
  {
    "rank": 15,
    "team_name": "山梨学院大学",
    "team_short_name": "山学",
    "runner_name": "大月",
    "total_distance_km": 248.4,
    "latitude": 34.71066336740722,
    "longitude": 137.75387777449401,
    "is_shadow_confederation": false
  },
  {
    "rank": 16,
    "team_name": "福島大学",
    "team_short_name": "福島",
    "runner_name": "津川",
    "total_distance_km": 241.9,
    "latitude": 34.7263126777314,
    "longitude": 137.81645650582422,
    "is_shadow_confederation": false
  },
  {
    "rank": 17,
    "team_name": "東北大学",
    "team_short_name": "東北",
    "runner_name": "山形（山形）",
    "total_distance_km": 194.2,
    "latitude": 34.88343514663271,
    "longitude": 138.24473517951103,
    "is_shadow_confederation": false
  },
  {
    "rank": 18,
    "team_name": "学連選抜",
    "team_short_name": "学連",
    "runner_name": "新潟",
    "total_distance_km": 191.9,
    "latitude": 34.893029620781384,
    "longitude": 138.26676604723698,
    "is_shadow_confederation": false
  }
]