[
  {
    "rank": 1,
    "team_name": "琉球大学",
    "team_short_name": "琉球",
    "runner_name": "北原",
    "total_distance_km": 39.8,
    "latitude": 35.419611713199295,
    "longitude": 139.549848947978,
    "is_shadow_confederation": false
  },
  {
    "rank": 2,
    "team_name": "鹿児島大学",
    "team_short_name": "鹿大",
    "runner_name": "東市来",
    "total_distance_km": 24.2,
    "latitude": 35.495854263892134,
    "longitude": 139.66982800017627,
    "is_shadow_confederation": false
  },
  {
    "rank": 3,
    "team_name": "熊本学園大学",
    "team_short_name": "熊学",
    "runner_name": "甲佐",
    "total_distance_km": 19.6,
    "latitude": 35.52684273941702,
    "longitude": 139.7023045785667,
    "is_shadow_confederation": false
  },
  {
    "rank": 4,
    "team_name": "福岡大学",
    "team_short_name": "福岡",
    "runner_name": "久留米",
    "total_distance_km": 19.0,
    "latitude": 35.531459049177975,
    "longitude": 139.70575044318488,
    "is_shadow_confederation": false
  },
  {
    "rank": 5,
    "team_name": "上武大学",
    "team_short_name": "上武",
    "runner_name": "佐野",
    "total_distance_km": 17.3,
    "latitude": 35.54539519602522,
    "longitude": 139.7126479869863,
    "is_shadow_confederation": false
  },
  {
    "rank": 6,
    "team_name": "三重大学",
    "team_short_name": "三重",
    "runner_name": "粥見",
    "total_distance_km": 16.5,
    "latitude": 35.55154546015837,
    "longitude": 139.7172531458238,
    "is_shadow_confederation": false
  },
  {
    "rank": 7,
    "team_name": "四国大学",
    "team_short_name": "四国",
    "runner_name": "穴吹",
    "total_distance_km": 15.4,
    "latitude": 35.5600036692039,
    "longitude": 139.72358234673928,
    "is_shadow_confederation": false
  },
  {
    "rank": 8,
    "team_name": "関西大学",
    "team_short_name": "関大",
    "runner_name": "福崎",
    "total_distance_km": 13.6,
    "latitude": 35.57396797626799,
    "longitude": 139.7336017931206,
    "is_shadow_confederation": false
  },
  {
    "rank": 9,
    "team_name": "福島大学",
    "team_short_name": "福島",
    "runner_name": "梁川",
    "total_distance_km": 13.4,
    "latitude": 35.5757013669591,
    "longitude": 139.73420730420415,
    "is_shadow_confederation": false
  },
  {
    "rank": 10,
    "team_name": "名古屋大学",
    "team_short_name": "名大",
    "runner_name": "美濃加茂",
    "total_distance_km": 12.4,
    "latitude": 35.58444328249665,
    "longitude": 139.73615636803964,
    "is_shadow_confederation": false
  },
  {
    "rank": 11,
    "team_name": "立命館大学",
    "team_short_name": "立命",
    "runner_name": "東近江",
    "total_distance_km": 11.7,
    "latitude": 35.590729243659,
    "longitude": 139.73602568918113,
    "is_shadow_confederation": false
  },
  {
    "rank": 12,
    "team_name": "日本大学",
    "team_short_name": "日大",
    "runner_name": "大子",
    "total_distance_km": 11.4,
    "latitude": 35.59342823238912,
    "longitude": 139.73622482660178,
    "is_shadow_confederation": false
  },
  {
    "rank": 13,
    "team_name": "金沢大学",
    "team_short_name": "金沢",
    "runner_name": "秋ヶ島",
    "total_distance_km": 11.3,
    "latitude": 35.59432604129249,
    "longitude": 139.73630187982488,
    "is_shadow_confederation": false
  },
  {
    "rank": 14,
    "team_name": "鳥取大学",
    "team_short_name": "鳥取",
    "runner_name": "川本",
    "total_distance_km": 9.4,
    "latitude": 35.610089199478566,
    "longitude": 139.74231888956052,
    "is_shadow_confederation": false
  },
  {
    "rank": 15,
    "team_name": "広島経済大学",
    "team_short_name": "広経",
    "runner_name": "三次",
    "total_distance_km": 9.0,
    "latitude": 35.61361504016212,
    "longitude": 139.74139786092647,
    "is_shadow_confederation": false
  },
  {
    "rank": 16,
    "team_name": "山梨学院大学",
    "team_short_name": "山学",
    "runner_name": "長野",
    "total_distance_km": 5.5,
    "latitude": 35.64383907809551,
    "longitude": 139.74293274641408,
    "is_shadow_confederation": false
  },
  {
    "rank": 17,
    "team_name": "東北大学",
    "team_short_name": "東北",
    "runner_name": "帯広",
    "total_distance_km": 4.1,
    "latitude": 35.65601530400378,
    "longitude": 139.7459042548123,
    "is_shadow_confederation": false
  },
  {
    "rank": 18,
    "team_name": "学連選抜",
    "team_short_name": "学連",
    "runner_name": "美幌",
    "total_distance_km": -1.5,
    "latitude": 35.689441,
    "longitude": 139.760987,
    "is_shadow_confederation": false
  }
]