[
  {
    "rank": 1,
    "team_name": "琉球大学",
    "team_short_name": "琉球",
    "runner_name": "名護",
    "total_distance_km": 394.1,
    "latitude": 34.92415361278177,
    "longitude": 136.58518986199076,
    "is_shadow_confederation": false
  },
  {
    "rank": 2,
    "team_name": "熊本学園大学",
    "team_short_name": "熊学",
    "runner_name": "人吉",
    "total_distance_km": 357.5,
    "latitude": 35.124181148783585,
    "longitude": 136.83911133518788,
    "is_shadow_confederation": false
  },
  {
    "rank": 3,
    "team_name": "鹿児島大学",
    "team_short_name": "鹿大",
    "runner_name": "西米良",
    "total_distance_km": 344.7,
    "latitude": 35.07775692761202,
    "longitude": 136.9463011908341,
    "is_shadow_confederation": false
  },
  {
    "rank": 4,
    "team_name": "福岡大学",
    "team_short_name": "福岡",
    "runner_name": "朝倉",
    "total_distance_km": 339.2,
    "latitude": 35.0534885472943,
    "longitude": 136.99750982074,
    "is_shadow_confederation": false
  },
  {
    "rank": 5,
    "team_name": "四国大学",
    "team_short_name": "四国",
    "runner_name": "御荘",
    "total_distance_km": 327.0,
    "latitude": 34.98292012672026,
    "longitude": 137.09707588159068,
    "is_shadow_confederation": false
  },
  {
    "rank": 6,
    "team_name": "広島経済大学",
    "team_short_name": "広経",
    "runner_name": "府中（広島）",
    "total_distance_km": 313.0,
    "latitude": 34.91475649292891,
    "longitude": 137.2176097118486,
    "is_shadow_confederation": false
  },
  {
    "rank": 7,
    "team_name": "鳥取大学",
    "team_short_name": "鳥取",
    "runner_name": "広瀬",
    "total_distance_km": 299.7,
    "latitude": 34.84023919881206,
    "longitude": 137.32482896219048,
    "is_shadow_confederation": false
  },
  {
    "rank": 8,
    "team_name": "立命館大学",
    "team_short_name": "立命",
    "runner_name": "京田辺",
    "total_distance_km": 298.9,
    "latitude": 34.83389264983619,
    "longitude": 137.32897856999742,
    "is_shadow_confederation": false
  },
  {
    "rank": 9,
    "team_name": "関西大学",
    "team_short_name": "関大",
    "runner_name": "上郡",
    "total_distance_km": 297.0,
    "latitude": 34.82249267345358,
    "longitude": 137.34381701601612,
    "is_shadow_confederation": false
  },
  {
    "rank": 10,
    "team_name": "名古屋大学",
    "team_short_name": "名大",
    "runner_name": "大垣",
    "total_distance_km": 296.6,
    "latitude": 34.819718104353306,
    "longitude": 137.34660919605238,
    "is_shadow_confederation": false
  },
  {
    "rank": 11,
    "team_name": "三重大学",
    "team_short_name": "三重",
    "runner_name": "小俣",
    "total_distance_km": 292.2,
    "latitude": 34.788233025404836,
    "longitude": 137.3757982242555,
    "is_shadow_confederation": false
  },
  {
    "rank": 12,
    "team_name": "金沢大学",
    "team_short_name": "金沢",
    "runner_name": "七尾",
    "total_distance_km": 280.5,
    "latitude": 34.72057675168403,
    "longitude": 137.45678051452418,
    "is_shadow_confederation": false
  },
  {
    "rank": 13,
    "team_name": "上武大学",
    "team_short_name": "上武",
    "runner_name": "熊谷",
    "total_distance_km": 269.7,
    "latitude": 34.68356369068301,
    "longitude": 137.54632934066163,
    "is_shadow_confederation": false
  },
  {
    "rank": 14,
    "team_name": "日本大学",
    "team_short_name": "日大",
    "runner_name": "下館",
    "total_distance_km": 267.6,
    "latitude": 34.6927991525139,
    "longitude": 137.5652688493356,
    "is_shadow_confederation": false
  },
  {
    "rank": 15,
    "team_name": "山梨学院大学",
    "team_short_name": "山学",
    "runner_name": "大月",
    "total_distance_km": 249.7,
    "latitude": 34.708052,
    "longitude": 137.7402368934795,
    "is_shadow_confederation": false
  },
  {
    "rank": 16,
    "team_name": "福島大学",
    "team_short_name": "福島",
    "runner_name": "津川",
    "total_distance_km": 247.4,
    "latitude": 34.714976017152296,
    "longitude": 137.7634635975569,
    "is_shadow_confederation": false
  },
  {
    "rank": 17,
    "team_name": "東北大学",
    "team_short_name": "東北",
    "runner_name": "山形（山形）",
    "total_distance_km": 197.8,
    "latitude": 34.86626982966878,
    "longitude": 138.21330014431112,
    "is_shadow_confederation": false
  },
  {
    "rank": 18,
    "team_name": "学連選抜",
    "team_short_name": "学連",
    "runner_name": "新潟",
    "total_distance_km": 195.6,
    "latitude": 34.876265943652136,
    "longitude": 138.23264673437285,
    "is_shadow_confederation": false
  }
]