[
  {
    "rank": 1,
    "team_name": "琉球大学",
    "team_short_name": "琉球",
    "runner_name": "久米島",
    "total_distance_km": 660.6,
    "latitude": 34.84306528598496,
    "longitude": 134.32907791912203,
    "is_shadow_confederation": false
  },
  {
    "rank": 2,
    "team_name": "鹿児島大学",
    "team_short_name": "鹿大",
    "runner_name": "西都",
    "total_distance_km": 526.1,
    "latitude": 34.74554340738999,
    "longitude": 135.57299965868523,
    "is_shadow_confederation": false
  },
  {
    "rank": 3,
    "team_name": "熊本学園大学",
    "team_short_name": "熊学",
    "runner_name": "熊本",
    "total_distance_km": 513.1,
    "latitude": 34.81924645462983,
    "longitude": 135.67536597926087,
    "is_shadow_confederation": false
  },
  {
    "rank": 4,
    "team_name": "福岡大学",
    "team_short_name": "福岡",
    "runner_name": "前原",
    "total_distance_km": 489.6,
    "latitude": 34.99590074136467,
    "longitude": 135.76185582610873,
    "is_shadow_confederation": false
  },
  {
    "rank": 5,
    "team_name": "名古屋大学",
    "team_short_name": "名大",
    "runner_name": "多治見",
    "total_distance_km": 449.2,
    "latitude": 34.98510471008319,
    "longitude": 136.11433153210405,
    "is_shadow_confederation": false
  },
  {
    "rank": 6,
    "team_name": "四国大学",
    "team_short_name": "四国",
    "runner_name": "大洲",
    "total_distance_km": 446.6,
    "latitude": 34.98352721186496,
    "longitude": 136.14115122692743,
    "is_shadow_confederation": false
  },
  {
    "rank": 7,
    "team_name": "上武大学",
    "team_short_name": "上武",
    "runner_name": "桐生",
    "total_distance_km": 440.7,
    "latitude": 34.95856652259269,
    "longitude": 136.19676133172524,
    "is_shadow_confederation": false
  },
  {
    "rank": 8,
    "team_name": "日本大学",
    "team_short_name": "日大",
    "runner_name": "牛久",
    "total_distance_km": 437.8,
    "latitude": 34.95191082707257,
    "longitude": 136.22695478873462,
    "is_shadow_confederation": false
  },
  {
    "rank": 9,
    "team_name": "広島経済大学",
    "team_short_name": "広経",
    "runner_name": "高梁",
    "total_distance_km": 433.3,
    "latitude": 34.93812848565325,
    "longitude": 136.27195301254085,
    "is_shadow_confederation": false
  },
  {
    "rank": 10,
    "team_name": "鳥取大学",
    "team_short_name": "鳥取",
    "runner_name": "境",
    "total_distance_km": 432.5,
    "latitude": 34.937375829104695,
    "longitude": 136.28042146852607,
    "is_shadow_confederation": false
  },
  {
    "rank": 11,
    "team_name": "三重大学",
    "team_short_name": "三重",
    "runner_name": "奈良",
    "total_distance_km": 428.7,
    "latitude": 34.91894823137184,
    "longitude": 136.3143161218101,
    "is_shadow_confederation": false
  },
  {
    "rank": 12,
    "team_name": "関西大学",
    "team_short_name": "関大",
    "runner_name": "枚方",
    "total_distance_km": 423.7,
    "latitude": 34.88985686036022,
    "longitude": 136.3422061883467,
    "is_shadow_confederation": false
  },
  {
    "rank": 13,
    "team_name": "立命館大学",
    "team_short_name": "立命",
    "runner_name": "米原",
    "total_distance_km": 401.6,
    "latitude": 34.886725370039876,
    "longitude": 136.5289845056185,
    "is_shadow_confederation": false
  },
  {
    "rank": 14,
    "team_name": "山梨学院大学",
    "team_short_name": "山学",
    "runner_name": "浜松",
    "total_distance_km": 390.7,
    "latitude": 34.94790384045427,
    "longitude": 136.6066960337723,
    "is_shadow_confederation": false
  },
  {
    "rank": 15,
    "team_name": "福島大学",
    "team_short_name": "福島",
    "runner_name": "長岡",
    "total_distance_km": 372.0,
    "latitude": 35.0862455555224,
    "longitude": 136.70031489118279,
    "is_shadow_confederation": false
  },
  {
    "rank": 16,
    "team_name": "金沢大学",
    "team_short_name": "金沢",
    "runner_name": "志賀",
    "total_distance_km": 345.4,
    "latitude": 35.08077757340767,
    "longitude": 136.93957850089,
    "is_shadow_confederation": false
  },
  {
    "rank": 17,
    "team_name": "東北大学",
    "team_short_name": "東北",
    "runner_name": "高畠",
    "total_distance_km": 296.1,
    "latitude": 34.81624989297797,
    "longitude": 137.35009942109772,
    "is_shadow_confederation": false
  },
  {
    "rank": 18,
    "team_name": "学連選抜",
    "team_short_name": "学連",
    "runner_name": "新潟",
    "total_distance_km": 192.0,
    "latitude": 34.89285421669274,
    "longitude": 138.26569294852592,
    "is_shadow_confederation": false
  },
  {
    "rank": null,
    "team_name": "区間記録連合",
    "team_short_name": "区間記録",
    "runner_name": "勝沼",
    "total_distance_km": 660.6,
    "latitude": 34.84306528598496,
    "longitude": 134.32907791912203,
    "is_shadow_confederation": true
  }
]