[
  {
    "rank": 1,
    "team_name": "琉球大学",
    "team_short_name": "琉球",
    "runner_name": "波照間",
    "total_distance_km": 481.4,
    "latitude": 34.98965154860577,
    "longitude": 135.82507231990252,
    "is_shadow_confederation": false
  },
  {
    "rank": 2,
    "team_name": "鹿児島大学",
    "team_short_name": "鹿大",
    "runner_name": "西米良",
    "total_distance_km": 362.6,
    "latitude": 35.124369849037436,
    "longitude": 136.7837538947805,
    "is_shadow_confederation": false
  },
  {
    "rank": 3,
    "team_name": "熊本学園大学",
    "team_short_name": "熊学",
    "runner_name": "人吉",
    "total_distance_km": 355.9,
    "latitude": 35.12425471388855,
    "longitude": 136.85666135156336,
    "is_shadow_confederation": false
  },
  {
    "rank": 4,
    "team_name": "福岡大学",
    "team_short_name": "福岡",
    "runner_name": "朝倉",
    "total_distance_km": 335.4,
    "latitude": 35.026656765780814,
    "longitude": 137.02325310221704,
    "is_shadow_confederation": false
  },
  {
    "rank": 5,
    "team_name": "名古屋大学",
    "team_short_name": "名大",
    "runner_name": "大垣",
    "total_distance_km": 311.9,
    "latitude": 34.91031729713872,
    "longitude": 137.22837310345568,
    "is_shadow_confederation": false
  },
  {
    "rank": 6,
    "team_name": "四国大学",
    "team_short_name": "四国",
    "runner_name": "御荘",
    "total_distance_km": 308.5,
    "latitude": 34.89382912847454,
    "longitude": 137.25792524547853,
    "is_shadow_confederation": false
  },
  {
    "rank": 7,
    "team_name": "日本大学",
    "team_short_name": "日大",
    "runner_name": "下館",
    "total_distance_km": 300.4,
    "latitude": 34.84568189158733,
    "longitude": 137.32095671084252,
    "is_shadow_confederation": false
  },
  {
    "rank": 8,
    "team_name": "上武大学",
    "team_short_name": "上武",
    "runner_name": "熊谷",
    "total_distance_km": 299.6,
    "latitude": 34.83946167127274,
    "longitude": 137.32538214095447,
    "is_shadow_confederation": false
  },
  {
    "rank": 9,
    "team_name": "三重大学",
    "team_short_name": "三重",
    "runner_name": "小俣",
    "total_distance_km": 297.8,
    "latitude": 34.82755373255961,
    "longitude": 137.33772151970786,
    "is_shadow_confederation": false
  },
  {
    "rank": 10,
    "team_name": "広島経済大学",
    "team_short_name": "広経",
    "runner_name": "府中（広島）",
    "total_distance_km": 288.0,
    "latitude": 34.762368911593754,
    "longitude": 137.404579971569,
    "is_shadow_confederation": false
  },
  {
    "rank": 11,
    "team_name": "鳥取大学",
    "team_short_name": "鳥取",
    "runner_name": "広瀬",
    "total_distance_km": 282.5,
    "latitude": 34.72364977877952,
    "longitude": 137.43567358399403,
    "is_shadow_confederation": false
  },
  {
    "rank": 12,
    "team_name": "関西大学",
    "team_short_name": "関大",
    "runner_name": "上郡",
    "total_distance_km": 278.0,
    "latitude": 34.707403829878395,
    "longitude": 137.47786521588395,
    "is_shadow_confederation": false
  },
  {
    "rank": 13,
    "team_name": "立命館大学",
    "team_short_name": "立命",
    "runner_name": "京田辺",
    "total_distance_km": 269.7,
    "latitude": 34.68356369068301,
    "longitude": 137.54632934066163,
    "is_shadow_confederation": false
  },
  {
    "rank": 14,
    "team_name": "福島大学",
    "team_short_name": "福島",
    "runner_name": "津川",
    "total_distance_km": 250.2,
    "latitude": 34.708052,
    "longitude": 137.73477904666998,
    "is_shadow_confederation": false
  },
  {
    "rank": 15,
    "team_name": "山梨学院大学",
    "team_short_name": "山学",
    "runner_name": "大月",
    "total_distance_km": 247.9,
    "latitude": 34.71280803144854,
    "longitude": 137.75867834477015,
    "is_shadow_confederation": false
  },
  {
    "rank": 16,
    "team_name": "金沢大学",
    "team_short_name": "金沢",
    "runner_name": "七尾",
    "total_distance_km": 228.4,
    "latitude": 34.76148631129708,
    "longitude": 137.95159838737302,
    "is_shadow_confederation": false
  },
  {
    "rank": 17,
    "team_name": "東北大学",
    "team_short_name": "東北",
    "runner_name": "山形（山形）",
    "total_distance_km": 174.9,
    "latitude": 34.97723982911397,
    "longitude": 138.39849631080227,
    "is_shadow_confederation": false
  },
  {
    "rank": 18,
    "team_name": "学連選抜",
    "team_short_name": "学連",
    "runner_name": "美幌",
    "total_distance_km": 85.7,
    "latitude": 35.24646084918023,
    "longitude": 139.14186749438684,
    "is_shadow_confederation": false
  },
  {
    "rank": null,
    "team_name": "区間記録連合",
    "team_short_name": "区間記録",
    "runner_name": "桐生",
    "total_distance_km": 525.8,
    "latitude": 34.747395024227814,
    "longitude": 135.57538732139972,
    "is_shadow_confederation": true
  }
]