[
  {
    "rank": 1,
    "team_name": "琉球大学",
    "team_short_name": "琉球",
    "runner_name": "波照間",
    "total_distance_km": 474.4,
    "latitude": 34.991320526197406,
    "longitude": 135.88605899317548,
    "is_shadow_confederation": false
  },
  {
    "rank": 2,
    "team_name": "熊本学園大学",
    "team_short_name": "熊学",
    "runner_name": "熊本",
    "total_distance_km": 425.7,
    "latitude": 34.899910733308346,
    "longitude": 136.33530368195463,
    "is_shadow_confederation": false
  },
  {
    "rank": 3,
    "team_name": "鹿児島大学",
    "team_short_name": "鹿大",
    "runner_name": "西米良",
    "total_distance_km": 406.7,
    "latitude": 34.86343891650059,
    "longitude": 136.48722831683608,
    "is_shadow_confederation": false
  },
  {
    "rank": 4,
    "team_name": "福岡大学",
    "team_short_name": "福岡",
    "runner_name": "朝倉",
    "total_distance_km": 401.9,
    "latitude": 34.884471044672686,
    "longitude": 136.52718221028803,
    "is_shadow_confederation": false
  },
  {
    "rank": 5,
    "team_name": "四国大学",
    "team_short_name": "四国",
    "runner_name": "松山",
    "total_distance_km": 387.9,
    "latitude": 34.96838137928993,
    "longitude": 136.6236111541164,
    "is_shadow_confederation": false
  },
  {
    "rank": 6,
    "team_name": "広島経済大学",
    "team_short_name": "広経",
    "runner_name": "大竹",
    "total_distance_km": 377.0,
    "latitude": 35.04916533277971,
    "longitude": 136.6797415153519,
    "is_shadow_confederation": false
  },
  {
    "rank": 7,
    "team_name": "鳥取大学",
    "team_short_name": "鳥取",
    "runner_name": "防府",
    "total_distance_km": 360.3,
    "latitude": 35.12613996299076,
    "longitude": 136.8088952283854,
    "is_shadow_confederation": false
  },
  {
    "rank": 8,
    "team_name": "関西大学",
    "team_short_name": "関大",
    "runner_name": "柏原",
    "total_distance_km": 357.2,
    "latitude": 35.124176020257465,
    "longitude": 136.84240260567694,
    "is_shadow_confederation": false
  },
  {
    "rank": 9,
    "team_name": "名古屋大学",
    "team_short_name": "名大",
    "runner_name": "愛西",
    "total_distance_km": 356.9,
    "latitude": 35.124170891731346,
    "longitude": 136.84569387616597,
    "is_shadow_confederation": false
  },
  {
    "rank": 10,
    "team_name": "立命館大学",
    "team_short_name": "立命",
    "runner_name": "米原",
    "total_distance_km": 353.6,
    "latitude": 35.12429304466674,
    "longitude": 136.8817066362339,
    "is_shadow_confederation": false
  },
  {
    "rank": 11,
    "team_name": "三重大学",
    "team_short_name": "三重",
    "runner_name": "風屋",
    "total_distance_km": 348.2,
    "latitude": 35.102496236131444,
    "longitude": 136.9248138860674,
    "is_shadow_confederation": false
  },
  {
    "rank": 12,
    "team_name": "金沢大学",
    "team_short_name": "金沢",
    "runner_name": "志賀",
    "total_distance_km": 333.4,
    "latitude": 35.01458900407709,
    "longitude": 137.03936918855987,
    "is_shadow_confederation": false
  },
  {
    "rank": 13,
    "team_name": "上武大学",
    "team_short_name": "上武",
    "runner_name": "寄居",
    "total_distance_km": 328.2,
    "latitude": 34.988180315449554,
    "longitude": 137.08566822567957,
    "is_shadow_confederation": false
  },
  {
    "rank": 14,
    "team_name": "日本大学",
    "team_short_name": "日大",
    "runner_name": "下館",
    "total_distance_km": 327.5,
    "latitude": 34.98486174942796,
    "longitude": 137.09213404065858,
    "is_shadow_confederation": false
  },
  {
    "rank": 15,
    "team_name": "山梨学院大学",
    "team_short_name": "山学",
    "runner_name": "大月",
    "total_distance_km": 303.9,
    "latitude": 34.86737950943967,
    "longitude": 137.29439380796387,
    "is_shadow_confederation": false
  },
  {
    "rank": 16,
    "team_name": "福島大学",
    "team_short_name": "福島",
    "runner_name": "津川",
    "total_distance_km": 292.2,
    "latitude": 34.788233025404836,
    "longitude": 137.3757982242555,
    "is_shadow_confederation": false
  },
  {
    "rank": 17,
    "team_name": "学連選抜",
    "team_short_name": "学連",
    "runner_name": "大村",
    "total_distance_km": 251.8,
    "latitude": 34.70014078220614,
    "longitude": 137.72705653921898,
    "is_shadow_confederation": false
  },
  {
    "rank": 18,
    "team_name": "東北大学",
    "team_short_name": "東北",
    "runner_name": "高畠",
    "total_distance_km": 242.5,
    "latitude": 34.728043297297816,
    "longitude": 137.8102502835663,
    "is_shadow_confederation": false
  }
]