[
  {
    "rank": 1,
    "team_name": "琉球大学",
    "team_short_name": "琉球",
    "runner_name": "那覇",
    "total_distance_km": 750.1,
    "latitude": 34.500428435058616,
    "longitude": 133.50953484865295,
    "is_shadow_confederation": false
  },
  {
    "rank": 2,
    "team_name": "熊本学園大学",
    "team_short_name": "熊学",
    "runner_name": "犬飼",
    "total_distance_km": 701.6,
    "latitude": 34.673386903808215,
    "longitude": 133.96212878024073,
    "is_shadow_confederation": false
  },
  {
    "rank": 3,
    "team_name": "福岡大学",
    "team_short_name": "福岡",
    "runner_name": "口之津",
    "total_distance_km": 688.0,
    "latitude": 34.7137306744777,
    "longitude": 134.09588557510673,
    "is_shadow_confederation": false
  },
  {
    "rank": 4,
    "team_name": "鹿児島大学",
    "team_short_name": "鹿大",
    "runner_name": "鹿児島",
    "total_distance_km": 685.0,
    "latitude": 34.728904290765456,
    "longitude": 134.120506473472,
    "is_shadow_confederation": false
  },
  {
    "rank": 5,
    "team_name": "名古屋大学",
    "team_short_name": "名大",
    "runner_name": "名古屋",
    "total_distance_km": 682.0,
    "latitude": 34.73775928320468,
    "longitude": 134.15134575965783,
    "is_shadow_confederation": false
  },
  {
    "rank": 6,
    "team_name": "関西大学",
    "team_short_name": "関大",
    "runner_name": "八尾（大阪）",
    "total_distance_km": 679.5,
    "latitude": 34.74338273166444,
    "longitude": 134.17766884489745,
    "is_shadow_confederation": false
  },
  {
    "rank": 7,
    "team_name": "立命館大学",
    "team_short_name": "立命",
    "runner_name": "長浜（滋賀）",
    "total_distance_km": 675.1,
    "latitude": 34.75977454745154,
    "longitude": 134.22108598958056,
    "is_shadow_confederation": false
  },
  {
    "rank": 8,
    "team_name": "四国大学",
    "team_short_name": "四国",
    "runner_name": "新居浜",
    "total_distance_km": 674.8,
    "latitude": 34.7619154111138,
    "longitude": 134.2230432309516,
    "is_shadow_confederation": false
  },
  {
    "rank": 9,
    "team_name": "鳥取大学",
    "team_short_name": "鳥取",
    "runner_name": "米子",
    "total_distance_km": 674.6,
    "latitude": 34.763454226710955,
    "longitude": 134.2241814121796,
    "is_shadow_confederation": false
  },
  {
    "rank": 10,
    "team_name": "広島経済大学",
    "team_short_name": "広経",
    "runner_name": "福山",
    "total_distance_km": 674.3,
    "latitude": 34.765669887312896,
    "longitude": 134.22604083267103,
    "is_shadow_confederation": false
  },
  {
    "rank": 11,
    "team_name": "山梨学院大学",
    "team_short_name": "山学",
    "runner_name": "静岡",
    "total_distance_km": 663.4,
    "latitude": 34.830088222121184,
    "longitude": 134.30902917636317,
    "is_shadow_confederation": false
  },
  {
    "rank": 12,
    "team_name": "上武大学",
    "team_short_name": "上武",
    "runner_name": "伊勢崎",
    "total_distance_km": 662.2,
    "latitude": 34.83750743309463,
    "longitude": 134.31595381282375,
    "is_shadow_confederation": false
  },
  {
    "rank": 13,
    "team_name": "三重大学",
    "team_short_name": "三重",
    "runner_name": "新宮",
    "total_distance_km": 658.6,
    "latitude": 34.83504458526409,
    "longitude": 134.3476640085506,
    "is_shadow_confederation": false
  },
  {
    "rank": 14,
    "team_name": "金沢大学",
    "team_short_name": "金沢",
    "runner_name": "富山",
    "total_distance_km": 654.5,
    "latitude": 34.8286267213337,
    "longitude": 134.38862868358024,
    "is_shadow_confederation": false
  },
  {
    "rank": 15,
    "team_name": "日本大学",
    "team_short_name": "日大",
    "runner_name": "八王子",
    "total_distance_km": 632.2,
    "latitude": 34.831110691633825,
    "longitude": 134.61968778056323,
    "is_shadow_confederation": false
  },
  {
    "rank": 16,
    "team_name": "学連選抜",
    "team_short_name": "学連",
    "runner_name": "多度津",
    "total_distance_km": 604.9,
    "latitude": 34.74430642148887,
    "longitude": 134.8653863169822,
    "is_shadow_confederation": false
  },
  {
    "rank": 17,
    "team_name": "福島大学",
    "team_short_name": "福島",
    "runner_name": "浪江",
    "total_distance_km": 596.7,
    "latitude": 34.69114464554085,
    "longitude": 134.92567861988272,
    "is_shadow_confederation": false
  },
  {
    "rank": 18,
    "team_name": "東北大学",
    "team_short_name": "東北",
    "runner_name": "丸森",
    "total_distance_km": 588.7,
    "latitude": 34.647537140259345,
    "longitude": 134.99192696826395,
    "is_shadow_confederation": false
  }
]