[
  {
    "rank": 1,
    "team_name": "名古屋大学",
    "team_short_name": "名大",
    "runner_name": "豊田（愛知）",
    "total_distance_km": 579.0,
    "latitude": 34.634549593224335,
    "longitude": 135.08927126196627,
    "is_shadow_confederation": false
  },
  {
    "rank": 2,
    "team_name": "四国大学",
    "team_short_name": "四国",
    "runner_name": "徳島",
    "total_distance_km": 572.2,
    "latitude": 34.66664384790478,
    "longitude": 135.15058562726244,
    "is_shadow_confederation": false
  },
  {
    "rank": 3,
    "team_name": "熊本学園大学",
    "team_short_name": "熊学",
    "runner_name": "大分",
    "total_distance_km": 569.8,
    "latitude": 34.67795186490616,
    "longitude": 135.17225547652066,
    "is_shadow_confederation": false
  },
  {
    "rank": 4,
    "team_name": "福岡大学",
    "team_short_name": "福岡",
    "runner_name": "博多",
    "total_distance_km": 567.3,
    "latitude": 34.692314725267316,
    "longitude": 135.192458093852,
    "is_shadow_confederation": false
  },
  {
    "rank": 5,
    "team_name": "琉球大学",
    "team_short_name": "琉球",
    "runner_name": "久米島",
    "total_distance_km": 566.9,
    "latitude": 34.693972268955534,
    "longitude": 135.19633289548418,
    "is_shadow_confederation": false
  },
  {
    "rank": 6,
    "team_name": "立命館大学",
    "team_short_name": "立命",
    "runner_name": "彦根",
    "total_distance_km": 565.8,
    "latitude": 34.69850929729552,
    "longitude": 135.20700731899763,
    "is_shadow_confederation": false
  },
  {
    "rank": 7,
    "team_name": "関西大学",
    "team_short_name": "関大",
    "runner_name": "豊中",
    "total_distance_km": 563.0,
    "latitude": 34.709618323326275,
    "longitude": 135.2327465683445,
    "is_shadow_confederation": false
  },
  {
    "rank": 8,
    "team_name": "広島経済大学",
    "team_short_name": "広経",
    "runner_name": "高松（香川）",
    "total_distance_km": 562.2,
    "latitude": 34.712420865509436,
    "longitude": 135.24079311278658,
    "is_shadow_confederation": false
  },
  {
    "rank": 9,
    "team_name": "日本大学",
    "team_short_name": "日大",
    "runner_name": "牛久",
    "total_distance_km": 556.2,
    "latitude": 34.731369052826295,
    "longitude": 135.30193403824882,
    "is_shadow_confederation": false
  },
  {
    "rank": 10,
    "team_name": "三重大学",
    "team_short_name": "三重",
    "runner_name": "新宮",
    "total_distance_km": 556.1,
    "latitude": 34.7316247157587,
    "longitude": 135.30297861428625,
    "is_shadow_confederation": false
  },
  {
    "rank": 11,
    "team_name": "鹿児島大学",
    "team_short_name": "鹿大",
    "runner_name": "笠利",
    "total_distance_km": 554.0,
    "latitude": 34.736581978366104,
    "longitude": 135.32509360465016,
    "is_shadow_confederation": false
  },
  {
    "rank": 11,
    "team_name": "山梨学院大学",
    "team_short_name": "山学",
    "runner_name": "甲府",
    "total_distance_km": 554.0,
    "latitude": 34.736581978366104,
    "longitude": 135.32509360465016,
    "is_shadow_confederation": false
  },
  {
    "rank": 13,
    "team_name": "鳥取大学",
    "team_short_name": "鳥取",
    "runner_name": "境",
    "total_distance_km": 552.8,
    "latitude": 34.73854394051514,
    "longitude": 135.3378525246827,
    "is_shadow_confederation": false
  },
  {
    "rank": 14,
    "team_name": "上武大学",
    "team_short_name": "上武",
    "runner_name": "桐生",
    "total_distance_km": 546.9,
    "latitude": 34.72508389329174,
    "longitude": 135.39977541982773,
    "is_shadow_confederation": false
  },
  {
    "rank": 15,
    "team_name": "金沢大学",
    "team_short_name": "金沢",
    "runner_name": "福井",
    "total_distance_km": 545.1,
    "latitude": 34.72045761656015,
    "longitude": 135.41858880746858,
    "is_shadow_confederation": false
  },
  {
    "rank": 16,
    "team_name": "福島大学",
    "team_short_name": "福島",
    "runner_name": "福島",
    "total_distance_km": 532.4,
    "latitude": 34.70011007876379,
    "longitude": 135.5422916372451,
    "is_shadow_confederation": false
  },
  {
    "rank": 17,
    "team_name": "学連選抜",
    "team_short_name": "学連",
    "runner_name": "久世",
    "total_distance_km": 512.8,
    "latitude": 34.8211679146797,
    "longitude": 135.67767337799245,
    "is_shadow_confederation": false
  },
  {
    "rank": 18,
    "team_name": "東北大学",
    "team_short_name": "東北",
    "runner_name": "一関",
    "total_distance_km": 483.1,
    "latitude": 34.992003285954404,
    "longitude": 135.8075763817124,
    "is_shadow_confederation": false
  },
  {
    "rank": null,
    "team_name": "区間記録連合",
    "team_short_name": "区間記録",
    "runner_name": "勝沼",
    "total_distance_km": 583.7,
    "latitude": 34.629041837430236,
    "longitude": 135.039198324998,
    "is_shadow_confederation": true
  }
]