[
  {
    "rank": 1,
    "team_name": "琉球大学",
    "team_short_name": "琉球",
    "runner_name": "波照間",
    "total_distance_km": 530.2,
    "latitude": 34.71695253115047,
    "longitude": 135.5469251977116,
    "is_shadow_confederation": false
  },
  {
    "rank": 2,
    "team_name": "熊本学園大学",
    "team_short_name": "熊学",
    "runner_name": "熊本",
    "total_distance_km": 467.2,
    "latitude": 34.99943008028616,
    "longitude": 135.94696945501371,
    "is_shadow_confederation": false
  },
  {
    "rank": 3,
    "team_name": "鹿児島大学",
    "team_short_name": "鹿大",
    "runner_name": "西都",
    "total_distance_km": 453.0,
    "latitude": 35.00481038498607,
    "longitude": 136.0804112513448,
    "is_shadow_confederation": false
  },
  {
    "rank": 4,
    "team_name": "福岡大学",
    "team_short_name": "福岡",
    "runner_name": "前原",
    "total_distance_km": 434.5,
    "latitude": 34.93916420490886,
    "longitude": 136.25899192948765,
    "is_shadow_confederation": false
  },
  {
    "rank": 5,
    "team_name": "四国大学",
    "team_short_name": "四国",
    "runner_name": "大洲",
    "total_distance_km": 420.3,
    "latitude": 34.86968340420186,
    "longitude": 136.36419516940828,
    "is_shadow_confederation": false
  },
  {
    "rank": 6,
    "team_name": "広島経済大学",
    "team_short_name": "広経",
    "runner_name": "高梁",
    "total_distance_km": 406.1,
    "latitude": 34.8681145836448,
    "longitude": 136.4904440209181,
    "is_shadow_confederation": false
  },
  {
    "rank": 7,
    "team_name": "鳥取大学",
    "team_short_name": "鳥取",
    "runner_name": "防府",
    "total_distance_km": 395.2,
    "latitude": 34.916714373994054,
    "longitude": 136.577610625053,
    "is_shadow_confederation": false
  },
  {
    "rank": 8,
    "team_name": "名古屋大学",
    "team_short_name": "名大",
    "runner_name": "愛西",
    "total_distance_km": 392.2,
    "latitude": 34.93635142771383,
    "longitude": 136.598195453699,
    "is_shadow_confederation": false
  },
  {
    "rank": 9,
    "team_name": "関西大学",
    "team_short_name": "関大",
    "runner_name": "柏原",
    "total_distance_km": 386.0,
    "latitude": 34.98372572758683,
    "longitude": 136.63182074419694,
    "is_shadow_confederation": false
  },
  {
    "rank": 10,
    "team_name": "立命館大学",
    "team_short_name": "立命",
    "runner_name": "米原",
    "total_distance_km": 383.7,
    "latitude": 34.998863467925695,
    "longitude": 136.64888616372167,
    "is_shadow_confederation": false
  },
  {
    "rank": 11,
    "team_name": "三重大学",
    "team_short_name": "三重",
    "runner_name": "風屋",
    "total_distance_km": 378.6,
    "latitude": 35.036713630629535,
    "longitude": 136.67199963768485,
    "is_shadow_confederation": false
  },
  {
    "rank": 12,
    "team_name": "金沢大学",
    "team_short_name": "金沢",
    "runner_name": "志賀",
    "total_distance_km": 366.1,
    "latitude": 35.11659602870457,
    "longitude": 136.74658975163177,
    "is_shadow_confederation": false
  },
  {
    "rank": 13,
    "team_name": "日本大学",
    "team_short_name": "日大",
    "runner_name": "小田原",
    "total_distance_km": 361.6,
    "latitude": 35.12513946379975,
    "longitude": 136.79468490939132,
    "is_shadow_confederation": false
  },
  {
    "rank": 14,
    "team_name": "上武大学",
    "team_short_name": "上武",
    "runner_name": "寄居",
    "total_distance_km": 360.7,
    "latitude": 35.125832117085835,
    "longitude": 136.80452282254106,
    "is_shadow_confederation": false
  },
  {
    "rank": 15,
    "team_name": "山梨学院大学",
    "team_short_name": "山学",
    "runner_name": "浜松",
    "total_distance_km": 339.4,
    "latitude": 35.05451477587052,
    "longitude": 136.99570809391741,
    "is_shadow_confederation": false
  },
  {
    "rank": 16,
    "team_name": "福島大学",
    "team_short_name": "福島",
    "runner_name": "津川",
    "total_distance_km": 311.7,
    "latitude": 34.90875173003954,
    "longitude": 137.22938586878945,
    "is_shadow_confederation": false
  },
  {
    "rank": 17,
    "team_name": "学連選抜",
    "team_short_name": "学連",
    "runner_name": "大村",
    "total_distance_km": 290.5,
    "latitude": 34.77624421406243,
    "longitude": 137.3873667144825,
    "is_shadow_confederation": false
  },
  {
    "rank": 18,
    "team_name": "東北大学",
    "team_short_name": "東北",
    "runner_name": "高畠",
    "total_distance_km": 259.1,
    "latitude": 34.68429237615276,
    "longitude": 137.65460105848584,
    "is_shadow_confederation": false
  }
]