[
  {
    "rank": 1,
    "team_name": "琉球大学",
    "team_short_name": "琉球",
    "runner_name": "久米島",
    "total_distance_km": 658.1,
    "latitude": 34.83272795562797,
    "longitude": 134.35235266504202,
    "is_shadow_confederation": false
  },
  {
    "rank": 2,
    "team_name": "鹿児島大学",
    "team_short_name": "鹿大",
    "runner_name": "西都",
    "total_distance_km": 518.9,
    "latitude": 34.792309403485575,
    "longitude": 135.62564471740887,
    "is_shadow_confederation": false
  },
  {
    "rank": 3,
    "team_name": "熊本学園大学",
    "team_short_name": "熊学",
    "runner_name": "熊本",
    "total_distance_km": 509.2,
    "latitude": 34.846725754525515,
    "longitude": 135.70143036082365,
    "is_shadow_confederation": false
  },
  {
    "rank": 4,
    "team_name": "福岡大学",
    "team_short_name": "福岡",
    "runner_name": "前原",
    "total_distance_km": 482.1,
    "latitude": 34.98975587499667,
    "longitude": 135.81740629859397,
    "is_shadow_confederation": false
  },
  {
    "rank": 5,
    "team_name": "四国大学",
    "team_short_name": "四国",
    "runner_name": "大洲",
    "total_distance_km": 442.1,
    "latitude": 34.966157471776775,
    "longitude": 136.18453530858292,
    "is_shadow_confederation": false
  },
  {
    "rank": 6,
    "team_name": "名古屋大学",
    "team_short_name": "名大",
    "runner_name": "多治見",
    "total_distance_km": 441.5,
    "latitude": 34.963043238385275,
    "longitude": 136.18990654941626,
    "is_shadow_confederation": false
  },
  {
    "rank": 7,
    "team_name": "上武大学",
    "team_short_name": "上武",
    "runner_name": "桐生",
    "total_distance_km": 433.9,
    "latitude": 34.93804971982838,
    "longitude": 136.26541869745824,
    "is_shadow_confederation": false
  },
  {
    "rank": 8,
    "team_name": "広島経済大学",
    "team_short_name": "広経",
    "runner_name": "高梁",
    "total_distance_km": 430.9,
    "latitude": 34.92938204886829,
    "longitude": 136.29450622035878,
    "is_shadow_confederation": false
  },
  {
    "rank": 9,
    "team_name": "日本大学",
    "team_short_name": "日大",
    "runner_name": "牛久",
    "total_distance_km": 427.7,
    "latitude": 34.912407308201054,
    "longitude": 136.32159914152012,
    "is_shadow_confederation": false
  },
  {
    "rank": 10,
    "team_name": "鳥取大学",
    "team_short_name": "鳥取",
    "runner_name": "境",
    "total_distance_km": 426.5,
    "latitude": 34.90577675688775,
    "longitude": 136.33099032942403,
    "is_shadow_confederation": false
  },
  {
    "rank": 11,
    "team_name": "三重大学",
    "team_short_name": "三重",
    "runner_name": "奈良",
    "total_distance_km": 423.0,
    "latitude": 34.88844021161507,
    "longitude": 136.34937098174666,
    "is_shadow_confederation": false
  },
  {
    "rank": 12,
    "team_name": "関西大学",
    "team_short_name": "関大",
    "runner_name": "枚方",
    "total_distance_km": 417.1,
    "latitude": 34.854520381999585,
    "longitude": 136.38621589501642,
    "is_shadow_confederation": false
  },
  {
    "rank": 13,
    "team_name": "立命館大学",
    "team_short_name": "立命",
    "runner_name": "米原",
    "total_distance_km": 396.0,
    "latitude": 34.91426972986068,
    "longitude": 136.5695096735019,
    "is_shadow_confederation": false
  },
  {
    "rank": 14,
    "team_name": "山梨学院大学",
    "team_short_name": "山学",
    "runner_name": "浜松",
    "total_distance_km": 384.5,
    "latitude": 34.993153567069065,
    "longitude": 136.64353419005545,
    "is_shadow_confederation": false
  },
  {
    "rank": 15,
    "team_name": "福島大学",
    "team_short_name": "福島",
    "runner_name": "長岡",
    "total_distance_km": 367.0,
    "latitude": 35.114340978976145,
    "longitude": 136.73710623124262,
    "is_shadow_confederation": false
  },
  {
    "rank": 16,
    "team_name": "金沢大学",
    "team_short_name": "金沢",
    "runner_name": "志賀",
    "total_distance_km": 343.6,
    "latitude": 35.0717693984666,
    "longitude": 136.95587260120246,
    "is_shadow_confederation": false
  },
  {
    "rank": 17,
    "team_name": "東北大学",
    "team_short_name": "東北",
    "runner_name": "高畠",
    "total_distance_km": 292.5,
    "latitude": 34.79034869799467,
    "longitude": 137.37375672598014,
    "is_shadow_confederation": false
  },
  {
    "rank": 18,
    "team_name": "学連選抜",
    "team_short_name": "学連",
    "runner_name": "新潟",
    "total_distance_km": 188.2,
    "latitude": 34.91691127581823,
    "longitude": 138.29094061579306,
    "is_shadow_confederation": false
  },
  {
    "rank": null,
    "team_name": "区間記録連合",
    "team_short_name": "区間記録",
    "runner_name": "勝沼",
    "total_distance_km": 658.1,
    "latitude": 34.83272795562797,
    "longitude": 134.35235266504202,
    "is_shadow_confederation": true
  }
]