[
  {
    "rank": 1,
    "team_name": "琉球大学",
    "team_short_name": "琉球",
    "runner_name": "波照間",
    "total_distance_km": 444.7,
    "latitude": 34.978920434145245,
    "longitude": 136.1611806555651,
    "is_shadow_confederation": false
  },
  {
    "rank": 2,
    "team_name": "熊本学園大学",
    "team_short_name": "熊学",
    "runner_name": "熊本",
    "total_distance_km": 442.0,
    "latitude": 34.965638432878194,
    "longitude": 136.18543051538848,
    "is_shadow_confederation": false
  },
  {
    "rank": 3,
    "team_name": "福岡大学",
    "team_short_name": "福岡",
    "runner_name": "前原",
    "total_distance_km": 431.9,
    "latitude": 34.935559665024094,
    "longitude": 136.28653559290004,
    "is_shadow_confederation": false
  },
  {
    "rank": 4,
    "team_name": "立命館大学",
    "team_short_name": "立命",
    "runner_name": "舞鶴",
    "total_distance_km": 425.2,
    "latitude": 34.89565382129152,
    "longitude": 136.3368125246899,
    "is_shadow_confederation": false
  },
  {
    "rank": 5,
    "team_name": "関西大学",
    "team_short_name": "関大",
    "runner_name": "柏原",
    "total_distance_km": 419.3,
    "latitude": 34.867143420227656,
    "longitude": 136.37245407251174,
    "is_shadow_confederation": false
  },
  {
    "rank": 6,
    "team_name": "四国大学",
    "team_short_name": "四国",
    "runner_name": "松山",
    "total_distance_km": 417.2,
    "latitude": 34.85490137322369,
    "longitude": 136.3852248653949,
    "is_shadow_confederation": false
  },
  {
    "rank": 7,
    "team_name": "名古屋大学",
    "team_short_name": "名大",
    "runner_name": "愛西",
    "total_distance_km": 415.9,
    "latitude": 34.85190180018477,
    "longitude": 136.39871929437322,
    "is_shadow_confederation": false
  },
  {
    "rank": 8,
    "team_name": "広島経済大学",
    "team_short_name": "広経",
    "runner_name": "大竹",
    "total_distance_km": 415.1,
    "latitude": 34.85182461648117,
    "longitude": 136.40659449345085,
    "is_shadow_confederation": false
  },
  {
    "rank": 9,
    "team_name": "鳥取大学",
    "team_short_name": "鳥取",
    "runner_name": "防府",
    "total_distance_km": 411.2,
    "latitude": 34.851965390881816,
    "longitude": 136.44490462554933,
    "is_shadow_confederation": false
  },
  {
    "rank": 10,
    "team_name": "鹿児島大学",
    "team_short_name": "鹿大",
    "runner_name": "西米良",
    "total_distance_km": 411.1,
    "latitude": 34.85170332491727,
    "longitude": 136.44595085788842,
    "is_shadow_confederation": false
  },
  {
    "rank": 11,
    "team_name": "上武大学",
    "team_short_name": "上武",
    "runner_name": "寄居",
    "total_distance_km": 407.4,
    "latitude": 34.85799777845131,
    "longitude": 136.48336650154107,
    "is_shadow_confederation": false
  },
  {
    "rank": 12,
    "team_name": "三重大学",
    "team_short_name": "三重",
    "runner_name": "風屋",
    "total_distance_km": 405.6,
    "latitude": 34.87210572023741,
    "longitude": 136.49295957010492,
    "is_shadow_confederation": false
  },
  {
    "rank": 13,
    "team_name": "山梨学院大学",
    "team_short_name": "山学",
    "runner_name": "浜松",
    "total_distance_km": 405.4,
    "latitude": 34.87359549670754,
    "longitude": 136.49419142281474,
    "is_shadow_confederation": false
  },
  {
    "rank": 14,
    "team_name": "金沢大学",
    "team_short_name": "金沢",
    "runner_name": "志賀",
    "total_distance_km": 401.3,
    "latitude": 34.888552853332996,
    "longitude": 136.53136663451912,
    "is_shadow_confederation": false
  },
  {
    "rank": 15,
    "team_name": "日本大学",
    "team_short_name": "日大",
    "runner_name": "小田原",
    "total_distance_km": 398.9,
    "latitude": 34.901496534523794,
    "longitude": 136.548557,
    "is_shadow_confederation": false
  },
  {
    "rank": 16,
    "team_name": "福島大学",
    "team_short_name": "福島",
    "runner_name": "長岡",
    "total_distance_km": 377.6,
    "latitude": 35.04455463103667,
    "longitude": 136.67638998165648,
    "is_shadow_confederation": false
  },
  {
    "rank": 17,
    "team_name": "東北大学",
    "team_short_name": "東北",
    "runner_name": "大館",
    "total_distance_km": 355.9,
    "latitude": 35.12425471388855,
    "longitude": 136.85666135156336,
    "is_shadow_confederation": false
  },
  {
    "rank": 18,
    "team_name": "学連選抜",
    "team_short_name": "学連",
    "runner_name": "上",
    "total_distance_km": 352.4,
    "latitude": 35.12391566030804,
    "longitude": 136.89480403609937,
    "is_shadow_confederation": false
  }
]