[
  {
    "rank": 1,
    "team_name": "琉球大学",
    "team_short_name": "琉球",
    "runner_name": "那覇",
    "total_distance_km": 668.1,
    "latitude": 34.80174763660128,
    "longitude": 134.2736147788591,
    "is_shadow_confederation": false
  },
  {
    "rank": 2,
    "team_name": "鹿児島大学",
    "team_short_name": "鹿大",
    "runner_name": "笠利",
    "total_distance_km": 574.9,
    "latitude": 34.651614236061654,
    "longitude": 135.12742628040962,
    "is_shadow_confederation": false
  },
  {
    "rank": 3,
    "team_name": "熊本学園大学",
    "team_short_name": "熊学",
    "runner_name": "大分",
    "total_distance_km": 574.8,
    "latitude": 34.6521554321717,
    "longitude": 135.12829867383147,
    "is_shadow_confederation": false
  },
  {
    "rank": 4,
    "team_name": "福岡大学",
    "team_short_name": "福岡",
    "runner_name": "博多",
    "total_distance_km": 544.6,
    "latitude": 34.719503164506264,
    "longitude": 135.4238871013573,
    "is_shadow_confederation": false
  },
  {
    "rank": 5,
    "team_name": "四国大学",
    "team_short_name": "四国",
    "runner_name": "大洲",
    "total_distance_km": 523.7,
    "latitude": 34.76107435611091,
    "longitude": 135.59113877915019,
    "is_shadow_confederation": false
  },
  {
    "rank": 6,
    "team_name": "広島経済大学",
    "team_short_name": "広経",
    "runner_name": "高梁",
    "total_distance_km": 505.1,
    "latitude": 34.87319979925212,
    "longitude": 135.73123129832115,
    "is_shadow_confederation": false
  },
  {
    "rank": 7,
    "team_name": "名古屋大学",
    "team_short_name": "名大",
    "runner_name": "多治見",
    "total_distance_km": 495.1,
    "latitude": 34.960400485249764,
    "longitude": 135.74581127293698,
    "is_shadow_confederation": false
  },
  {
    "rank": 8,
    "team_name": "鳥取大学",
    "team_short_name": "鳥取",
    "runner_name": "境",
    "total_distance_km": 493.6,
    "latitude": 34.973912184847244,
    "longitude": 135.74608841087854,
    "is_shadow_confederation": false
  },
  {
    "rank": 9,
    "team_name": "関西大学",
    "team_short_name": "関大",
    "runner_name": "枚方",
    "total_distance_km": 488.7,
    "latitude": 35.000054429508864,
    "longitude": 135.76809646913625,
    "is_shadow_confederation": false
  },
  {
    "rank": 10,
    "team_name": "立命館大学",
    "team_short_name": "立命",
    "runner_name": "舞鶴",
    "total_distance_km": 482.0,
    "latitude": 34.98974097122654,
    "longitude": 135.81850144449518,
    "is_shadow_confederation": false
  },
  {
    "rank": 11,
    "team_name": "三重大学",
    "team_short_name": "三重",
    "runner_name": "奈良",
    "total_distance_km": 474.8,
    "latitude": 34.994522490350576,
    "longitude": 135.88404483525665,
    "is_shadow_confederation": false
  },
  {
    "rank": 12,
    "team_name": "日本大学",
    "team_short_name": "日大",
    "runner_name": "牛久",
    "total_distance_km": 466.4,
    "latitude": 35.00479468293867,
    "longitude": 135.95281329418734,
    "is_shadow_confederation": false
  },
  {
    "rank": 13,
    "team_name": "上武大学",
    "team_short_name": "上武",
    "runner_name": "桐生",
    "total_distance_km": 462.0,
    "latitude": 35.025403826427905,
    "longitude": 135.99187388278767,
    "is_shadow_confederation": false
  },
  {
    "rank": 14,
    "team_name": "金沢大学",
    "team_short_name": "金沢",
    "runner_name": "福井",
    "total_distance_km": 458.2,
    "latitude": 35.02795974954657,
    "longitude": 136.03114555878798,
    "is_shadow_confederation": false
  },
  {
    "rank": 15,
    "team_name": "山梨学院大学",
    "team_short_name": "山学",
    "runner_name": "甲府",
    "total_distance_km": 440.2,
    "latitude": 34.95789623891438,
    "longitude": 136.20206101091,
    "is_shadow_confederation": false
  },
  {
    "rank": 16,
    "team_name": "福島大学",
    "team_short_name": "福島",
    "runner_name": "長岡",
    "total_distance_km": 403.3,
    "latitude": 34.87807303391665,
    "longitude": 136.51532569279743,
    "is_shadow_confederation": false
  },
  {
    "rank": 17,
    "team_name": "学連選抜",
    "team_short_name": "学連",
    "runner_name": "上",
    "total_distance_km": 395.0,
    "latitude": 34.91809607780605,
    "longitude": 136.57884787605977,
    "is_shadow_confederation": false
  },
  {
    "rank": 18,
    "team_name": "東北大学",
    "team_short_name": "東北",
    "runner_name": "大館",
    "total_distance_km": 338.4,
    "latitude": 35.04814454047325,
    "longitude": 137.00339727100155,
    "is_shadow_confederation": false
  }
]