[
  {
    "rank": 1,
    "team_name": "琉球大学",
    "team_short_name": "琉球",
    "runner_name": "北原",
    "total_distance_km": 57.1,
    "latitude": 35.31959998951573,
    "longitude": 139.42546000584701,
    "is_shadow_confederation": false
  },
  {
    "rank": 2,
    "team_name": "鹿児島大学",
    "team_short_name": "鹿大",
    "runner_name": "東市来",
    "total_distance_km": 38.9,
    "latitude": 35.42091969494592,
    "longitude": 139.55921399150415,
    "is_shadow_confederation": false
  },
  {
    "rank": 3,
    "team_name": "熊本学園大学",
    "team_short_name": "熊学",
    "runner_name": "甲佐",
    "total_distance_km": 36.8,
    "latitude": 35.43240542743518,
    "longitude": 139.5754846257092,
    "is_shadow_confederation": false
  },
  {
    "rank": 4,
    "team_name": "福岡大学",
    "team_short_name": "福岡",
    "runner_name": "久留米",
    "total_distance_km": 35.4,
    "latitude": 35.44434862374528,
    "longitude": 139.5771393219332,
    "is_shadow_confederation": false
  },
  {
    "rank": 5,
    "team_name": "四国大学",
    "team_short_name": "四国",
    "runner_name": "穴吹",
    "total_distance_km": 31.0,
    "latitude": 35.457128663520756,
    "longitude": 139.6191869539194,
    "is_shadow_confederation": false
  },
  {
    "rank": 6,
    "team_name": "三重大学",
    "team_short_name": "三重",
    "runner_name": "粥見",
    "total_distance_km": 30.4,
    "latitude": 35.460366815068376,
    "longitude": 139.6240491772736,
    "is_shadow_confederation": false
  },
  {
    "rank": 7,
    "team_name": "上武大学",
    "team_short_name": "上武",
    "runner_name": "佐野",
    "total_distance_km": 29.6,
    "latitude": 35.46729762602045,
    "longitude": 139.62474704113532,
    "is_shadow_confederation": false
  },
  {
    "rank": 8,
    "team_name": "名古屋大学",
    "team_short_name": "名大",
    "runner_name": "美濃加茂",
    "total_distance_km": 29.5,
    "latitude": 35.468026543895526,
    "longitude": 139.62539506800084,
    "is_shadow_confederation": false
  },
  {
    "rank": 9,
    "team_name": "関西大学",
    "team_short_name": "関大",
    "runner_name": "福崎",
    "total_distance_km": 27.7,
    "latitude": 35.478953245941156,
    "longitude": 139.63845131273126,
    "is_shadow_confederation": false
  },
  {
    "rank": 10,
    "team_name": "日本大学",
    "team_short_name": "日大",
    "runner_name": "大子",
    "total_distance_km": 26.8,
    "latitude": 35.48422167177961,
    "longitude": 139.6458837285198,
    "is_shadow_confederation": false
  },
  {
    "rank": 11,
    "team_name": "立命館大学",
    "team_short_name": "立命",
    "runner_name": "東近江",
    "total_distance_km": 24.1,
    "latitude": 35.49650378529271,
    "longitude": 139.67059211219325,
    "is_shadow_confederation": false
  },
  {
    "rank": 12,
    "team_name": "広島経済大学",
    "team_short_name": "広経",
    "runner_name": "三次",
    "total_distance_km": 22.5,
    "latitude": 35.50800102061793,
    "longitude": 139.68115884228558,
    "is_shadow_confederation": false
  },
  {
    "rank": 13,
    "team_name": "鳥取大学",
    "team_short_name": "鳥取",
    "runner_name": "川本",
    "total_distance_km": 22.3,
    "latitude": 35.50947575964131,
    "longitude": 139.6824266003934,
    "is_shadow_confederation": false
  },
  {
    "rank": 14,
    "team_name": "金沢大学",
    "team_short_name": "金沢",
    "runner_name": "秋ヶ島",
    "total_distance_km": 20.0,
    "latitude": 35.524796958977404,
    "longitude": 139.69868310272747,
    "is_shadow_confederation": false
  },
  {
    "rank": 15,
    "team_name": "福島大学",
    "team_short_name": "福島",
    "runner_name": "梁川",
    "total_distance_km": 19.8,
    "latitude": 35.525808938762964,
    "longitude": 139.70050784386765,
    "is_shadow_confederation": false
  },
  {
    "rank": 16,
    "team_name": "山梨学院大学",
    "team_short_name": "山学",
    "runner_name": "長野",
    "total_distance_km": 15.7,
    "latitude": 35.55769572429152,
    "longitude": 139.7218583046613,
    "is_shadow_confederation": false
  },
  {
    "rank": 17,
    "team_name": "東北大学",
    "team_short_name": "東北",
    "runner_name": "帯広",
    "total_distance_km": 9.8,
    "latitude": 35.60658501093235,
    "longitude": 139.74309344599826,
    "is_shadow_confederation": false
  },
  {
    "rank": 18,
    "team_name": "学連選抜",
    "team_short_name": "学連",
    "runner_name": "美幌",
    "total_distance_km": 2.2,
    "latitude": 35.671399115557406,
    "longitude": 139.7525480807248,
    "is_shadow_confederation": false
  }
]