[
  {
    "rank": 1,
    "team_name": "名古屋大学",
    "team_short_name": "名大",
    "runner_name": "名古屋",
    "total_distance_km": 666.8,
    "latitude": 34.810326454755725,
    "longitude": 134.2823888205214,
    "is_shadow_confederation": false
  },
  {
    "rank": 2,
    "team_name": "琉球大学",
    "team_short_name": "琉球",
    "runner_name": "久米島",
    "total_distance_km": 665.2,
    "latitude": 34.82116846638818,
    "longitude": 134.29350721485673,
    "is_shadow_confederation": false
  },
  {
    "rank": 3,
    "team_name": "四国大学",
    "team_short_name": "四国",
    "runner_name": "徳島",
    "total_distance_km": 663.2,
    "latitude": 34.83050197614286,
    "longitude": 134.31115716890557,
    "is_shadow_confederation": false
  },
  {
    "rank": 4,
    "team_name": "熊本学園大学",
    "team_short_name": "熊学",
    "runner_name": "大分",
    "total_distance_km": 658.8,
    "latitude": 34.835971237118535,
    "longitude": 134.34578854595404,
    "is_shadow_confederation": false
  },
  {
    "rank": 5,
    "team_name": "福岡大学",
    "team_short_name": "福岡",
    "runner_name": "博多",
    "total_distance_km": 656.7,
    "latitude": 34.826241392646835,
    "longitude": 134.36548090321799,
    "is_shadow_confederation": false
  },
  {
    "rank": 6,
    "team_name": "立命館大学",
    "team_short_name": "立命",
    "runner_name": "彦根",
    "total_distance_km": 656.6,
    "latitude": 34.8258321113955,
    "longitude": 134.3664417540007,
    "is_shadow_confederation": false
  },
  {
    "rank": 7,
    "team_name": "関西大学",
    "team_short_name": "関大",
    "runner_name": "豊中",
    "total_distance_km": 655.9,
    "latitude": 34.825470144866685,
    "longitude": 134.37398558449289,
    "is_shadow_confederation": false
  },
  {
    "rank": 8,
    "team_name": "広島経済大学",
    "team_short_name": "広経",
    "runner_name": "高松（香川）",
    "total_distance_km": 654.7,
    "latitude": 34.8284487884518,
    "longitude": 134.38645304970606,
    "is_shadow_confederation": false
  },
  {
    "rank": 9,
    "team_name": "鹿児島大学",
    "team_short_name": "鹿大",
    "runner_name": "笠利",
    "total_distance_km": 648.8,
    "latitude": 34.826973451780894,
    "longitude": 134.4479914823049,
    "is_shadow_confederation": false
  },
  {
    "rank": 10,
    "team_name": "三重大学",
    "team_short_name": "三重",
    "runner_name": "新宮",
    "total_distance_km": 648.3,
    "latitude": 34.82622744327901,
    "longitude": 134.45332671990323,
    "is_shadow_confederation": false
  },
  {
    "rank": 11,
    "team_name": "山梨学院大学",
    "team_short_name": "山学",
    "runner_name": "静岡",
    "total_distance_km": 640.9,
    "latitude": 34.82702039622612,
    "longitude": 134.5279260905685,
    "is_shadow_confederation": false
  },
  {
    "rank": 12,
    "team_name": "日本大学",
    "team_short_name": "日大",
    "runner_name": "八王子",
    "total_distance_km": 638.4,
    "latitude": 34.83231721045111,
    "longitude": 134.55418780600175,
    "is_shadow_confederation": false
  },
  {
    "rank": 13,
    "team_name": "鳥取大学",
    "team_short_name": "鳥取",
    "runner_name": "松江",
    "total_distance_km": 635.2,
    "latitude": 34.83304120130799,
    "longitude": 134.58887182237405,
    "is_shadow_confederation": false
  },
  {
    "rank": 14,
    "team_name": "上武大学",
    "team_short_name": "上武",
    "runner_name": "伊勢崎",
    "total_distance_km": 630.4,
    "latitude": 34.84236398197963,
    "longitude": 134.6280687742585,
    "is_shadow_confederation": false
  },
  {
    "rank": 15,
    "team_name": "金沢大学",
    "team_short_name": "金沢",
    "runner_name": "富山",
    "total_distance_km": 627.5,
    "latitude": 34.842956688240115,
    "longitude": 134.65836591216623,
    "is_shadow_confederation": false
  },
  {
    "rank": 16,
    "team_name": "福島大学",
    "team_short_name": "福島",
    "runner_name": "浪江",
    "total_distance_km": 610.0,
    "latitude": 34.77565680023064,
    "longitude": 134.8256126297619,
    "is_shadow_confederation": false
  },
  {
    "rank": 17,
    "team_name": "学連選抜",
    "team_short_name": "学連",
    "runner_name": "多度津",
    "total_distance_km": 599.2,
    "latitude": 34.70623183949707,
    "longitude": 134.9058509838421,
    "is_shadow_confederation": false
  },
  {
    "rank": 18,
    "team_name": "東北大学",
    "team_short_name": "東北",
    "runner_name": "丸森",
    "total_distance_km": 555.4,
    "latitude": 34.733065573849295,
    "longitude": 135.31041992901388,
    "is_shadow_confederation": false
  },
  {
    "rank": null,
    "team_name": "区間記録連合",
    "team_short_name": "区間記録",
    "runner_name": "新居浜",
    "total_distance_km": 679.6,
    "latitude": 34.74303440611091,
    "longitude": 134.17666163716245,
    "is_shadow_confederation": true
  }
]