[
  {
    "rank": 1,
    "team_name": "琉球大学",
    "team_short_name": "琉球",
    "runner_name": "名護",
    "total_distance_km": 383.9,
    "latitude": 34.99743599271154,
    "longitude": 136.64754817030513,
    "is_shadow_confederation": false
  },
  {
    "rank": 2,
    "team_name": "鹿児島大学",
    "team_short_name": "鹿大",
    "runner_name": "加久藤",
    "total_distance_km": 292.4,
    "latitude": 34.789643473798066,
    "longitude": 137.37443722540525,
    "is_shadow_confederation": false
  },
  {
    "rank": 3,
    "team_name": "熊本学園大学",
    "team_short_name": "熊学",
    "runner_name": "八代",
    "total_distance_km": 284.8,
    "latitude": 34.73852729029006,
    "longitude": 137.4227752390757,
    "is_shadow_confederation": false
  },
  {
    "rank": 4,
    "team_name": "福岡大学",
    "team_short_name": "福岡",
    "runner_name": "黒木",
    "total_distance_km": 268.7,
    "latitude": 34.6867556660336,
    "longitude": 137.5565349498581,
    "is_shadow_confederation": false
  },
  {
    "rank": 5,
    "team_name": "名古屋大学",
    "team_short_name": "名大",
    "runner_name": "大垣",
    "total_distance_km": 248.1,
    "latitude": 34.711950165832015,
    "longitude": 137.75675811665968,
    "is_shadow_confederation": false
  },
  {
    "rank": 6,
    "team_name": "四国大学",
    "team_short_name": "四国",
    "runner_name": "御荘",
    "total_distance_km": 237.8,
    "latitude": 34.725064317211704,
    "longitude": 137.86033288477836,
    "is_shadow_confederation": false
  },
  {
    "rank": 7,
    "team_name": "日本大学",
    "team_short_name": "日大",
    "runner_name": "下館",
    "total_distance_km": 237.2,
    "latitude": 34.727247132426626,
    "longitude": 137.86625102725853,
    "is_shadow_confederation": false
  },
  {
    "rank": 8,
    "team_name": "上武大学",
    "team_short_name": "上武",
    "runner_name": "熊谷",
    "total_distance_km": 236.7,
    "latitude": 34.730138804090096,
    "longitude": 137.8703617060128,
    "is_shadow_confederation": false
  },
  {
    "rank": 9,
    "team_name": "三重大学",
    "team_short_name": "三重",
    "runner_name": "小俣",
    "total_distance_km": 231.2,
    "latitude": 34.75112847688836,
    "longitude": 137.92424708259978,
    "is_shadow_confederation": false
  },
  {
    "rank": 10,
    "team_name": "広島経済大学",
    "team_short_name": "広経",
    "runner_name": "加計",
    "total_distance_km": 225.9,
    "latitude": 34.76768088621802,
    "longitude": 137.97635830848512,
    "is_shadow_confederation": false
  },
  {
    "rank": 11,
    "team_name": "鳥取大学",
    "team_short_name": "鳥取",
    "runner_name": "鳥取",
    "total_distance_km": 216.7,
    "latitude": 34.78793985730699,
    "longitude": 138.06974664074298,
    "is_shadow_confederation": false
  },
  {
    "rank": 12,
    "team_name": "関西大学",
    "team_short_name": "関大",
    "runner_name": "和田山",
    "total_distance_km": 214.0,
    "latitude": 34.809151168148816,
    "longitude": 138.08128335845845,
    "is_shadow_confederation": false
  },
  {
    "rank": 13,
    "team_name": "立命館大学",
    "team_short_name": "立命",
    "runner_name": "福知山",
    "total_distance_km": 204.5,
    "latitude": 34.84420717039039,
    "longitude": 138.15075874314363,
    "is_shadow_confederation": false
  },
  {
    "rank": 14,
    "team_name": "福島大学",
    "team_short_name": "福島",
    "runner_name": "石川",
    "total_distance_km": 199.3,
    "latitude": 34.855093590571066,
    "longitude": 138.20479187247673,
    "is_shadow_confederation": false
  },
  {
    "rank": 15,
    "team_name": "山梨学院大学",
    "team_short_name": "山学",
    "runner_name": "南信濃",
    "total_distance_km": 187.9,
    "latitude": 34.919545135299025,
    "longitude": 138.29163102776621,
    "is_shadow_confederation": false
  },
  {
    "rank": 16,
    "team_name": "金沢大学",
    "team_short_name": "金沢",
    "runner_name": "小浜",
    "total_distance_km": 176.2,
    "latitude": 34.971526406173645,
    "longitude": 138.38612964580363,
    "is_shadow_confederation": false
  },
  {
    "rank": 17,
    "team_name": "東北大学",
    "team_short_name": "東北",
    "runner_name": "山形（山形）",
    "total_distance_km": 126.9,
    "latitude": 35.11464806051132,
    "longitude": 138.8180213195659,
    "is_shadow_confederation": false
  },
  {
    "rank": 18,
    "team_name": "学連選抜",
    "team_short_name": "学連",
    "runner_name": "美幌",
    "total_distance_km": 56.1,
    "latitude": 35.32236915434328,
    "longitude": 139.43505928283741,
    "is_shadow_confederation": false
  },
  {
    "rank": null,
    "team_name": "区間記録連合",
    "team_short_name": "区間記録",
    "runner_name": "風屋",
    "total_distance_km": 432.8,
    "latitude": 34.93816495529414,
    "longitude": 136.27728060463892,
    "is_shadow_confederation": true
  }
]