[
  {
    "rank": 1,
    "team_name": "琉球大学",
    "team_short_name": "琉球",
    "runner_name": "石垣島",
    "total_distance_km": 1021.8,
    "latitude": 34.05126965338489,
    "longitude": 131.19058543642865,
    "is_shadow_confederation": false
  },
  {
    "rank": 2,
    "team_name": "鹿児島大学",
    "team_short_name": "鹿大",
    "runner_name": "さつま柏原",
    "total_distance_km": 817.4,
    "latitude": 34.38838453542816,
    "longitude": 132.8994016543334,
    "is_shadow_confederation": false
  },
  {
    "rank": 3,
    "team_name": "熊本学園大学",
    "team_short_name": "熊学",
    "runner_name": "三角",
    "total_distance_km": 790.9,
    "latitude": 34.39219580631005,
    "longitude": 133.14367892533383,
    "is_shadow_confederation": false
  },
  {
    "rank": 4,
    "team_name": "福岡大学",
    "team_short_name": "福岡",
    "runner_name": "大牟田",
    "total_distance_km": 759.8,
    "latitude": 34.49724433909271,
    "longitude": 133.4180706668491,
    "is_shadow_confederation": false
  },
  {
    "rank": 5,
    "team_name": "名古屋大学",
    "team_short_name": "名大",
    "runner_name": "名古屋",
    "total_distance_km": 732.9,
    "latitude": 34.55590868141764,
    "longitude": 133.67512306059348,
    "is_shadow_confederation": false
  },
  {
    "rank": 6,
    "team_name": "四国大学",
    "team_short_name": "四国",
    "runner_name": "新居浜",
    "total_distance_km": 726.0,
    "latitude": 34.582499824892324,
    "longitude": 133.7366007877903,
    "is_shadow_confederation": false
  },
  {
    "rank": 7,
    "team_name": "日本大学",
    "team_short_name": "日大",
    "runner_name": "練馬",
    "total_distance_km": 711.4,
    "latitude": 34.64572082574138,
    "longitude": 133.86761747471647,
    "is_shadow_confederation": false
  },
  {
    "rank": 8,
    "team_name": "上武大学",
    "team_short_name": "上武",
    "runner_name": "小山",
    "total_distance_km": 710.1,
    "latitude": 34.648463556284085,
    "longitude": 133.8812380630523,
    "is_shadow_confederation": false
  },
  {
    "rank": 9,
    "team_name": "広島経済大学",
    "team_short_name": "広経",
    "runner_name": "福山",
    "total_distance_km": 689.4,
    "latitude": 34.71027245366619,
    "longitude": 134.08315482486012,
    "is_shadow_confederation": false
  },
  {
    "rank": 10,
    "team_name": "関西大学",
    "team_short_name": "関大",
    "runner_name": "八尾（大阪）",
    "total_distance_km": 686.6,
    "latitude": 34.72433620448067,
    "longitude": 134.10414240549602,
    "is_shadow_confederation": false
  },
  {
    "rank": 11,
    "team_name": "三重大学",
    "team_short_name": "三重",
    "runner_name": "津",
    "total_distance_km": 681.0,
    "latitude": 34.73927773903203,
    "longitude": 134.16209323490202,
    "is_shadow_confederation": false
  },
  {
    "rank": 12,
    "team_name": "山梨学院大学",
    "team_short_name": "山学",
    "runner_name": "三島",
    "total_distance_km": 680.0,
    "latitude": 34.741660035371936,
    "longitude": 134.17262490335233,
    "is_shadow_confederation": false
  },
  {
    "rank": 13,
    "team_name": "鳥取大学",
    "team_short_name": "鳥取",
    "runner_name": "米子",
    "total_distance_km": 667.5,
    "latitude": 34.804982462440165,
    "longitude": 134.2784940212373,
    "is_shadow_confederation": false
  },
  {
    "rank": 14,
    "team_name": "立命館大学",
    "team_short_name": "立命",
    "runner_name": "彦根",
    "total_distance_km": 646.4,
    "latitude": 34.8186542467643,
    "longitude": 134.46980670646306,
    "is_shadow_confederation": false
  },
  {
    "rank": 15,
    "team_name": "福島大学",
    "team_short_name": "福島",
    "runner_name": "浪江",
    "total_distance_km": 607.3,
    "latitude": 34.758834525741484,
    "longitude": 134.8460154541619,
    "is_shadow_confederation": false
  },
  {
    "rank": 16,
    "team_name": "金沢大学",
    "team_short_name": "金沢",
    "runner_name": "富山",
    "total_distance_km": 582.3,
    "latitude": 34.628245222153105,
    "longitude": 135.05428314379768,
    "is_shadow_confederation": false
  },
  {
    "rank": 17,
    "team_name": "東北大学",
    "team_short_name": "東北",
    "runner_name": "一関",
    "total_distance_km": 503.5,
    "latitude": 34.88538010929466,
    "longitude": 135.74060287032694,
    "is_shadow_confederation": false
  },
  {
    "rank": 18,
    "team_name": "学連選抜",
    "team_short_name": "学連",
    "runner_name": "久世",
    "total_distance_km": 438.0,
    "latitude": 34.95276226710452,
    "longitude": 136.22502478113344,
    "is_shadow_confederation": false
  },
  {
    "rank": null,
    "team_name": "区間記録連合",
    "team_short_name": "区間記録",
    "runner_name": "鳩山",
    "total_distance_km": 1044.6,
    "latitude": 34.025595968330464,
    "longitude": 131.0069637836688,
    "is_shadow_confederation": true
  }
]