[
  {
    "rank": 1,
    "team_name": "琉球大学",
    "team_short_name": "琉球",
    "runner_name": "波照間",
    "total_distance_km": 454.5,
    "latitude": 35.01239407188085,
    "longitude": 136.06680598777183,
    "is_shadow_confederation": false
  },
  {
    "rank": 2,
    "team_name": "鹿児島大学",
    "team_short_name": "鹿大",
    "runner_name": "西米良",
    "total_distance_km": 340.3,
    "latitude": 35.05956775212013,
    "longitude": 136.98809224143972,
    "is_shadow_confederation": false
  },
  {
    "rank": 3,
    "team_name": "熊本学園大学",
    "team_short_name": "熊学",
    "runner_name": "人吉",
    "total_distance_km": 338.6,
    "latitude": 35.049480542178514,
    "longitude": 137.00192540843614,
    "is_shadow_confederation": false
  },
  {
    "rank": 4,
    "team_name": "福岡大学",
    "team_short_name": "福岡",
    "runner_name": "黒木",
    "total_distance_km": 317.2,
    "latitude": 34.94353232048494,
    "longitude": 137.1907193001392,
    "is_shadow_confederation": false
  },
  {
    "rank": 5,
    "team_name": "名古屋大学",
    "team_short_name": "名大",
    "runner_name": "大垣",
    "total_distance_km": 293.8,
    "latitude": 34.79966202581532,
    "longitude": 137.3651455000115,
    "is_shadow_confederation": false
  },
  {
    "rank": 6,
    "team_name": "四国大学",
    "team_short_name": "四国",
    "runner_name": "御荘",
    "total_distance_km": 289.1,
    "latitude": 34.76701076030945,
    "longitude": 137.394427194626,
    "is_shadow_confederation": false
  },
  {
    "rank": 7,
    "team_name": "日本大学",
    "team_short_name": "日大",
    "runner_name": "下館",
    "total_distance_km": 284.0,
    "latitude": 34.731824229743125,
    "longitude": 137.42465418841994,
    "is_shadow_confederation": false
  },
  {
    "rank": 8,
    "team_name": "上武大学",
    "team_short_name": "上武",
    "runner_name": "熊谷",
    "total_distance_km": 283.4,
    "latitude": 34.72683758860322,
    "longitude": 137.42682000878054,
    "is_shadow_confederation": false
  },
  {
    "rank": 9,
    "team_name": "三重大学",
    "team_short_name": "三重",
    "runner_name": "小俣",
    "total_distance_km": 277.9,
    "latitude": 34.70656283965452,
    "longitude": 137.47825817012767,
    "is_shadow_confederation": false
  },
  {
    "rank": 10,
    "team_name": "広島経済大学",
    "team_short_name": "広経",
    "runner_name": "府中（広島）",
    "total_distance_km": 271.1,
    "latitude": 34.680532006661956,
    "longitude": 137.5315827557306,
    "is_shadow_confederation": false
  },
  {
    "rank": 11,
    "team_name": "関西大学",
    "team_short_name": "関大",
    "runner_name": "上郡",
    "total_distance_km": 264.8,
    "latitude": 34.69279687078376,
    "longitude": 137.5950638951318,
    "is_shadow_confederation": false
  },
  {
    "rank": 12,
    "team_name": "鳥取大学",
    "team_short_name": "鳥取",
    "runner_name": "広瀬",
    "total_distance_km": 262.9,
    "latitude": 34.685533309363265,
    "longitude": 137.61376190319928,
    "is_shadow_confederation": false
  },
  {
    "rank": 13,
    "team_name": "立命館大学",
    "team_short_name": "立命",
    "runner_name": "京田辺",
    "total_distance_km": 253.6,
    "latitude": 34.688988703021735,
    "longitude": 137.71359450543585,
    "is_shadow_confederation": false
  },
  {
    "rank": 14,
    "team_name": "福島大学",
    "team_short_name": "福島",
    "runner_name": "津川",
    "total_distance_km": 237.4,
    "latitude": 34.72630254853503,
    "longitude": 137.8643911024679,
    "is_shadow_confederation": false
  },
  {
    "rank": 15,
    "team_name": "山梨学院大学",
    "team_short_name": "山学",
    "runner_name": "大月",
    "total_distance_km": 232.7,
    "latitude": 34.744978923361145,
    "longitude": 137.90968186172046,
    "is_shadow_confederation": false
  },
  {
    "rank": 16,
    "team_name": "金沢大学",
    "team_short_name": "金沢",
    "runner_name": "小浜",
    "total_distance_km": 217.1,
    "latitude": 34.7864436865987,
    "longitude": 138.06578408325996,
    "is_shadow_confederation": false
  },
  {
    "rank": 17,
    "team_name": "東北大学",
    "team_short_name": "東北",
    "runner_name": "山形（山形）",
    "total_distance_km": 166.0,
    "latitude": 35.02119741205687,
    "longitude": 138.47731391323694,
    "is_shadow_confederation": false
  },
  {
    "rank": 18,
    "team_name": "学連選抜",
    "team_short_name": "学連",
    "runner_name": "美幌",
    "total_distance_km": 71.3,
    "latitude": 35.3042728403203,
    "longitude": 139.27684059047016,
    "is_shadow_confederation": false
  },
  {
    "rank": null,
    "team_name": "区間記録連合",
    "team_short_name": "区間記録",
    "runner_name": "桐生",
    "total_distance_km": 486.4,
    "latitude": 35.009422088698,
    "longitude": 135.7834939483111,
    "is_shadow_confederation": true
  }
]