[
  {
    "rank": 1,
    "team_name": "琉球大学",
    "team_short_name": "琉球",
    "runner_name": "大原",
    "total_distance_km": 947.2,
    "latitude": 34.02831252361841,
    "longitude": 131.8534231009977,
    "is_shadow_confederation": false
  },
  {
    "rank": 2,
    "team_name": "鹿児島大学",
    "team_short_name": "鹿大",
    "runner_name": "さつま柏原",
    "total_distance_km": 795.2,
    "latitude": 34.392447478057086,
    "longitude": 133.10601197366918,
    "is_shadow_confederation": false
  },
  {
    "rank": 3,
    "team_name": "熊本学園大学",
    "team_short_name": "熊学",
    "runner_name": "三角",
    "total_distance_km": 768.8,
    "latitude": 34.48275038088756,
    "longitude": 133.32497778713966,
    "is_shadow_confederation": false
  },
  {
    "rank": 4,
    "team_name": "福岡大学",
    "team_short_name": "福岡",
    "runner_name": "大牟田",
    "total_distance_km": 756.0,
    "latitude": 34.502797397363366,
    "longitude": 133.45387760050357,
    "is_shadow_confederation": false
  },
  {
    "rank": 5,
    "team_name": "四国大学",
    "team_short_name": "四国",
    "runner_name": "新居浜",
    "total_distance_km": 715.1,
    "latitude": 34.640776336237955,
    "longitude": 133.8298280129259,
    "is_shadow_confederation": false
  },
  {
    "rank": 6,
    "team_name": "広島経済大学",
    "team_short_name": "広経",
    "runner_name": "福山",
    "total_distance_km": 697.6,
    "latitude": 34.68741207754354,
    "longitude": 134.00130403145045,
    "is_shadow_confederation": false
  },
  {
    "rank": 7,
    "team_name": "鳥取大学",
    "team_short_name": "鳥取",
    "runner_name": "米子",
    "total_distance_km": 682.5,
    "latitude": 34.73665405563073,
    "longitude": 134.14609376767032,
    "is_shadow_confederation": false
  },
  {
    "rank": 8,
    "team_name": "関西大学",
    "team_short_name": "関大",
    "runner_name": "八尾（大阪）",
    "total_distance_km": 681.2,
    "latitude": 34.738801279764054,
    "longitude": 134.15998690121197,
    "is_shadow_confederation": false
  },
  {
    "rank": 9,
    "team_name": "名古屋大学",
    "team_short_name": "名大",
    "runner_name": "名古屋",
    "total_distance_km": 681.0,
    "latitude": 34.73927773903203,
    "longitude": 134.16209323490202,
    "is_shadow_confederation": false
  },
  {
    "rank": 10,
    "team_name": "三重大学",
    "team_short_name": "三重",
    "runner_name": "津",
    "total_distance_km": 672.1,
    "latitude": 34.77761447737368,
    "longitude": 134.24462767165073,
    "is_shadow_confederation": false
  },
  {
    "rank": 11,
    "team_name": "立命館大学",
    "team_short_name": "立命",
    "runner_name": "彦根",
    "total_distance_km": 656.9,
    "latitude": 34.827168044501285,
    "longitude": 134.36360544062143,
    "is_shadow_confederation": false
  },
  {
    "rank": 12,
    "team_name": "上武大学",
    "team_short_name": "上武",
    "runner_name": "伊勢崎",
    "total_distance_km": 638.2,
    "latitude": 34.832264026102095,
    "longitude": 134.55637326783284,
    "is_shadow_confederation": false
  },
  {
    "rank": 13,
    "team_name": "日本大学",
    "team_short_name": "日大",
    "runner_name": "八王子",
    "total_distance_km": 635.9,
    "latitude": 34.833704090393155,
    "longitude": 134.58135814534134,
    "is_shadow_confederation": false
  },
  {
    "rank": 14,
    "team_name": "金沢大学",
    "team_short_name": "金沢",
    "runner_name": "富山",
    "total_distance_km": 634.5,
    "latitude": 34.83288356931341,
    "longitude": 134.59648553165368,
    "is_shadow_confederation": false
  },
  {
    "rank": 15,
    "team_name": "山梨学院大学",
    "team_short_name": "山学",
    "runner_name": "静岡",
    "total_distance_km": 621.4,
    "latitude": 34.82608092901548,
    "longitude": 134.72140416608784,
    "is_shadow_confederation": false
  },
  {
    "rank": 16,
    "team_name": "学連選抜",
    "team_short_name": "学連",
    "runner_name": "多度津",
    "total_distance_km": 581.9,
    "latitude": 34.62846256987813,
    "longitude": 135.05863731492187,
    "is_shadow_confederation": false
  },
  {
    "rank": 17,
    "team_name": "福島大学",
    "team_short_name": "福島",
    "runner_name": "浪江",
    "total_distance_km": 561.3,
    "latitude": 34.7155737254655,
    "longitude": 135.2498454752839,
    "is_shadow_confederation": false
  },
  {
    "rank": 18,
    "team_name": "東北大学",
    "team_short_name": "東北",
    "runner_name": "一関",
    "total_distance_km": 479.0,
    "latitude": 34.99261208209792,
    "longitude": 135.84990176485368,
    "is_shadow_confederation": false
  }
]