[
  {
    "rank": 1,
    "team_name": "名古屋大学",
    "team_short_name": "名大",
    "runner_name": "美濃",
    "total_distance_km": 78.8,
    "latitude": 35.27647836753181,
    "longitude": 139.20319304069827,
    "current_leg": 1,
    "is_shadow_confederation": false
  },
  {
    "rank": 2,
    "team_name": "山梨学院大学",
    "team_short_name": "山学",
    "runner_name": "佐久間",
    "total_distance_km": 78.3,
    "latitude": 35.27918497670983,
    "longitude": 139.20721001420753,
    "current_leg": 1,
    "is_shadow_confederation": false
  },
  {
    "rank": 3,
    "team_name": "学連選抜",
    "team_short_name": "学連",
    "runner_name": "金山（岐阜）",
    "total_distance_km": 78.1,
    "latitude": 35.279633093456454,
    "longitude": 139.2093321700144,
    "current_leg": 1,
    "is_shadow_confederation": false
  },
  {
    "rank": 4,
    "team_name": "三重大学",
    "team_short_name": "三重",
    "runner_name": "粥見",
    "total_distance_km": 77.1,
    "latitude": 35.28201378567585,
    "longitude": 139.21982572067836,
    "current_leg": 1,
    "is_shadow_confederation": false
  },
  {
    "rank": 5,
    "team_name": "関西大学",
    "team_short_name": "関大",
    "runner_name": "福崎",
    "total_distance_km": 75.7,
    "latitude": 35.28799528161381,
    "longitude": 139.23320401639546,
    "current_leg": 1,
    "is_shadow_confederation": false
  },
  {
    "rank": 6,
    "team_name": "広島経済大学",
    "team_short_name": "広経",
    "runner_name": "久世",
    "total_distance_km": 75.1,
    "latitude": 35.2910177778845,
    "longitude": 139.23851580423388,
    "current_leg": 1,
    "is_shadow_confederation": false
  },
  {
    "rank": 7,
    "team_name": "四国大学",
    "team_short_name": "四国",
    "runner_name": "穴吹",
    "total_distance_km": 73.8,
    "latitude": 35.29574879163296,
    "longitude": 139.25157784540662,
    "current_leg": 1,
    "is_shadow_confederation": false
  },
  {
    "rank": 8,
    "team_name": "鳥取大学",
    "team_short_name": "鳥取",
    "runner_name": "広瀬",
    "total_distance_km": 73.7,
    "latitude": 35.29607836864676,
    "longitude": 139.25260112725059,
    "current_leg": 1,
    "is_shadow_confederation": false
  },
  {
    "rank": 9,
    "team_name": "立命館大学",
    "team_short_name": "立命",
    "runner_name": "東近江",
    "total_distance_km": 73.3,
    "latitude": 35.29739667670196,
    "longitude": 139.25669425462652,
    "current_leg": 1,
    "is_shadow_confederation": false
  },
  {
    "rank": 10,
    "team_name": "鹿児島大学",
    "team_short_name": "鹿大",
    "runner_name": "肝付前田",
    "total_distance_km": 72.5,
    "latitude": 35.300324912359194,
    "longitude": 139.26471421879032,
    "current_leg": 1,
    "is_shadow_confederation": false
  },
  {
    "rank": 11,
    "team_name": "熊本学園大学",
    "team_short_name": "熊学",
    "runner_name": "犬飼",
    "total_distance_km": 72.3,
    "latitude": 35.30119046999721,
    "longitude": 139.26664308468287,
    "current_leg": 1,
    "is_shadow_confederation": false
  },
  {
    "rank": 12,
    "team_name": "日本大学",
    "team_short_name": "日大",
    "runner_name": "八王子",
    "total_distance_km": 71.8,
    "latitude": 35.303229130005164,
    "longitude": 139.27154578987972,
    "current_leg": 1,
    "is_shadow_confederation": false
  },
  {
    "rank": 13,
    "team_name": "上武大学",
    "team_short_name": "上武",
    "runner_name": "前橋",
    "total_distance_km": 71.5,
    "latitude": 35.30399488387615,
    "longitude": 139.2746678586689,
    "current_leg": 1,
    "is_shadow_confederation": false
  },
  {
    "rank": 14,
    "team_name": "福岡大学",
    "team_short_name": "福岡",
    "runner_name": "飯塚",
    "total_distance_km": 71.3,
    "latitude": 35.3042728403203,
    "longitude": 139.27684059047016,
    "current_leg": 1,
    "is_shadow_confederation": false
  },
  {
    "rank": 15,
    "team_name": "金沢大学",
    "team_short_name": "金沢",
    "runner_name": "伏木",
    "total_distance_km": 70.8,
    "latitude": 35.30448831431971,
    "longitude": 139.28232546308692,
    "current_leg": 1,
    "is_shadow_confederation": false
  },
  {
    "rank": 16,
    "team_name": "琉球大学",
    "team_short_name": "琉球",
    "runner_name": "北原",
    "total_distance_km": 65.1,
    "latitude": 35.3148228209626,
    "longitude": 139.34009768793817,
    "current_leg": 1,
    "is_shadow_confederation": false
  },
  {
    "rank": 17,
    "team_name": "福島大学",
    "team_short_name": "福島",
    "runner_name": "高田",
    "total_distance_km": 64.9,
    "latitude": 35.315047843131104,
    "longitude": 139.3422798210188,
    "current_leg": 1,
    "is_shadow_confederation": false
  },
  {
    "rank": 18,
    "team_name": "東北大学",
    "team_short_name": "東北",
    "runner_name": "上富良野",
    "total_distance_km": 56.7,
    "latitude": 35.32000142268491,
    "longitude": 139.42983146173532,
    "current_leg": 1,
    "is_shadow_confederation": false
  },
  {
    "rank": null,
    "team_name": "区間記録連合",
    "team_short_name": "区間記録",
    "runner_name": "梁川",
    "total_distance_km": 78.0,
    "latitude": 35.279813673019476,
    "longitude": 139.21040907700936,
    "current_leg": 1,
    "is_shadow_confederation": true
  }
]