[
  {
    "rank": 1,
    "team_name": "琉球大学",
    "team_short_name": "琉球",
    "runner_name": "大原",
    "total_distance_km": 938.0,
    "latitude": 34.037311080877245,
    "longitude": 131.94730809866954,
    "is_shadow_confederation": false
  },
  {
    "rank": 2,
    "team_name": "鹿児島大学",
    "team_short_name": "鹿大",
    "runner_name": "さつま柏原",
    "total_distance_km": 756.9,
    "latitude": 34.498606585190444,
    "longitude": 133.4457929119719,
    "is_shadow_confederation": false
  },
  {
    "rank": 3,
    "team_name": "熊本学園大学",
    "team_short_name": "熊学",
    "runner_name": "犬飼",
    "total_distance_km": 736.2,
    "latitude": 34.541593094131464,
    "longitude": 133.64566267072755,
    "is_shadow_confederation": false
  },
  {
    "rank": 4,
    "team_name": "福岡大学",
    "team_short_name": "福岡",
    "runner_name": "口之津",
    "total_distance_km": 702.2,
    "latitude": 34.67156958798637,
    "longitude": 133.95618843588394,
    "is_shadow_confederation": false
  },
  {
    "rank": 5,
    "team_name": "名古屋大学",
    "team_short_name": "名大",
    "runner_name": "名古屋",
    "total_distance_km": 669.6,
    "latitude": 34.79256439848316,
    "longitude": 134.2620545485888,
    "is_shadow_confederation": false
  },
  {
    "rank": 6,
    "team_name": "四国大学",
    "team_short_name": "四国",
    "runner_name": "新居浜",
    "total_distance_km": 668.3,
    "latitude": 34.80051331970985,
    "longitude": 134.27202181004105,
    "is_shadow_confederation": false
  },
  {
    "rank": 7,
    "team_name": "日本大学",
    "team_short_name": "日大",
    "runner_name": "八王子",
    "total_distance_km": 645.5,
    "latitude": 34.81836565902159,
    "longitude": 134.4796152042026,
    "is_shadow_confederation": false
  },
  {
    "rank": 8,
    "team_name": "上武大学",
    "team_short_name": "上武",
    "runner_name": "伊勢崎",
    "total_distance_km": 642.7,
    "latitude": 34.82327515637695,
    "longitude": 134.50890029215267,
    "is_shadow_confederation": false
  },
  {
    "rank": 9,
    "team_name": "広島経済大学",
    "team_short_name": "広経",
    "runner_name": "高松（香川）",
    "total_distance_km": 630.3,
    "latitude": 34.84304143253462,
    "longitude": 134.62879002942952,
    "is_shadow_confederation": false
  },
  {
    "rank": 10,
    "team_name": "三重大学",
    "team_short_name": "三重",
    "runner_name": "新宮",
    "total_distance_km": 626.3,
    "latitude": 34.838248709650564,
    "longitude": 134.6701044494612,
    "is_shadow_confederation": false
  },
  {
    "rank": 11,
    "team_name": "関西大学",
    "team_short_name": "関大",
    "runner_name": "豊中",
    "total_distance_km": 622.3,
    "latitude": 34.82837425040124,
    "longitude": 134.7119671352985,
    "is_shadow_confederation": false
  },
  {
    "rank": 12,
    "team_name": "鳥取大学",
    "team_short_name": "鳥取",
    "runner_name": "松江",
    "total_distance_km": 617.6,
    "latitude": 34.80641345964694,
    "longitude": 134.75459187698632,
    "is_shadow_confederation": false
  },
  {
    "rank": 13,
    "team_name": "山梨学院大学",
    "team_short_name": "山学",
    "runner_name": "静岡",
    "total_distance_km": 615.8,
    "latitude": 34.79579015767301,
    "longitude": 134.76945233476889,
    "is_shadow_confederation": false
  },
  {
    "rank": 14,
    "team_name": "立命館大学",
    "team_short_name": "立命",
    "runner_name": "彦根",
    "total_distance_km": 584.4,
    "latitude": 34.632748999680715,
    "longitude": 135.03316015856734,
    "is_shadow_confederation": false
  },
  {
    "rank": 15,
    "team_name": "福島大学",
    "team_short_name": "福島",
    "runner_name": "浪江",
    "total_distance_km": 552.0,
    "latitude": 34.73764723199387,
    "longitude": 135.3465098080266,
    "is_shadow_confederation": false
  },
  {
    "rank": 16,
    "team_name": "金沢大学",
    "team_short_name": "金沢",
    "runner_name": "福井",
    "total_distance_km": 535.3,
    "latitude": 34.697304543183385,
    "longitude": 135.5112349018523,
    "is_shadow_confederation": false
  },
  {
    "rank": 17,
    "team_name": "東北大学",
    "team_short_name": "東北",
    "runner_name": "一関",
    "total_distance_km": 444.4,
    "latitude": 34.97809547669999,
    "longitude": 136.16430947967453,
    "is_shadow_confederation": false
  },
  {
    "rank": 18,
    "team_name": "学連選抜",
    "team_short_name": "学連",
    "runner_name": "上",
    "total_distance_km": 386.7,
    "latitude": 34.978578554053925,
    "longitude": 136.62751196830348,
    "is_shadow_confederation": false
  },
  {
    "rank": null,
    "team_name": "区間記録連合",
    "team_short_name": "区間記録",
    "runner_name": "豊中",
    "total_distance_km": 965.4,
    "latitude": 34.072517874105344,
    "longitude": 131.69271502050432,
    "is_shadow_confederation": true
  }
]