[
  {
    "rank": 1,
    "team_name": "琉球大学",
    "team_short_name": "琉球",
    "runner_name": "西表島",
    "total_distance_km": 790.4,
    "latitude": 34.393268882607266,
    "longitude": 133.14891798470816,
    "is_shadow_confederation": false
  },
  {
    "rank": 2,
    "team_name": "鹿児島大学",
    "team_short_name": "鹿大",
    "runner_name": "笠利",
    "total_distance_km": 644.9,
    "latitude": 34.819506636776126,
    "longitude": 134.48602217952734,
    "is_shadow_confederation": false
  },
  {
    "rank": 3,
    "team_name": "熊本学園大学",
    "team_short_name": "熊学",
    "runner_name": "大分",
    "total_distance_km": 612.8,
    "latitude": 34.78952754854344,
    "longitude": 134.80067031701822,
    "is_shadow_confederation": false
  },
  {
    "rank": 4,
    "team_name": "福岡大学",
    "team_short_name": "福岡",
    "runner_name": "博多",
    "total_distance_km": 591.2,
    "latitude": 34.65900316920027,
    "longitude": 134.97054936029772,
    "is_shadow_confederation": false
  },
  {
    "rank": 5,
    "team_name": "四国大学",
    "team_short_name": "四国",
    "runner_name": "徳島",
    "total_distance_km": 555.2,
    "latitude": 34.73347724758946,
    "longitude": 135.31254601893608,
    "is_shadow_confederation": false
  },
  {
    "rank": 6,
    "team_name": "名古屋大学",
    "team_short_name": "名大",
    "runner_name": "豊田（愛知）",
    "total_distance_km": 550.8,
    "latitude": 34.73577260902059,
    "longitude": 135.35940252940782,
    "is_shadow_confederation": false
  },
  {
    "rank": 7,
    "team_name": "日本大学",
    "team_short_name": "日大",
    "runner_name": "八王子",
    "total_distance_km": 541.7,
    "latitude": 34.7122063506838,
    "longitude": 135.45192384490798,
    "is_shadow_confederation": false
  },
  {
    "rank": 8,
    "team_name": "上武大学",
    "team_short_name": "上武",
    "runner_name": "伊勢崎",
    "total_distance_km": 541.6,
    "latitude": 34.71171052102012,
    "longitude": 135.4528354777873,
    "is_shadow_confederation": false
  },
  {
    "rank": 9,
    "team_name": "広島経済大学",
    "team_short_name": "広経",
    "runner_name": "高松（香川）",
    "total_distance_km": 540.3,
    "latitude": 34.704454360661906,
    "longitude": 135.46377601970428,
    "is_shadow_confederation": false
  },
  {
    "rank": 10,
    "team_name": "鳥取大学",
    "team_short_name": "鳥取",
    "runner_name": "境",
    "total_distance_km": 529.5,
    "latitude": 34.72309742339295,
    "longitude": 135.54866181312758,
    "is_shadow_confederation": false
  },
  {
    "rank": 11,
    "team_name": "三重大学",
    "team_short_name": "三重",
    "runner_name": "奈良",
    "total_distance_km": 529.4,
    "latitude": 34.723974857630886,
    "longitude": 135.54891152182893,
    "is_shadow_confederation": false
  },
  {
    "rank": 12,
    "team_name": "関西大学",
    "team_short_name": "関大",
    "runner_name": "枚方",
    "total_distance_km": 527.0,
    "latitude": 34.73998855687651,
    "longitude": 135.56583667054178,
    "is_shadow_confederation": false
  },
  {
    "rank": 13,
    "team_name": "立命館大学",
    "team_short_name": "立命",
    "runner_name": "舞鶴",
    "total_distance_km": 505.0,
    "latitude": 34.87396106862978,
    "longitude": 135.73181702157152,
    "is_shadow_confederation": false
  },
  {
    "rank": 14,
    "team_name": "山梨学院大学",
    "team_short_name": "山学",
    "runner_name": "甲府",
    "total_distance_km": 490.7,
    "latitude": 34.99389034872238,
    "longitude": 135.75258363300762,
    "is_shadow_confederation": false
  },
  {
    "rank": 15,
    "team_name": "福島大学",
    "team_short_name": "福島",
    "runner_name": "福島",
    "total_distance_km": 469.3,
    "latitude": 34.987048266034655,
    "longitude": 135.9297156929331,
    "is_shadow_confederation": false
  },
  {
    "rank": 16,
    "team_name": "金沢大学",
    "team_short_name": "金沢",
    "runner_name": "福井",
    "total_distance_km": 429.8,
    "latitude": 34.923669415225014,
    "longitude": 136.3043018428899,
    "is_shadow_confederation": false
  },
  {
    "rank": 17,
    "team_name": "東北大学",
    "team_short_name": "東北",
    "runner_name": "大館",
    "total_distance_km": 371.5,
    "latitude": 35.090464491530255,
    "longitude": 136.70185855062374,
    "is_shadow_confederation": false
  },
  {
    "rank": 18,
    "team_name": "学連選抜",
    "team_short_name": "学連",
    "runner_name": "大村",
    "total_distance_km": 285.3,
    "latitude": 34.74163928097242,
    "longitude": 137.41882580169982,
    "is_shadow_confederation": false
  },
  {
    "rank": null,
    "team_name": "区間記録連合",
    "team_short_name": "区間記録",
    "runner_name": "西脇",
    "total_distance_km": 817.0,
    "latitude": 34.390546281311764,
    "longitude": 132.90280821528657,
    "is_shadow_confederation": true
  }
]