[
  {
    "rank": 1,
    "team_name": "琉球大学",
    "team_short_name": "琉球",
    "runner_name": "名護",
    "total_distance_km": 363.1,
    "latitude": 35.12366527733216,
    "longitude": 136.7783392684933,
    "current_leg": 4,
    "is_shadow_confederation": false
  },
  {
    "rank": 2,
    "team_name": "名古屋大学",
    "team_short_name": "名大",
    "runner_name": "大垣",
    "total_distance_km": 330.8,
    "latitude": 35.00019447302195,
    "longitude": 137.0613328279889,
    "current_leg": 4,
    "is_shadow_confederation": false
  },
  {
    "rank": 3,
    "team_name": "鹿児島大学",
    "team_short_name": "鹿大",
    "runner_name": "加久藤",
    "total_distance_km": 328.2,
    "latitude": 34.988180315449554,
    "longitude": 137.08566822567957,
    "current_leg": 4,
    "is_shadow_confederation": false
  },
  {
    "rank": 4,
    "team_name": "熊本学園大学",
    "team_short_name": "熊学",
    "runner_name": "八代",
    "total_distance_km": 318.2,
    "latitude": 34.94942348760927,
    "longitude": 137.18267929812447,
    "current_leg": 4,
    "is_shadow_confederation": false
  },
  {
    "rank": 5,
    "team_name": "福岡大学",
    "team_short_name": "福岡",
    "runner_name": "黒木",
    "total_distance_km": 317.4,
    "latitude": 34.94506953721593,
    "longitude": 137.1895755774736,
    "current_leg": 4,
    "is_shadow_confederation": false
  },
  {
    "rank": 5,
    "team_name": "立命館大学",
    "team_short_name": "立命",
    "runner_name": "京田辺",
    "total_distance_km": 317.4,
    "latitude": 34.94506953721593,
    "longitude": 137.1895755774736,
    "current_leg": 4,
    "is_shadow_confederation": false
  },
  {
    "rank": 7,
    "team_name": "鳥取大学",
    "team_short_name": "鳥取",
    "runner_name": "広瀬",
    "total_distance_km": 316.1,
    "latitude": 34.934877567389236,
    "longitude": 137.19630697010336,
    "current_leg": 4,
    "is_shadow_confederation": false
  },
  {
    "rank": 8,
    "team_name": "関西大学",
    "team_short_name": "関大",
    "runner_name": "上郡",
    "total_distance_km": 314.3,
    "latitude": 34.92116413159693,
    "longitude": 137.20596760505157,
    "current_leg": 4,
    "is_shadow_confederation": false
  },
  {
    "rank": 9,
    "team_name": "金沢大学",
    "team_short_name": "金沢",
    "runner_name": "七尾",
    "total_distance_km": 312.1,
    "latitude": 34.91112442364603,
    "longitude": 137.2264161231635,
    "current_leg": 4,
    "is_shadow_confederation": false
  },
  {
    "rank": 10,
    "team_name": "三重大学",
    "team_short_name": "三重",
    "runner_name": "小俣",
    "total_distance_km": 309.9,
    "latitude": 34.898461987936045,
    "longitude": 137.24389508422396,
    "current_leg": 3,
    "is_shadow_confederation": false
  },
  {
    "rank": 11,
    "team_name": "四国大学",
    "team_short_name": "四国",
    "runner_name": "御荘",
    "total_distance_km": 309.6,
    "latitude": 34.89804087612111,
    "longitude": 137.24713728060004,
    "current_leg": 3,
    "is_shadow_confederation": false
  },
  {
    "rank": 12,
    "team_name": "日本大学",
    "team_short_name": "日大",
    "runner_name": "下館",
    "total_distance_km": 307.1,
    "latitude": 34.88394779338163,
    "longitude": 137.2660101756678,
    "current_leg": 3,
    "is_shadow_confederation": false
  },
  {
    "rank": 13,
    "team_name": "上武大学",
    "team_short_name": "上武",
    "runner_name": "熊谷",
    "total_distance_km": 306.9,
    "latitude": 34.88255741540699,
    "longitude": 137.26737508205602,
    "current_leg": 3,
    "is_shadow_confederation": false
  },
  {
    "rank": 14,
    "team_name": "山梨学院大学",
    "team_short_name": "山学",
    "runner_name": "大月",
    "total_distance_km": 303.8,
    "latitude": 34.866957702957215,
    "longitude": 137.2953603330137,
    "current_leg": 3,
    "is_shadow_confederation": false
  },
  {
    "rank": 15,
    "team_name": "広島経済大学",
    "team_short_name": "広経",
    "runner_name": "府中（広島）",
    "total_distance_km": 298.2,
    "latitude": 34.829426584610076,
    "longitude": 137.33398502498224,
    "current_leg": 3,
    "is_shadow_confederation": false
  },
  {
    "rank": 16,
    "team_name": "東北大学",
    "team_short_name": "東北",
    "runner_name": "高畠",
    "total_distance_km": 290.9,
    "latitude": 34.779065110848876,
    "longitude": 137.38464471678205,
    "current_leg": 3,
    "is_shadow_confederation": false
  },
  {
    "rank": 17,
    "team_name": "福島大学",
    "team_short_name": "福島",
    "runner_name": "津川",
    "total_distance_km": 286.2,
    "latitude": 34.748173056554236,
    "longitude": 137.41364712966015,
    "current_leg": 3,
    "is_shadow_confederation": false
  },
  {
    "rank": 18,
    "team_name": "学連選抜",
    "team_short_name": "学連",
    "runner_name": "大村",
    "total_distance_km": 281.1,
    "latitude": 34.72018190927001,
    "longitude": 137.45024760552948,
    "current_leg": 3,
    "is_shadow_confederation": false
  },
  {
    "rank": null,
    "team_name": "区間記録連合",
    "team_short_name": "区間記録",
    "runner_name": "風屋",
    "total_distance_km": 405.7,
    "latitude": 34.871360832002345,
    "longitude": 136.49234364375002,
    "current_leg": 5,
    "is_shadow_confederation": true
  }
]