[
  {
    "rank": 1,
    "team_name": "琉球大学",
    "team_short_name": "琉球",
    "runner_name": "西表島",
    "total_distance_km": 795.4,
    "latitude": 34.39287138545354,
    "longitude": 133.10391617365346,
    "is_shadow_confederation": false
  },
  {
    "rank": 2,
    "team_name": "福岡大学",
    "team_short_name": "福岡",
    "runner_name": "大牟田",
    "total_distance_km": 781.2,
    "latitude": 34.41962251450862,
    "longitude": 133.22914300151746,
    "is_shadow_confederation": false
  },
  {
    "rank": 3,
    "team_name": "名古屋大学",
    "team_short_name": "名大",
    "runner_name": "大府",
    "total_distance_km": 779.7,
    "latitude": 34.43273694610763,
    "longitude": 133.22957833048486,
    "is_shadow_confederation": false
  },
  {
    "rank": 4,
    "team_name": "関西大学",
    "team_short_name": "関大",
    "runner_name": "郡家",
    "total_distance_km": 775.1,
    "latitude": 34.454823656350165,
    "longitude": 133.2673862445568,
    "is_shadow_confederation": false
  },
  {
    "rank": 5,
    "team_name": "鹿児島大学",
    "team_short_name": "鹿大",
    "runner_name": "さつま柏原",
    "total_distance_km": 773.3,
    "latitude": 34.461809340990676,
    "longitude": 133.28505479664705,
    "is_shadow_confederation": false
  },
  {
    "rank": 6,
    "team_name": "四国大学",
    "team_short_name": "四国",
    "runner_name": "江川崎",
    "total_distance_km": 772.2,
    "latitude": 34.46653648080767,
    "longitude": 133.29557303720563,
    "is_shadow_confederation": false
  },
  {
    "rank": 7,
    "team_name": "熊本学園大学",
    "team_short_name": "熊学",
    "runner_name": "三角",
    "total_distance_km": 770.9,
    "latitude": 34.47374517724383,
    "longitude": 133.30668054497505,
    "is_shadow_confederation": false
  },
  {
    "rank": 8,
    "team_name": "広島経済大学",
    "team_short_name": "広経",
    "runner_name": "引田",
    "total_distance_km": 768.3,
    "latitude": 34.484564724294955,
    "longitude": 133.32995161847992,
    "is_shadow_confederation": false
  },
  {
    "rank": 9,
    "team_name": "立命館大学",
    "team_short_name": "立命",
    "runner_name": "京都",
    "total_distance_km": 765.6,
    "latitude": 34.485305488348686,
    "longitude": 133.35791902181643,
    "is_shadow_confederation": false
  },
  {
    "rank": 10,
    "team_name": "山梨学院大学",
    "team_short_name": "山学",
    "runner_name": "三島",
    "total_distance_km": 757.6,
    "latitude": 34.498349416137536,
    "longitude": 133.43837909157185,
    "is_shadow_confederation": false
  },
  {
    "rank": 11,
    "team_name": "三重大学",
    "team_short_name": "三重",
    "runner_name": "津",
    "total_distance_km": 755.9,
    "latitude": 34.503344118305684,
    "longitude": 133.45473634143258,
    "is_shadow_confederation": false
  },
  {
    "rank": 12,
    "team_name": "日本大学",
    "team_short_name": "日大",
    "runner_name": "練馬",
    "total_distance_km": 750.9,
    "latitude": 34.50487776882251,
    "longitude": 133.50355576354042,
    "is_shadow_confederation": false
  },
  {
    "rank": 13,
    "team_name": "鳥取大学",
    "team_short_name": "鳥取",
    "runner_name": "米子",
    "total_distance_km": 750.7,
    "latitude": 34.50333508665817,
    "longitude": 133.50455463573346,
    "is_shadow_confederation": false
  },
  {
    "rank": 14,
    "team_name": "上武大学",
    "team_short_name": "上武",
    "runner_name": "小山",
    "total_distance_km": 737.8,
    "latitude": 34.5365656145749,
    "longitude": 133.62978790034967,
    "is_shadow_confederation": false
  },
  {
    "rank": 15,
    "team_name": "金沢大学",
    "team_short_name": "金沢",
    "runner_name": "敦賀",
    "total_distance_km": 736.0,
    "latitude": 34.54272779650355,
    "longitude": 133.64735581967065,
    "is_shadow_confederation": false
  },
  {
    "rank": 16,
    "team_name": "福島大学",
    "team_short_name": "福島",
    "runner_name": "寺泊",
    "total_distance_km": 718.4,
    "latitude": 34.62639796587969,
    "longitude": 133.7986021400976,
    "is_shadow_confederation": false
  },
  {
    "rank": 17,
    "team_name": "学連選抜",
    "team_short_name": "学連",
    "runner_name": "加世田",
    "total_distance_km": 715.6,
    "latitude": 34.639154833497685,
    "longitude": 133.8247396864285,
    "is_shadow_confederation": false
  },
  {
    "rank": 18,
    "team_name": "東北大学",
    "team_short_name": "東北",
    "runner_name": "丸森",
    "total_distance_km": 658.9,
    "latitude": 34.83643456304576,
    "longitude": 134.34485081465576,
    "is_shadow_confederation": false
  },
  {
    "rank": null,
    "team_name": "区間記録連合",
    "team_short_name": "区間記録",
    "runner_name": "西脇",
    "total_distance_km": 803.8,
    "latitude": 34.39859035271189,
    "longitude": 133.0239581239643,
    "is_shadow_confederation": true
  }
]