[
  {
    "rank": 1,
    "team_name": "四国大学",
    "team_short_name": "四国",
    "runner_name": "穴吹",
    "total_distance_km": 108.2,
    "latitude": 35.151295344494855,
    "longitude": 138.9909176672332
  },
  {
    "rank": 2,
    "team_name": "名古屋大学",
    "team_short_name": "名大",
    "runner_name": "美濃加茂",
    "total_distance_km": 106.8,
    "latitude": 35.16033523235405,
    "longitude": 138.99802846180413
  },
  {
    "rank": 3,
    "team_name": "立命館大学",
    "team_short_name": "立命",
    "runner_name": "東近江",
    "total_distance_km": 105.1,
    "latitude": 35.169490157049005,
    "longitude": 139.00954112638732
  },
  {
    "rank": 4,
    "team_name": "上武大学",
    "team_short_name": "上武",
    "runner_name": "佐野",
    "total_distance_km": 104.8,
    "latitude": 35.17096457745313,
    "longitude": 139.0122451750374
  },
  {
    "rank": 5,
    "team_name": "金沢大学",
    "team_short_name": "金沢",
    "runner_name": "秋ヶ島",
    "total_distance_km": 104.5,
    "latitude": 35.171860551402915,
    "longitude": 139.0101705747441
  },
  {
    "rank": 6,
    "team_name": "日本大学",
    "team_short_name": "日大",
    "runner_name": "大子",
    "total_distance_km": 104.3,
    "latitude": 35.17186005659459,
    "longitude": 139.00797511018357
  },
  {
    "rank": 7,
    "team_name": "関西大学",
    "team_short_name": "関大",
    "runner_name": "福崎",
    "total_distance_km": 103.5,
    "latitude": 35.174385990043014,
    "longitude": 139.01256985539254
  },
  {
    "rank": 8,
    "team_name": "三重大学",
    "team_short_name": "三重",
    "runner_name": "粥見",
    "total_distance_km": 103.2,
    "latitude": 35.176090598834705,
    "longitude": 139.01456324023258
  },
  {
    "rank": 9,
    "team_name": "熊本学園大学",
    "team_short_name": "熊学",
    "runner_name": "甲佐",
    "total_distance_km": 101.6,
    "latitude": 35.18426333327235,
    "longitude": 139.02123628223072
  },
  {
    "rank": 10,
    "team_name": "福島大学",
    "team_short_name": "福島",
    "runner_name": "梁川",
    "total_distance_km": 101.4,
    "latitude": 35.18469717936242,
    "longitude": 139.0233675458158
  },
  {
    "rank": 11,
    "team_name": "山梨学院大学",
    "team_short_name": "山学",
    "runner_name": "長野",
    "total_distance_km": 100.0,
    "latitude": 35.1869906786533,
    "longitude": 139.03581233422685
  },
  {
    "rank": 12,
    "team_name": "福岡大学",
    "team_short_name": "福岡",
    "runner_name": "久留米",
    "total_distance_km": 99.5,
    "latitude": 35.188419444536926,
    "longitude": 139.04088592252683
  },
  {
    "rank": 12,
    "team_name": "広島経済大学",
    "team_short_name": "広経",
    "runner_name": "三次",
    "total_distance_km": 99.5,
    "latitude": 35.188419444536926,
    "longitude": 139.04088592252683
  },
  {
    "rank": 14,
    "team_name": "琉球大学",
    "team_short_name": "琉球",
    "runner_name": "北原",
    "total_distance_km": 97.5,
    "latitude": 35.20102030940545,
    "longitude": 139.0539321472523
  },
  {
    "rank": 15,
    "team_name": "鳥取大学",
    "team_short_name": "鳥取",
    "runner_name": "川本",
    "total_distance_km": 96.3,
    "latitude": 35.21019789949849,
    "longitude": 139.05922244103164
  },
  {
    "rank": 16,
    "team_name": "鹿児島大学",
    "team_short_name": "鹿大",
    "runner_name": "東市来",
    "total_distance_km": 96.1,
    "latitude": 35.20857443444586,
    "longitude": 139.0600931961743
  },
  {
    "rank": 17,
    "team_name": "東北大学",
    "team_short_name": "東北",
    "runner_name": "帯広",
    "total_distance_km": 74.5,
    "latitude": 35.29327455211698,
    "longitude": 139.24450568774986
  },
  {
    "rank": 18,
    "team_name": "学連選抜",
    "team_short_name": "学連",
    "runner_name": "美幌",
    "total_distance_km": 67.8,
    "latitude": 35.30773352566165,
    "longitude": 139.31433857853855
  }
]