[
  {
    "rank": 1,
    "team_name": "琉球大学",
    "team_short_name": "琉球",
    "runner_name": "西表島",
    "total_distance_km": 775.3,
    "latitude": 34.45419234939664,
    "longitude": 133.26536610279558,
    "is_shadow_confederation": false
  },
  {
    "rank": 2,
    "team_name": "熊本学園大学",
    "team_short_name": "熊学",
    "runner_name": "犬飼",
    "total_distance_km": 724.7,
    "latitude": 34.58907116478946,
    "longitude": 133.7483329320423,
    "is_shadow_confederation": false
  },
  {
    "rank": 3,
    "team_name": "鹿児島大学",
    "team_short_name": "鹿大",
    "runner_name": "鹿児島",
    "total_distance_km": 709.8,
    "latitude": 34.64887562951703,
    "longitude": 133.88447222895567,
    "is_shadow_confederation": false
  },
  {
    "rank": 4,
    "team_name": "福岡大学",
    "team_short_name": "福岡",
    "runner_name": "口之津",
    "total_distance_km": 709.2,
    "latitude": 34.65048203620995,
    "longitude": 133.8906481786658,
    "is_shadow_confederation": false
  },
  {
    "rank": 5,
    "team_name": "名古屋大学",
    "team_short_name": "名大",
    "runner_name": "名古屋",
    "total_distance_km": 708.3,
    "latitude": 34.65384670755907,
    "longitude": 133.89957801602966,
    "is_shadow_confederation": false
  },
  {
    "rank": 6,
    "team_name": "関西大学",
    "team_short_name": "関大",
    "runner_name": "八尾（大阪）",
    "total_distance_km": 705.8,
    "latitude": 34.65617826871942,
    "longitude": 133.92631046596867,
    "is_shadow_confederation": false
  },
  {
    "rank": 7,
    "team_name": "四国大学",
    "team_short_name": "四国",
    "runner_name": "新居浜",
    "total_distance_km": 698.4,
    "latitude": 34.6832154225492,
    "longitude": 133.99420399367042,
    "is_shadow_confederation": false
  },
  {
    "rank": 8,
    "team_name": "立命館大学",
    "team_short_name": "立命",
    "runner_name": "長浜（滋賀）",
    "total_distance_km": 698.0,
    "latitude": 34.68531375004637,
    "longitude": 133.99775401256042,
    "is_shadow_confederation": false
  },
  {
    "rank": 9,
    "team_name": "広島経済大学",
    "team_short_name": "広経",
    "runner_name": "福山",
    "total_distance_km": 697.9,
    "latitude": 34.685838331920664,
    "longitude": 133.99864151728292,
    "is_shadow_confederation": false
  },
  {
    "rank": 10,
    "team_name": "鳥取大学",
    "team_short_name": "鳥取",
    "runner_name": "米子",
    "total_distance_km": 697.7,
    "latitude": 34.68688749566925,
    "longitude": 134.00041652672795,
    "is_shadow_confederation": false
  },
  {
    "rank": 11,
    "team_name": "上武大学",
    "team_short_name": "上武",
    "runner_name": "小山",
    "total_distance_km": 685.7,
    "latitude": 34.72725510017653,
    "longitude": 134.11312929363936,
    "is_shadow_confederation": false
  },
  {
    "rank": 12,
    "team_name": "三重大学",
    "team_short_name": "三重",
    "runner_name": "津",
    "total_distance_km": 683.6,
    "latitude": 34.73291085032815,
    "longitude": 134.13497152362586,
    "is_shadow_confederation": false
  },
  {
    "rank": 13,
    "team_name": "山梨学院大学",
    "team_short_name": "山学",
    "runner_name": "三島",
    "total_distance_km": 683.4,
    "latitude": 34.73359143311044,
    "longitude": 134.1369937498158,
    "is_shadow_confederation": false
  },
  {
    "rank": 14,
    "team_name": "金沢大学",
    "team_short_name": "金沢",
    "runner_name": "敦賀",
    "total_distance_km": 677.7,
    "latitude": 34.74883564038832,
    "longitude": 134.19614397276953,
    "is_shadow_confederation": false
  },
  {
    "rank": 15,
    "team_name": "日本大学",
    "team_short_name": "日大",
    "runner_name": "八王子",
    "total_distance_km": 653.8,
    "latitude": 34.82880403934951,
    "longitude": 134.39616126634488,
    "is_shadow_confederation": false
  },
  {
    "rank": 16,
    "team_name": "学連選抜",
    "team_short_name": "学連",
    "runner_name": "多度津",
    "total_distance_km": 630.9,
    "latitude": 34.84062850050686,
    "longitude": 134.62328490692124,
    "is_shadow_confederation": false
  },
  {
    "rank": 17,
    "team_name": "福島大学",
    "team_short_name": "福島",
    "runner_name": "浪江",
    "total_distance_km": 619.7,
    "latitude": 34.81949872051818,
    "longitude": 134.7381636992241,
    "is_shadow_confederation": false
  },
  {
    "rank": 18,
    "team_name": "東北大学",
    "team_short_name": "東北",
    "runner_name": "丸森",
    "total_distance_km": 611.3,
    "latitude": 34.7823671735741,
    "longitude": 134.8141963716458,
    "is_shadow_confederation": false
  }
]