[
  {
    "rank": 1,
    "team_name": "琉球大学",
    "team_short_name": "琉球",
    "runner_name": "大原",
    "total_distance_km": 957.2,
    "latitude": 34.07192913891195,
    "longitude": 131.76927590482842,
    "is_shadow_confederation": false
  },
  {
    "rank": 2,
    "team_name": "名古屋大学",
    "team_short_name": "名大",
    "runner_name": "揖斐川",
    "total_distance_km": 933.5,
    "latitude": 34.06642760918597,
    "longitude": 131.97671400637847,
    "is_shadow_confederation": false
  },
  {
    "rank": 3,
    "team_name": "福岡大学",
    "team_short_name": "福岡",
    "runner_name": "佐賀（佐賀）",
    "total_distance_km": 928.7,
    "latitude": 34.09257641486429,
    "longitude": 132.01592304853503,
    "is_shadow_confederation": false
  },
  {
    "rank": 4,
    "team_name": "鹿児島大学",
    "team_short_name": "鹿大",
    "runner_name": "喜入",
    "total_distance_km": 928.6,
    "latitude": 34.09285478110113,
    "longitude": 132.01695369952694,
    "is_shadow_confederation": false
  },
  {
    "rank": 5,
    "team_name": "熊本学園大学",
    "team_short_name": "熊学",
    "runner_name": "菊池",
    "total_distance_km": 921.7,
    "latitude": 34.100097726096976,
    "longitude": 132.0884410636429,
    "is_shadow_confederation": false
  },
  {
    "rank": 6,
    "team_name": "関西大学",
    "team_short_name": "関大",
    "runner_name": "西脇",
    "total_distance_km": 918.8,
    "latitude": 34.113175786675754,
    "longitude": 132.11476845390814,
    "is_shadow_confederation": false
  },
  {
    "rank": 7,
    "team_name": "四国大学",
    "team_short_name": "四国",
    "runner_name": "西条",
    "total_distance_km": 917.1,
    "latitude": 34.12171123656322,
    "longitude": 132.1296330229757,
    "is_shadow_confederation": false
  },
  {
    "rank": 8,
    "team_name": "広島経済大学",
    "team_short_name": "広経",
    "runner_name": "滝宮",
    "total_distance_km": 909.9,
    "latitude": 34.16480178009001,
    "longitude": 132.18098535848105,
    "is_shadow_confederation": false
  },
  {
    "rank": 9,
    "team_name": "立命館大学",
    "team_short_name": "立命",
    "runner_name": "園部",
    "total_distance_km": 909.8,
    "latitude": 34.16546746558392,
    "longitude": 132.18171670589535,
    "is_shadow_confederation": false
  },
  {
    "rank": 10,
    "team_name": "日本大学",
    "team_short_name": "日大",
    "runner_name": "海老名",
    "total_distance_km": 906.6,
    "latitude": 34.17088750355506,
    "longitude": 132.21167014687634,
    "is_shadow_confederation": false
  },
  {
    "rank": 11,
    "team_name": "山梨学院大学",
    "team_short_name": "山学",
    "runner_name": "佐久間",
    "total_distance_km": 901.2,
    "latitude": 34.207992052771964,
    "longitude": 132.22795017446396,
    "is_shadow_confederation": false
  },
  {
    "rank": 12,
    "team_name": "三重大学",
    "team_short_name": "三重",
    "runner_name": "上野",
    "total_distance_km": 899.9,
    "latitude": 34.219404392203266,
    "longitude": 132.22474156557863,
    "is_shadow_confederation": false
  },
  {
    "rank": 13,
    "team_name": "上武大学",
    "team_short_name": "上武",
    "runner_name": "館林",
    "total_distance_km": 891.3,
    "latitude": 34.279975537325036,
    "longitude": 132.2635091777636,
    "is_shadow_confederation": false
  },
  {
    "rank": 14,
    "team_name": "鳥取大学",
    "team_short_name": "鳥取",
    "runner_name": "津和野",
    "total_distance_km": 888.5,
    "latitude": 34.29526337026837,
    "longitude": 132.28612874518967,
    "is_shadow_confederation": false
  },
  {
    "rank": 15,
    "team_name": "金沢大学",
    "team_short_name": "金沢",
    "runner_name": "大野（福井）",
    "total_distance_km": 875.8,
    "latitude": 34.36815546543027,
    "longitude": 132.37620492612695,
    "is_shadow_confederation": false
  },
  {
    "rank": 16,
    "team_name": "学連選抜",
    "team_short_name": "学連",
    "runner_name": "飯塚",
    "total_distance_km": 862.6,
    "latitude": 34.370082669774,
    "longitude": 132.4994755968256,
    "is_shadow_confederation": false
  },
  {
    "rank": 17,
    "team_name": "福島大学",
    "team_short_name": "福島",
    "runner_name": "喜多方",
    "total_distance_km": 855.3,
    "latitude": 34.390923068805776,
    "longitude": 132.5648042836956,
    "is_shadow_confederation": false
  },
  {
    "rank": 18,
    "team_name": "東北大学",
    "team_short_name": "東北",
    "runner_name": "東根",
    "total_distance_km": 787.9,
    "latitude": 34.399400369296096,
    "longitude": 133.17489654327161,
    "is_shadow_confederation": false
  },
  {
    "rank": null,
    "team_name": "区間記録連合",
    "team_short_name": "区間記録",
    "runner_name": "豊中",
    "total_distance_km": 957.2,
    "latitude": 34.07192913891195,
    "longitude": 131.76927590482842,
    "is_shadow_confederation": true
  }
]