[
  {
    "rank": 1,
    "team_name": "琉球大学",
    "team_short_name": "琉球",
    "runner_name": "ゴール",
    "total_distance_km": 1057.8,
    "latitude": 33.950916,
    "longitude": 130.924104,
    "is_shadow_confederation": false
  },
  {
    "rank": 2,
    "team_name": "鹿児島大学",
    "team_short_name": "鹿大",
    "runner_name": "指宿",
    "total_distance_km": 972.3,
    "latitude": 34.04727962650034,
    "longitude": 131.63362111034792,
    "is_shadow_confederation": false
  },
  {
    "rank": 3,
    "team_name": "熊本学園大学",
    "team_short_name": "熊学",
    "runner_name": "菊池",
    "total_distance_km": 926.7,
    "latitude": 34.091193593177884,
    "longitude": 132.03668797420116,
    "is_shadow_confederation": false
  },
  {
    "rank": 4,
    "team_name": "福岡大学",
    "team_short_name": "福岡",
    "runner_name": "佐賀（佐賀）",
    "total_distance_km": 912.1,
    "latitude": 34.150045125847505,
    "longitude": 132.16888907349528,
    "is_shadow_confederation": false
  },
  {
    "rank": 5,
    "team_name": "四国大学",
    "team_short_name": "四国",
    "runner_name": "西条",
    "total_distance_km": 876.9,
    "latitude": 34.36543420027062,
    "longitude": 132.36472849278107,
    "is_shadow_confederation": false
  },
  {
    "rank": 6,
    "team_name": "広島経済大学",
    "team_short_name": "広経",
    "runner_name": "引田",
    "total_distance_km": 855.1,
    "latitude": 34.3923487940155,
    "longitude": 132.56613198543988,
    "is_shadow_confederation": false
  },
  {
    "rank": 7,
    "team_name": "関西大学",
    "team_short_name": "関大",
    "runner_name": "郡家",
    "total_distance_km": 842.7,
    "latitude": 34.446849246891595,
    "longitude": 132.65949402854903,
    "is_shadow_confederation": false
  },
  {
    "rank": 8,
    "team_name": "鳥取大学",
    "team_short_name": "鳥取",
    "runner_name": "玖珂",
    "total_distance_km": 839.1,
    "latitude": 34.43782595300003,
    "longitude": 132.69405939771394,
    "is_shadow_confederation": false
  },
  {
    "rank": 9,
    "team_name": "名古屋大学",
    "team_short_name": "名大",
    "runner_name": "大府",
    "total_distance_km": 836.3,
    "latitude": 34.42232353593882,
    "longitude": 132.71797024829527,
    "is_shadow_confederation": false
  },
  {
    "rank": 10,
    "team_name": "三重大学",
    "team_short_name": "三重",
    "runner_name": "和歌山",
    "total_distance_km": 828.1,
    "latitude": 34.399732172976755,
    "longitude": 132.797070438655,
    "is_shadow_confederation": false
  },
  {
    "rank": 11,
    "team_name": "立命館大学",
    "team_short_name": "立命",
    "runner_name": "京都",
    "total_distance_km": 795.8,
    "latitude": 34.39453747577585,
    "longitude": 133.10014886190484,
    "is_shadow_confederation": false
  },
  {
    "rank": 12,
    "team_name": "上武大学",
    "team_short_name": "上武",
    "runner_name": "前橋",
    "total_distance_km": 788.6,
    "latitude": 34.39778832761567,
    "longitude": 133.16757080698704,
    "is_shadow_confederation": false
  },
  {
    "rank": 13,
    "team_name": "日本大学",
    "team_short_name": "日大",
    "runner_name": "府中（東京）",
    "total_distance_km": 787.8,
    "latitude": 34.39967765436641,
    "longitude": 133.1759313811872,
    "is_shadow_confederation": false
  },
  {
    "rank": 14,
    "team_name": "金沢大学",
    "team_short_name": "金沢",
    "runner_name": "小松",
    "total_distance_km": 783.8,
    "latitude": 34.41130014054096,
    "longitude": 133.213296629956,
    "is_shadow_confederation": false
  },
  {
    "rank": 15,
    "team_name": "山梨学院大学",
    "team_short_name": "山学",
    "runner_name": "上田",
    "total_distance_km": 773.4,
    "latitude": 34.461399827401,
    "longitude": 133.28408592217883,
    "is_shadow_confederation": false
  },
  {
    "rank": 16,
    "team_name": "学連選抜",
    "team_short_name": "学連",
    "runner_name": "加世田",
    "total_distance_km": 750.4,
    "latitude": 34.50144452530646,
    "longitude": 133.50650760046628,
    "is_shadow_confederation": false
  },
  {
    "rank": 17,
    "team_name": "福島大学",
    "team_short_name": "福島",
    "runner_name": "寺泊",
    "total_distance_km": 692.6,
    "latitude": 34.70618766923899,
    "longitude": 134.04949900319474,
    "is_shadow_confederation": false
  },
  {
    "rank": 18,
    "team_name": "東北大学",
    "team_short_name": "東北",
    "runner_name": "丸森",
    "total_distance_km": 596.2,
    "latitude": 34.68870637713853,
    "longitude": 134.93026779893134,
    "is_shadow_confederation": false
  }
]