[
  {
    "rank": 1,
    "team_name": "琉球大学",
    "team_short_name": "琉球",
    "runner_name": "西表島",
    "total_distance_km": 776.8,
    "latitude": 34.44949929328488,
    "longitude": 133.25047395520684,
    "is_shadow_confederation": false
  },
  {
    "rank": 2,
    "team_name": "熊本学園大学",
    "team_short_name": "熊学",
    "runner_name": "犬飼",
    "total_distance_km": 729.7,
    "latitude": 34.57572169736461,
    "longitude": 133.7004062290043,
    "is_shadow_confederation": false
  },
  {
    "rank": 3,
    "team_name": "福岡大学",
    "team_short_name": "福岡",
    "runner_name": "口之津",
    "total_distance_km": 713.9,
    "latitude": 34.644667942814614,
    "longitude": 133.84203999651967,
    "is_shadow_confederation": false
  },
  {
    "rank": 4,
    "team_name": "鹿児島大学",
    "team_short_name": "鹿大",
    "runner_name": "鹿児島",
    "total_distance_km": 712.3,
    "latitude": 34.646012519497006,
    "longitude": 133.8591882826006,
    "is_shadow_confederation": false
  },
  {
    "rank": 5,
    "team_name": "名古屋大学",
    "team_short_name": "名大",
    "runner_name": "名古屋",
    "total_distance_km": 711.9,
    "latitude": 34.64436713747399,
    "longitude": 133.86251608646367,
    "is_shadow_confederation": false
  },
  {
    "rank": 6,
    "team_name": "関西大学",
    "team_short_name": "関大",
    "runner_name": "八尾（大阪）",
    "total_distance_km": 709.8,
    "latitude": 34.64887562951703,
    "longitude": 133.88447222895567,
    "is_shadow_confederation": false
  },
  {
    "rank": 7,
    "team_name": "鳥取大学",
    "team_short_name": "鳥取",
    "runner_name": "米子",
    "total_distance_km": 704.7,
    "latitude": 34.65601840267486,
    "longitude": 133.9383086753036,
    "is_shadow_confederation": false
  },
  {
    "rank": 8,
    "team_name": "広島経済大学",
    "team_short_name": "広経",
    "runner_name": "福山",
    "total_distance_km": 702.9,
    "latitude": 34.6683445689781,
    "longitude": 133.9497269360432,
    "is_shadow_confederation": false
  },
  {
    "rank": 9,
    "team_name": "四国大学",
    "team_short_name": "四国",
    "runner_name": "新居浜",
    "total_distance_km": 702.8,
    "latitude": 34.668722116848286,
    "longitude": 133.95071768246765,
    "is_shadow_confederation": false
  },
  {
    "rank": 10,
    "team_name": "立命館大学",
    "team_short_name": "立命",
    "runner_name": "長浜（滋賀）",
    "total_distance_km": 702.4,
    "latitude": 34.67033842265699,
    "longitude": 133.9545943225582,
    "is_shadow_confederation": false
  },
  {
    "rank": 11,
    "team_name": "上武大学",
    "team_short_name": "上武",
    "runner_name": "小山",
    "total_distance_km": 689.1,
    "latitude": 34.71158840993646,
    "longitude": 134.0860157345154,
    "is_shadow_confederation": false
  },
  {
    "rank": 12,
    "team_name": "山梨学院大学",
    "team_short_name": "山学",
    "runner_name": "三島",
    "total_distance_km": 688.5,
    "latitude": 34.7147124382127,
    "longitude": 134.09083563635554,
    "is_shadow_confederation": false
  },
  {
    "rank": 13,
    "team_name": "三重大学",
    "team_short_name": "三重",
    "runner_name": "津",
    "total_distance_km": 684.9,
    "latitude": 34.72913988942102,
    "longitude": 134.12156035630522,
    "is_shadow_confederation": false
  },
  {
    "rank": 14,
    "team_name": "金沢大学",
    "team_short_name": "金沢",
    "runner_name": "敦賀",
    "total_distance_km": 682.0,
    "latitude": 34.73775928320468,
    "longitude": 134.15134575965783,
    "is_shadow_confederation": false
  },
  {
    "rank": 15,
    "team_name": "日本大学",
    "team_short_name": "日大",
    "runner_name": "八王子",
    "total_distance_km": 659.3,
    "latitude": 34.838603476348204,
    "longitude": 134.34137728298728,
    "is_shadow_confederation": false
  },
  {
    "rank": 16,
    "team_name": "学連選抜",
    "team_short_name": "学連",
    "runner_name": "多度津",
    "total_distance_km": 632.3,
    "latitude": 34.830527493661705,
    "longitude": 134.6188702055233,
    "is_shadow_confederation": false
  },
  {
    "rank": 17,
    "team_name": "福島大学",
    "team_short_name": "福島",
    "runner_name": "浪江",
    "total_distance_km": 623.5,
    "latitude": 34.83198075228537,
    "longitude": 134.69963646504786,
    "is_shadow_confederation": false
  },
  {
    "rank": 18,
    "team_name": "東北大学",
    "team_short_name": "東北",
    "runner_name": "丸森",
    "total_distance_km": 617.0,
    "latitude": 34.80286490344372,
    "longitude": 134.75954006292707,
    "is_shadow_confederation": false
  }
]