[
  {
    "rank": 1,
    "team_name": "福岡大学",
    "team_short_name": "福岡",
    "runner_name": "久留米",
    "total_distance_km": 57.7,
    "latitude": 35.318177032398005,
    "longitude": 139.4190942291116,
    "is_shadow_confederation": false
  },
  {
    "rank": 2,
    "team_name": "熊本学園大学",
    "team_short_name": "熊学",
    "runner_name": "甲佐",
    "total_distance_km": 55.6,
    "latitude": 35.32447604993152,
    "longitude": 139.43990792498067,
    "is_shadow_confederation": false
  },
  {
    "rank": 3,
    "team_name": "鹿児島大学",
    "team_short_name": "鹿大",
    "runner_name": "東市来",
    "total_distance_km": 54.7,
    "latitude": 35.3267489255801,
    "longitude": 139.44934008653507,
    "is_shadow_confederation": false
  },
  {
    "rank": 4,
    "team_name": "金沢大学",
    "team_short_name": "金沢",
    "runner_name": "秋ヶ島",
    "total_distance_km": 54.0,
    "latitude": 35.32910818215653,
    "longitude": 139.45629602279786,
    "is_shadow_confederation": false
  },
  {
    "rank": 5,
    "team_name": "上武大学",
    "team_short_name": "上武",
    "runner_name": "佐野",
    "total_distance_km": 53.9,
    "latitude": 35.329632886829486,
    "longitude": 139.45719032345676,
    "is_shadow_confederation": false
  },
  {
    "rank": 6,
    "team_name": "福島大学",
    "team_short_name": "福島",
    "runner_name": "梁川",
    "total_distance_km": 53.6,
    "latitude": 35.33120700084837,
    "longitude": 139.45987322543345,
    "is_shadow_confederation": false
  },
  {
    "rank": 7,
    "team_name": "立命館大学",
    "team_short_name": "立命",
    "runner_name": "東近江",
    "total_distance_km": 53.2,
    "latitude": 35.333305819540215,
    "longitude": 139.46345042806908,
    "is_shadow_confederation": false
  },
  {
    "rank": 8,
    "team_name": "琉球大学",
    "team_short_name": "琉球",
    "runner_name": "北原",
    "total_distance_km": 52.4,
    "latitude": 35.334567015818386,
    "longitude": 139.4715057199062,
    "is_shadow_confederation": false
  },
  {
    "rank": 9,
    "team_name": "鳥取大学",
    "team_short_name": "鳥取",
    "runner_name": "川本",
    "total_distance_km": 52.2,
    "latitude": 35.33547906957131,
    "longitude": 139.47327933997934,
    "is_shadow_confederation": false
  },
  {
    "rank": 10,
    "team_name": "日本大学",
    "team_short_name": "日大",
    "runner_name": "大子",
    "total_distance_km": 52.0,
    "latitude": 35.33663719836943,
    "longitude": 139.4749651753383,
    "is_shadow_confederation": false
  },
  {
    "rank": 11,
    "team_name": "名古屋大学",
    "team_short_name": "名大",
    "runner_name": "美濃加茂",
    "total_distance_km": 50.8,
    "latitude": 35.34389843391366,
    "longitude": 139.48402066808526,
    "is_shadow_confederation": false
  },
  {
    "rank": 12,
    "team_name": "広島経済大学",
    "team_short_name": "広経",
    "runner_name": "三次",
    "total_distance_km": 50.7,
    "latitude": 35.34445074153804,
    "longitude": 139.4848879981103,
    "is_shadow_confederation": false
  },
  {
    "rank": 13,
    "team_name": "関西大学",
    "team_short_name": "関大",
    "runner_name": "福崎",
    "total_distance_km": 50.5,
    "latitude": 35.34553076234349,
    "longitude": 139.4866495470111,
    "is_shadow_confederation": false
  },
  {
    "rank": 14,
    "team_name": "四国大学",
    "team_short_name": "四国",
    "runner_name": "穴吹",
    "total_distance_km": 49.8,
    "latitude": 35.350764222069735,
    "longitude": 139.49076221350862,
    "is_shadow_confederation": false
  },
  {
    "rank": 15,
    "team_name": "山梨学院大学",
    "team_short_name": "山学",
    "runner_name": "長野",
    "total_distance_km": 49.7,
    "latitude": 35.35166541258049,
    "longitude": 139.4907816414275,
    "is_shadow_confederation": false
  },
  {
    "rank": 16,
    "team_name": "三重大学",
    "team_short_name": "三重",
    "runner_name": "粥見",
    "total_distance_km": 47.1,
    "latitude": 35.372859203055945,
    "longitude": 139.50251793878218,
    "is_shadow_confederation": false
  },
  {
    "rank": 17,
    "team_name": "東北大学",
    "team_short_name": "東北",
    "runner_name": "帯広",
    "total_distance_km": 33.9,
    "latitude": 35.44452653015909,
    "longitude": 139.59304738863284,
    "is_shadow_confederation": false
  },
  {
    "rank": 18,
    "team_name": "学連選抜",
    "team_short_name": "学連",
    "runner_name": "美幌",
    "total_distance_km": 20.9,
    "latitude": 35.52022224394683,
    "longitude": 139.69049887953744,
    "is_shadow_confederation": false
  }
]