[
  {
    "rank": 1,
    "team_name": "琉球大学",
    "team_short_name": "琉球",
    "runner_name": "仲筋",
    "total_distance_km": 208.1,
    "latitude": 34.834260784268814,
    "longitude": 138.11733447201752,
    "is_shadow_confederation": false
  },
  {
    "rank": 2,
    "team_name": "鹿児島大学",
    "team_short_name": "鹿大",
    "runner_name": "川内（鹿児島）",
    "total_distance_km": 147.2,
    "latitude": 35.11564756600044,
    "longitude": 138.61773487191653,
    "is_shadow_confederation": false
  },
  {
    "rank": 3,
    "team_name": "熊本学園大学",
    "team_short_name": "熊学",
    "runner_name": "岱明",
    "total_distance_km": 144.5,
    "latitude": 35.129553053310595,
    "longitude": 138.6365636916084,
    "is_shadow_confederation": false
  },
  {
    "rank": 4,
    "team_name": "福岡大学",
    "team_short_name": "福岡",
    "runner_name": "福岡",
    "total_distance_km": 133.6,
    "latitude": 35.13446295955065,
    "longitude": 138.7489217198113,
    "is_shadow_confederation": false
  },
  {
    "rank": 5,
    "team_name": "名古屋大学",
    "team_short_name": "名大",
    "runner_name": "美濃",
    "total_distance_km": 120.3,
    "latitude": 35.10476894192056,
    "longitude": 138.8835147307976,
    "is_shadow_confederation": false
  },
  {
    "rank": 6,
    "team_name": "四国大学",
    "team_short_name": "四国",
    "runner_name": "大三島",
    "total_distance_km": 119.0,
    "latitude": 35.10873670968752,
    "longitude": 138.89643650000934,
    "is_shadow_confederation": false
  },
  {
    "rank": 7,
    "team_name": "上武大学",
    "team_short_name": "上武",
    "runner_name": "越谷",
    "total_distance_km": 117.0,
    "latitude": 35.119130321627004,
    "longitude": 138.91371398283042,
    "is_shadow_confederation": false
  },
  {
    "rank": 8,
    "team_name": "三重大学",
    "team_short_name": "三重",
    "runner_name": "五條",
    "total_distance_km": 116.7,
    "latitude": 35.11967167170415,
    "longitude": 138.91693845797312,
    "is_shadow_confederation": false
  },
  {
    "rank": 9,
    "team_name": "日本大学",
    "team_short_name": "日大",
    "runner_name": "古河",
    "total_distance_km": 114.4,
    "latitude": 35.127179378913475,
    "longitude": 138.93981135069342,
    "is_shadow_confederation": false
  },
  {
    "rank": 10,
    "team_name": "関西大学",
    "team_short_name": "関大",
    "runner_name": "和田山",
    "total_distance_km": 102.9,
    "latitude": 35.17820295711322,
    "longitude": 139.01439645268948,
    "is_shadow_confederation": false
  },
  {
    "rank": 11,
    "team_name": "広島経済大学",
    "team_short_name": "広経",
    "runner_name": "三次",
    "total_distance_km": 98.7,
    "latitude": 35.19203207465343,
    "longitude": 139.0476224480491,
    "is_shadow_confederation": false
  },
  {
    "rank": 12,
    "team_name": "鳥取大学",
    "team_short_name": "鳥取",
    "runner_name": "川本",
    "total_distance_km": 98.6,
    "latitude": 35.192729985369795,
    "longitude": 139.0483173022222,
    "is_shadow_confederation": false
  },
  {
    "rank": 13,
    "team_name": "立命館大学",
    "team_short_name": "立命",
    "runner_name": "東近江",
    "total_distance_km": 98.4,
    "latitude": 35.193908163410754,
    "longitude": 139.04995505301332,
    "is_shadow_confederation": false
  },
  {
    "rank": 14,
    "team_name": "福島大学",
    "team_short_name": "福島",
    "runner_name": "梁川",
    "total_distance_km": 96.8,
    "latitude": 35.20650903358518,
    "longitude": 139.05754427531647,
    "is_shadow_confederation": false
  },
  {
    "rank": 15,
    "team_name": "金沢大学",
    "team_short_name": "金沢",
    "runner_name": "秋ヶ島",
    "total_distance_km": 77.1,
    "latitude": 35.28201378567585,
    "longitude": 139.21982572067836,
    "is_shadow_confederation": false
  },
  {
    "rank": 16,
    "team_name": "山梨学院大学",
    "team_short_name": "山学",
    "runner_name": "長野",
    "total_distance_km": 70.1,
    "latitude": 35.30392618640815,
    "longitude": 139.28999147168736,
    "is_shadow_confederation": false
  },
  {
    "rank": 17,
    "team_name": "東北大学",
    "team_short_name": "東北",
    "runner_name": "帯広",
    "total_distance_km": 61.8,
    "latitude": 35.320175049475495,
    "longitude": 139.37556626544074,
    "is_shadow_confederation": false
  },
  {
    "rank": 18,
    "team_name": "学連選抜",
    "team_short_name": "学連",
    "runner_name": "美幌",
    "total_distance_km": 11.4,
    "latitude": 35.59342823238912,
    "longitude": 139.73622482660178,
    "is_shadow_confederation": false
  },
  {
    "rank": null,
    "team_name": "区間記録連合",
    "team_short_name": "区間記録",
    "runner_name": "佐野",
    "total_distance_km": 298.8,
    "latitude": 34.833095158153796,
    "longitude": 137.32948815963522,
    "is_shadow_confederation": true
  }
]