[
  {
    "rank": 1,
    "team_name": "琉球大学",
    "team_short_name": "琉球",
    "runner_name": "仲筋",
    "total_distance_km": 215.3,
    "latitude": 34.79957455228754,
    "longitude": 138.07527448945967,
    "current_leg": 3,
    "is_shadow_confederation": false
  },
  {
    "rank": 2,
    "team_name": "名古屋大学",
    "team_short_name": "名大",
    "runner_name": "美濃",
    "total_distance_km": 201.1,
    "latitude": 34.84874924237696,
    "longitude": 138.1866968327928,
    "current_leg": 2,
    "is_shadow_confederation": false
  },
  {
    "rank": 3,
    "team_name": "山梨学院大学",
    "team_short_name": "山学",
    "runner_name": "南信濃",
    "total_distance_km": 190.0,
    "latitude": 34.902033806781084,
    "longitude": 138.28405294450297,
    "current_leg": 2,
    "is_shadow_confederation": false
  },
  {
    "rank": 4,
    "team_name": "三重大学",
    "team_short_name": "三重",
    "runner_name": "五條",
    "total_distance_km": 188.6,
    "latitude": 34.91344808651929,
    "longitude": 138.28972262437233,
    "current_leg": 2,
    "is_shadow_confederation": false
  },
  {
    "rank": 5,
    "team_name": "金沢大学",
    "team_short_name": "金沢",
    "runner_name": "小浜",
    "total_distance_km": 187.2,
    "latitude": 34.92379003712317,
    "longitude": 138.2956605565721,
    "current_leg": 2,
    "is_shadow_confederation": false
  },
  {
    "rank": 6,
    "team_name": "上武大学",
    "team_short_name": "上武",
    "runner_name": "越谷",
    "total_distance_km": 186.3,
    "latitude": 34.92847023354249,
    "longitude": 138.3022593111996,
    "current_leg": 2,
    "is_shadow_confederation": false
  },
  {
    "rank": 7,
    "team_name": "福岡大学",
    "team_short_name": "福岡",
    "runner_name": "福岡",
    "total_distance_km": 185.8,
    "latitude": 34.932431913991856,
    "longitude": 138.30475772053077,
    "current_leg": 2,
    "is_shadow_confederation": false
  },
  {
    "rank": 8,
    "team_name": "日本大学",
    "team_short_name": "日大",
    "runner_name": "古河",
    "total_distance_km": 185.4,
    "latitude": 34.9354657022143,
    "longitude": 138.3071236444641,
    "current_leg": 2,
    "is_shadow_confederation": false
  },
  {
    "rank": 9,
    "team_name": "立命館大学",
    "team_short_name": "立命",
    "runner_name": "福知山",
    "total_distance_km": 185.1,
    "latitude": 34.937631975422825,
    "longitude": 138.30900470601875,
    "current_leg": 2,
    "is_shadow_confederation": false
  },
  {
    "rank": 10,
    "team_name": "熊本学園大学",
    "team_short_name": "熊学",
    "runner_name": "岱明",
    "total_distance_km": 184.6,
    "latitude": 34.938879634411606,
    "longitude": 138.31421444631903,
    "current_leg": 2,
    "is_shadow_confederation": false
  },
  {
    "rank": 11,
    "team_name": "鹿児島大学",
    "team_short_name": "鹿大",
    "runner_name": "川内（鹿児島）",
    "total_distance_km": 182.8,
    "latitude": 34.94633621171919,
    "longitude": 138.33026009352395,
    "current_leg": 2,
    "is_shadow_confederation": false
  },
  {
    "rank": 12,
    "team_name": "鳥取大学",
    "team_short_name": "鳥取",
    "runner_name": "鳥取",
    "total_distance_km": 182.2,
    "latitude": 34.950918704489965,
    "longitude": 138.33325768503633,
    "current_leg": 2,
    "is_shadow_confederation": false
  },
  {
    "rank": 13,
    "team_name": "関西大学",
    "team_short_name": "関大",
    "runner_name": "和田山",
    "total_distance_km": 181.0,
    "latitude": 34.94923227854757,
    "longitude": 138.34605256436652,
    "current_leg": 2,
    "is_shadow_confederation": false
  },
  {
    "rank": 14,
    "team_name": "四国大学",
    "team_short_name": "四国",
    "runner_name": "大三島",
    "total_distance_km": 180.6,
    "latitude": 34.94863933454064,
    "longitude": 138.35037195461607,
    "current_leg": 2,
    "is_shadow_confederation": false
  },
  {
    "rank": 15,
    "team_name": "広島経済大学",
    "team_short_name": "広経",
    "runner_name": "加計",
    "total_distance_km": 174.5,
    "latitude": 34.97900793769969,
    "longitude": 138.40231396847892,
    "current_leg": 2,
    "is_shadow_confederation": false
  },
  {
    "rank": 16,
    "team_name": "福島大学",
    "team_short_name": "福島",
    "runner_name": "石川",
    "total_distance_km": 158.9,
    "latitude": 35.057216360227926,
    "longitude": 138.5324367945212,
    "current_leg": 2,
    "is_shadow_confederation": false
  },
  {
    "rank": 17,
    "team_name": "東北大学",
    "team_short_name": "東北",
    "runner_name": "山形（山形）",
    "total_distance_km": 152.8,
    "latitude": 35.10619716646251,
    "longitude": 138.5592172495859,
    "current_leg": 2,
    "is_shadow_confederation": false
  },
  {
    "rank": 18,
    "team_name": "学連選抜",
    "team_short_name": "学連",
    "runner_name": "新潟",
    "total_distance_km": 148.0,
    "latitude": 35.11598263180133,
    "longitude": 138.6089685010933,
    "current_leg": 2,
    "is_shadow_confederation": false
  },
  {
    "rank": null,
    "team_name": "区間記録連合",
    "team_short_name": "区間記録",
    "runner_name": "佐野",
    "total_distance_km": 210,
    "latitude": 34.81916059387504,
    "longitude": 138.11636668058773,
    "current_leg": 3,
    "is_shadow_confederation": true
  }
]