[
  {
    "rank": 1,
    "team_name": "琉球大学",
    "team_short_name": "琉球",
    "runner_name": "那覇",
    "total_distance_km": 668.6,
    "latitude": 34.79866184437272,
    "longitude": 134.26963235681401,
    "is_shadow_confederation": false
  },
  {
    "rank": 2,
    "team_name": "鹿児島大学",
    "team_short_name": "鹿大",
    "runner_name": "笠利",
    "total_distance_km": 575.6,
    "latitude": 34.64826082506664,
    "longitude": 135.1209639732032,
    "is_shadow_confederation": false
  },
  {
    "rank": 3,
    "team_name": "熊本学園大学",
    "team_short_name": "熊学",
    "runner_name": "大分",
    "total_distance_km": 575.5,
    "latitude": 34.64872834682649,
    "longitude": 135.12189659066405,
    "is_shadow_confederation": false
  },
  {
    "rank": 4,
    "team_name": "福岡大学",
    "team_short_name": "福岡",
    "runner_name": "博多",
    "total_distance_km": 546.4,
    "latitude": 34.723661113276115,
    "longitude": 135.40493663422197,
    "is_shadow_confederation": false
  },
  {
    "rank": 5,
    "team_name": "四国大学",
    "team_short_name": "四国",
    "runner_name": "大洲",
    "total_distance_km": 526.3,
    "latitude": 34.744308996164776,
    "longitude": 135.57140788354224,
    "is_shadow_confederation": false
  },
  {
    "rank": 6,
    "team_name": "広島経済大学",
    "team_short_name": "広経",
    "runner_name": "高梁",
    "total_distance_km": 506.9,
    "latitude": 34.861539892763794,
    "longitude": 135.71800682412152,
    "is_shadow_confederation": false
  },
  {
    "rank": 7,
    "team_name": "名古屋大学",
    "team_short_name": "名大",
    "runner_name": "多治見",
    "total_distance_km": 495.4,
    "latitude": 34.95769714833827,
    "longitude": 135.7457295898633,
    "is_shadow_confederation": false
  },
  {
    "rank": 8,
    "team_name": "鳥取大学",
    "team_short_name": "鳥取",
    "runner_name": "境",
    "total_distance_km": 493.7,
    "latitude": 34.97301115466809,
    "longitude": 135.74605757739457,
    "is_shadow_confederation": false
  },
  {
    "rank": 9,
    "team_name": "関西大学",
    "team_short_name": "関大",
    "runner_name": "枚方",
    "total_distance_km": 491.0,
    "latitude": 34.991278205366726,
    "longitude": 135.75301305370618,
    "is_shadow_confederation": false
  },
  {
    "rank": 10,
    "team_name": "立命館大学",
    "team_short_name": "立命",
    "runner_name": "舞鶴",
    "total_distance_km": 483.2,
    "latitude": 34.992657567104395,
    "longitude": 135.80682297132785,
    "is_shadow_confederation": false
  },
  {
    "rank": 11,
    "team_name": "三重大学",
    "team_short_name": "三重",
    "runner_name": "奈良",
    "total_distance_km": 476.8,
    "latitude": 35.002140123856094,
    "longitude": 135.86580223690515,
    "is_shadow_confederation": false
  },
  {
    "rank": 12,
    "team_name": "日本大学",
    "team_short_name": "日大",
    "runner_name": "牛久",
    "total_distance_km": 466.9,
    "latitude": 35.00139634915181,
    "longitude": 135.94922550331438,
    "is_shadow_confederation": false
  },
  {
    "rank": 13,
    "team_name": "上武大学",
    "team_short_name": "上武",
    "runner_name": "桐生",
    "total_distance_km": 463.0,
    "latitude": 35.02234415461378,
    "longitude": 135.98171893571396,
    "is_shadow_confederation": false
  },
  {
    "rank": 14,
    "team_name": "金沢大学",
    "team_short_name": "金沢",
    "runner_name": "福井",
    "total_distance_km": 460.7,
    "latitude": 35.02986746472402,
    "longitude": 136.0048457146741,
    "is_shadow_confederation": false
  },
  {
    "rank": 15,
    "team_name": "山梨学院大学",
    "team_short_name": "山学",
    "runner_name": "甲府",
    "total_distance_km": 442.4,
    "latitude": 34.96773937601866,
    "longitude": 136.18187116963978,
    "is_shadow_confederation": false
  },
  {
    "rank": 16,
    "team_name": "福島大学",
    "team_short_name": "福島",
    "runner_name": "長岡",
    "total_distance_km": 404.2,
    "latitude": 34.87716986427196,
    "longitude": 136.50560332647663,
    "is_shadow_confederation": false
  },
  {
    "rank": 17,
    "team_name": "学連選抜",
    "team_short_name": "学連",
    "runner_name": "上",
    "total_distance_km": 396.7,
    "latitude": 34.914623246702256,
    "longitude": 136.561861638417,
    "is_shadow_confederation": false
  },
  {
    "rank": 18,
    "team_name": "東北大学",
    "team_short_name": "東北",
    "runner_name": "大館",
    "total_distance_km": 341.9,
    "latitude": 35.064373516820396,
    "longitude": 136.9720000996047,
    "is_shadow_confederation": false
  }
]