[
  {
    "rank": 1,
    "team_name": "琉球大学",
    "team_short_name": "琉球",
    "runner_name": "北原",
    "total_distance_km": 101.2,
    "latitude": 35.184343054203,
    "longitude": 139.02528665530548,
    "is_shadow_confederation": false
  },
  {
    "rank": 2,
    "team_name": "鹿児島大学",
    "team_short_name": "鹿大",
    "runner_name": "東市来",
    "total_distance_km": 72.5,
    "latitude": 35.300324912359194,
    "longitude": 139.26471421879032,
    "is_shadow_confederation": false
  },
  {
    "rank": 3,
    "team_name": "熊本学園大学",
    "team_short_name": "熊学",
    "runner_name": "甲佐",
    "total_distance_km": 66.7,
    "latitude": 35.311676002741144,
    "longitude": 139.32326129960634,
    "is_shadow_confederation": false
  },
  {
    "rank": 4,
    "team_name": "福岡大学",
    "team_short_name": "福岡",
    "runner_name": "久留米",
    "total_distance_km": 64.1,
    "latitude": 35.31592763101047,
    "longitude": 139.35101050479227,
    "is_shadow_confederation": false
  },
  {
    "rank": 5,
    "team_name": "三重大学",
    "team_short_name": "三重",
    "runner_name": "粥見",
    "total_distance_km": 54.7,
    "latitude": 35.3267489255801,
    "longitude": 139.44934008653507,
    "is_shadow_confederation": false
  },
  {
    "rank": 6,
    "team_name": "四国大学",
    "team_short_name": "四国",
    "runner_name": "穴吹",
    "total_distance_km": 53.8,
    "latitude": 35.33015759150245,
    "longitude": 139.45808462411566,
    "is_shadow_confederation": false
  },
  {
    "rank": 7,
    "team_name": "関西大学",
    "team_short_name": "関大",
    "runner_name": "福崎",
    "total_distance_km": 51.0,
    "latitude": 35.34258238106255,
    "longitude": 139.48251717058085,
    "is_shadow_confederation": false
  },
  {
    "rank": 8,
    "team_name": "名古屋大学",
    "team_short_name": "名大",
    "runner_name": "美濃加茂",
    "total_distance_km": 50.5,
    "latitude": 35.34553076234349,
    "longitude": 139.4866495470111,
    "is_shadow_confederation": false
  },
  {
    "rank": 9,
    "team_name": "上武大学",
    "team_short_name": "上武",
    "runner_name": "佐野",
    "total_distance_km": 50.3,
    "latitude": 35.346889592268916,
    "longitude": 139.4880897978993,
    "is_shadow_confederation": false
  },
  {
    "rank": 10,
    "team_name": "日本大学",
    "team_short_name": "日大",
    "runner_name": "大子",
    "total_distance_km": 49.4,
    "latitude": 35.35425064417051,
    "longitude": 139.4915961415979,
    "is_shadow_confederation": false
  },
  {
    "rank": 11,
    "team_name": "立命館大学",
    "team_short_name": "立命",
    "runner_name": "東近江",
    "total_distance_km": 44.2,
    "latitude": 35.39176843928613,
    "longitude": 139.52311625921777,
    "is_shadow_confederation": false
  },
  {
    "rank": 12,
    "team_name": "広島経済大学",
    "team_short_name": "広経",
    "runner_name": "三次",
    "total_distance_km": 41.0,
    "latitude": 35.41378981764136,
    "longitude": 139.5390927799112,
    "is_shadow_confederation": false
  },
  {
    "rank": 13,
    "team_name": "鳥取大学",
    "team_short_name": "鳥取",
    "runner_name": "川本",
    "total_distance_km": 40.9,
    "latitude": 35.41401857902459,
    "longitude": 139.5401557477082,
    "is_shadow_confederation": false
  },
  {
    "rank": 14,
    "team_name": "福島大学",
    "team_short_name": "福島",
    "runner_name": "梁川",
    "total_distance_km": 39.6,
    "latitude": 35.42054353060733,
    "longitude": 139.55168305927907,
    "is_shadow_confederation": false
  },
  {
    "rank": 15,
    "team_name": "金沢大学",
    "team_short_name": "金沢",
    "runner_name": "秋ヶ島",
    "total_distance_km": 35.2,
    "latitude": 35.44527343896513,
    "longitude": 139.57890504937714,
    "is_shadow_confederation": false
  },
  {
    "rank": 16,
    "team_name": "山梨学院大学",
    "team_short_name": "山学",
    "runner_name": "長野",
    "total_distance_km": 27.7,
    "latitude": 35.478953245941156,
    "longitude": 139.63845131273126,
    "is_shadow_confederation": false
  },
  {
    "rank": 17,
    "team_name": "東北大学",
    "team_short_name": "東北",
    "runner_name": "帯広",
    "total_distance_km": 21.8,
    "latitude": 35.51323576826084,
    "longitude": 139.68545738085882,
    "is_shadow_confederation": false
  },
  {
    "rank": 18,
    "team_name": "学連選抜",
    "team_short_name": "学連",
    "runner_name": "美幌",
    "total_distance_km": 2.0,
    "latitude": 35.672999170631165,
    "longitude": 139.75356543783215,
    "is_shadow_confederation": false
  }
]