[
  {
    "rank": 1,
    "team_name": "日本大学",
    "team_short_name": "日大",
    "runner_name": "八王子",
    "total_distance_km": 68.2,
    "latitude": 35.30781254177304,
    "longitude": 139.31007107881723,
    "current_leg": 1,
    "is_shadow_confederation": false
  },
  {
    "rank": 2,
    "team_name": "山梨学院大学",
    "team_short_name": "山学",
    "runner_name": "佐久間",
    "total_distance_km": 67.9,
    "latitude": 35.30751465766633,
    "longitude": 139.31333782724369,
    "current_leg": 1,
    "is_shadow_confederation": false
  },
  {
    "rank": 3,
    "team_name": "名古屋大学",
    "team_short_name": "名大",
    "runner_name": "美濃",
    "total_distance_km": 67.8,
    "latitude": 35.30773352566165,
    "longitude": 139.31433857853855,
    "current_leg": 1,
    "is_shadow_confederation": false
  },
  {
    "rank": 4,
    "team_name": "関西大学",
    "team_short_name": "関大",
    "runner_name": "福崎",
    "total_distance_km": 67.2,
    "latitude": 35.31048205905581,
    "longitude": 139.3182889079384,
    "current_leg": 1,
    "is_shadow_confederation": false
  },
  {
    "rank": 5,
    "team_name": "学連選抜",
    "team_short_name": "学連",
    "runner_name": "金山（岐阜）",
    "total_distance_km": 66.4,
    "latitude": 35.31268633357285,
    "longitude": 139.32631293193563,
    "current_leg": 1,
    "is_shadow_confederation": false
  },
  {
    "rank": 6,
    "team_name": "上武大学",
    "team_short_name": "上武",
    "runner_name": "前橋",
    "total_distance_km": 66.2,
    "latitude": 35.31325139761875,
    "longitude": 139.32840138206723,
    "current_leg": 1,
    "is_shadow_confederation": false
  },
  {
    "rank": 7,
    "team_name": "三重大学",
    "team_short_name": "三重",
    "runner_name": "粥見",
    "total_distance_km": 65.8,
    "latitude": 35.314381525710544,
    "longitude": 139.33257828233042,
    "current_leg": 1,
    "is_shadow_confederation": false
  },
  {
    "rank": 8,
    "team_name": "四国大学",
    "team_short_name": "四国",
    "runner_name": "穴吹",
    "total_distance_km": 65.1,
    "latitude": 35.3148228209626,
    "longitude": 139.34009768793817,
    "current_leg": 1,
    "is_shadow_confederation": false
  },
  {
    "rank": 9,
    "team_name": "熊本学園大学",
    "team_short_name": "熊学",
    "runner_name": "犬飼",
    "total_distance_km": 64.5,
    "latitude": 35.31549788746811,
    "longitude": 139.34664408718004,
    "current_leg": 1,
    "is_shadow_confederation": false
  },
  {
    "rank": 10,
    "team_name": "広島経済大学",
    "team_short_name": "広経",
    "runner_name": "久世",
    "total_distance_km": 64.4,
    "latitude": 35.315610398552366,
    "longitude": 139.34773515372035,
    "current_leg": 1,
    "is_shadow_confederation": false
  },
  {
    "rank": 10,
    "team_name": "立命館大学",
    "team_short_name": "立命",
    "runner_name": "東近江",
    "total_distance_km": 64.4,
    "latitude": 35.315610398552366,
    "longitude": 139.34773515372035,
    "current_leg": 1,
    "is_shadow_confederation": false
  },
  {
    "rank": 12,
    "team_name": "鹿児島大学",
    "team_short_name": "鹿大",
    "runner_name": "肝付前田",
    "total_distance_km": 63.9,
    "latitude": 35.31601393837671,
    "longitude": 139.35320733868156,
    "current_leg": 1,
    "is_shadow_confederation": false
  },
  {
    "rank": 13,
    "team_name": "金沢大学",
    "team_short_name": "金沢",
    "runner_name": "伏木",
    "total_distance_km": 63.7,
    "latitude": 35.31610024574296,
    "longitude": 139.35540417257084,
    "current_leg": 1,
    "is_shadow_confederation": false
  },
  {
    "rank": 14,
    "team_name": "鳥取大学",
    "team_short_name": "鳥取",
    "runner_name": "広瀬",
    "total_distance_km": 63.5,
    "latitude": 35.316186553109205,
    "longitude": 139.35760100646016,
    "current_leg": 1,
    "is_shadow_confederation": false
  },
  {
    "rank": 15,
    "team_name": "福岡大学",
    "team_short_name": "福岡",
    "runner_name": "飯塚",
    "total_distance_km": 63.4,
    "latitude": 35.31622970679233,
    "longitude": 139.3586994234048,
    "current_leg": 1,
    "is_shadow_confederation": false
  },
  {
    "rank": 16,
    "team_name": "琉球大学",
    "team_short_name": "琉球",
    "runner_name": "北原",
    "total_distance_km": 61.9,
    "latitude": 35.31990430664247,
    "longitude": 139.37451734157492,
    "current_leg": 1,
    "is_shadow_confederation": false
  },
  {
    "rank": 17,
    "team_name": "福島大学",
    "team_short_name": "福島",
    "runner_name": "高田",
    "total_distance_km": 59.7,
    "latitude": 35.31819919255683,
    "longitude": 139.39729063709538,
    "current_leg": 1,
    "is_shadow_confederation": false
  },
  {
    "rank": 18,
    "team_name": "東北大学",
    "team_short_name": "東北",
    "runner_name": "上富良野",
    "total_distance_km": 49.3,
    "latitude": 35.35509424950423,
    "longitude": 139.49198355056558,
    "current_leg": 1,
    "is_shadow_confederation": false
  },
  {
    "rank": null,
    "team_name": "区間記録連合",
    "team_short_name": "区間記録",
    "runner_name": "梁川",
    "total_distance_km": 78.0,
    "latitude": 35.279813673019476,
    "longitude": 139.21040907700936,
    "current_leg": 1,
    "is_shadow_confederation": true
  }
]