[
  {
    "rank": 1,
    "team_name": "琉球大学",
    "team_short_name": "琉球",
    "runner_name": "波照間",
    "total_distance_km": 547.9,
    "latitude": 34.7291183129174,
    "longitude": 135.39001180804638,
    "is_shadow_confederation": false
  },
  {
    "rank": 2,
    "team_name": "熊本学園大学",
    "team_short_name": "熊学",
    "runner_name": "熊本",
    "total_distance_km": 519.3,
    "latitude": 34.788891901181785,
    "longitude": 135.62425127501112,
    "is_shadow_confederation": false
  },
  {
    "rank": 3,
    "team_name": "福岡大学",
    "team_short_name": "福岡",
    "runner_name": "前原",
    "total_distance_km": 501.5,
    "latitude": 34.902728072421105,
    "longitude": 135.74412154235415,
    "is_shadow_confederation": false
  },
  {
    "rank": 4,
    "team_name": "立命館大学",
    "team_short_name": "立命",
    "runner_name": "舞鶴",
    "total_distance_km": 495.7,
    "latitude": 34.954993811426775,
    "longitude": 135.7456479067896,
    "is_shadow_confederation": false
  },
  {
    "rank": 5,
    "team_name": "鹿児島大学",
    "team_short_name": "鹿大",
    "runner_name": "西都",
    "total_distance_km": 495.0,
    "latitude": 34.96130159755359,
    "longitude": 135.7458385006282,
    "is_shadow_confederation": false
  },
  {
    "rank": 6,
    "team_name": "関西大学",
    "team_short_name": "関大",
    "runner_name": "枚方",
    "total_distance_km": 492.2,
    "latitude": 34.98050613870123,
    "longitude": 135.75371331278413,
    "is_shadow_confederation": false
  },
  {
    "rank": 7,
    "team_name": "名古屋大学",
    "team_short_name": "名大",
    "runner_name": "多治見",
    "total_distance_km": 491.5,
    "latitude": 34.986772432310104,
    "longitude": 135.75313687088448,
    "is_shadow_confederation": false
  },
  {
    "rank": 8,
    "team_name": "広島経済大学",
    "team_short_name": "広経",
    "runner_name": "高梁",
    "total_distance_km": 489.4,
    "latitude": 34.995843744012895,
    "longitude": 135.7640454877525,
    "is_shadow_confederation": false
  },
  {
    "rank": 9,
    "team_name": "四国大学",
    "team_short_name": "四国",
    "runner_name": "大洲",
    "total_distance_km": 488.6,
    "latitude": 35.00090027554412,
    "longitude": 135.76847503320136,
    "is_shadow_confederation": false
  },
  {
    "rank": 10,
    "team_name": "鳥取大学",
    "team_short_name": "鳥取",
    "runner_name": "境",
    "total_distance_km": 487.8,
    "latitude": 35.008015600150095,
    "longitude": 135.76908803014453,
    "is_shadow_confederation": false
  },
  {
    "rank": 11,
    "team_name": "上武大学",
    "team_short_name": "上武",
    "runner_name": "桐生",
    "total_distance_km": 480.9,
    "latitude": 34.99103718936008,
    "longitude": 135.8302348891697,
    "is_shadow_confederation": false
  },
  {
    "rank": 12,
    "team_name": "金沢大学",
    "team_short_name": "金沢",
    "runner_name": "福井",
    "total_distance_km": 480.5,
    "latitude": 34.99189301053071,
    "longitude": 135.83433112077907,
    "is_shadow_confederation": false
  },
  {
    "rank": 13,
    "team_name": "三重大学",
    "team_short_name": "三重",
    "runner_name": "奈良",
    "total_distance_km": 480.2,
    "latitude": 34.99129139223069,
    "longitude": 135.8375208261131,
    "is_shadow_confederation": false
  },
  {
    "rank": 14,
    "team_name": "山梨学院大学",
    "team_short_name": "山学",
    "runner_name": "甲府",
    "total_distance_km": 477.4,
    "latitude": 35.0014157917487,
    "longitude": 135.85942748626982,
    "is_shadow_confederation": false
  },
  {
    "rank": 15,
    "team_name": "日本大学",
    "team_short_name": "日大",
    "runner_name": "牛久",
    "total_distance_km": 467.7,
    "latitude": 34.996199654262846,
    "longitude": 135.94315214298442,
    "is_shadow_confederation": false
  },
  {
    "rank": 16,
    "team_name": "福島大学",
    "team_short_name": "福島",
    "runner_name": "福島",
    "total_distance_km": 444.4,
    "latitude": 34.97809547669999,
    "longitude": 136.16430947967453,
    "is_shadow_confederation": false
  },
  {
    "rank": 17,
    "team_name": "東北大学",
    "team_short_name": "東北",
    "runner_name": "一関",
    "total_distance_km": 438.6,
    "latitude": 34.95443137574448,
    "longitude": 136.21880874290974,
    "is_shadow_confederation": false
  },
  {
    "rank": 18,
    "team_name": "学連選抜",
    "team_short_name": "学連",
    "runner_name": "久世",
    "total_distance_km": 423.1,
    "latitude": 34.88883315857028,
    "longitude": 136.34839048928595,
    "is_shadow_confederation": false
  }
]