[
  {
    "rank": 1,
    "team_name": "琉球大学",
    "team_short_name": "琉球",
    "runner_name": "久米島",
    "total_distance_km": 581.9,
    "latitude": 34.62846256987813,
    "longitude": 135.05863731492187,
    "is_shadow_confederation": false
  },
  {
    "rank": 2,
    "team_name": "熊本学園大学",
    "team_short_name": "熊学",
    "runner_name": "大分",
    "total_distance_km": 550.4,
    "latitude": 34.73495204679745,
    "longitude": 135.3636556179074,
    "is_shadow_confederation": false
  },
  {
    "rank": 3,
    "team_name": "福岡大学",
    "team_short_name": "福岡",
    "runner_name": "前原",
    "total_distance_km": 533.8,
    "latitude": 34.697475814398864,
    "longitude": 135.5273855059799,
    "is_shadow_confederation": false
  },
  {
    "rank": 4,
    "team_name": "立命館大学",
    "team_short_name": "立命",
    "runner_name": "舞鶴",
    "total_distance_km": 527.6,
    "latitude": 34.73628532320087,
    "longitude": 135.56106134511282,
    "is_shadow_confederation": false
  },
  {
    "rank": 5,
    "team_name": "四国大学",
    "team_short_name": "四国",
    "runner_name": "大洲",
    "total_distance_km": 523.6,
    "latitude": 34.76176773152047,
    "longitude": 135.59183050457992,
    "is_shadow_confederation": false
  },
  {
    "rank": 6,
    "team_name": "鹿児島大学",
    "team_short_name": "鹿大",
    "runner_name": "西都",
    "total_distance_km": 522.9,
    "latitude": 34.765223881338,
    "longitude": 135.59821226077818,
    "is_shadow_confederation": false
  },
  {
    "rank": 7,
    "team_name": "関西大学",
    "team_short_name": "関大",
    "runner_name": "枚方",
    "total_distance_km": 522.1,
    "latitude": 34.769861609298836,
    "longitude": 135.60489315297923,
    "is_shadow_confederation": false
  },
  {
    "rank": 8,
    "team_name": "広島経済大学",
    "team_short_name": "広経",
    "runner_name": "高梁",
    "total_distance_km": 520.9,
    "latitude": 34.77693177002294,
    "longitude": 135.61481432871958,
    "is_shadow_confederation": false
  },
  {
    "rank": 9,
    "team_name": "鳥取大学",
    "team_short_name": "鳥取",
    "runner_name": "境",
    "total_distance_km": 520.0,
    "latitude": 34.783303094274046,
    "longitude": 135.62080141594421,
    "is_shadow_confederation": false
  },
  {
    "rank": 10,
    "team_name": "名古屋大学",
    "team_short_name": "名大",
    "runner_name": "多治見",
    "total_distance_km": 517.6,
    "latitude": 34.80204346683527,
    "longitude": 135.63254717289647,
    "is_shadow_confederation": false
  },
  {
    "rank": 11,
    "team_name": "三重大学",
    "team_short_name": "三重",
    "runner_name": "奈良",
    "total_distance_km": 511.4,
    "latitude": 34.83026844407646,
    "longitude": 135.68827250326004,
    "is_shadow_confederation": false
  },
  {
    "rank": 12,
    "team_name": "山梨学院大学",
    "team_short_name": "山学",
    "runner_name": "甲府",
    "total_distance_km": 510.3,
    "latitude": 34.838168251874954,
    "longitude": 135.69551117885345,
    "is_shadow_confederation": false
  },
  {
    "rank": 13,
    "team_name": "金沢大学",
    "team_short_name": "金沢",
    "runner_name": "福井",
    "total_distance_km": 508.3,
    "latitude": 34.85392658096539,
    "longitude": 135.70580681935925,
    "is_shadow_confederation": false
  },
  {
    "rank": 14,
    "team_name": "上武大学",
    "team_short_name": "上武",
    "runner_name": "桐生",
    "total_distance_km": 505.9,
    "latitude": 34.86710964423085,
    "longitude": 135.72654551231824,
    "is_shadow_confederation": false
  },
  {
    "rank": 15,
    "team_name": "日本大学",
    "team_short_name": "日大",
    "runner_name": "牛久",
    "total_distance_km": 489.9,
    "latitude": 34.99598623739234,
    "longitude": 135.7585713336431,
    "is_shadow_confederation": false
  },
  {
    "rank": 16,
    "team_name": "福島大学",
    "team_short_name": "福島",
    "runner_name": "福島",
    "total_distance_km": 460.8,
    "latitude": 35.02972651674043,
    "longitude": 136.00376335567694,
    "is_shadow_confederation": false
  },
  {
    "rank": 17,
    "team_name": "東北大学",
    "team_short_name": "東北",
    "runner_name": "一関",
    "total_distance_km": 460.7,
    "latitude": 35.02986746472402,
    "longitude": 136.0048457146741,
    "is_shadow_confederation": false
  },
  {
    "rank": 18,
    "team_name": "学連選抜",
    "team_short_name": "学連",
    "runner_name": "久世",
    "total_distance_km": 451.2,
    "latitude": 34.995744934995905,
    "longitude": 136.0967645038458,
    "is_shadow_confederation": false
  }
]