[
  {
    "rank": 1,
    "team_name": "琉球大学",
    "team_short_name": "琉球",
    "runner_name": "大原",
    "total_distance_km": 891.4,
    "latitude": 34.279223977683756,
    "longitude": 132.2629331836379,
    "is_shadow_confederation": false
  },
  {
    "rank": 2,
    "team_name": "鹿児島大学",
    "team_short_name": "鹿大",
    "runner_name": "さつま柏原",
    "total_distance_km": 757.1,
    "latitude": 34.498118120503605,
    "longitude": 133.443696691477,
    "is_shadow_confederation": false
  },
  {
    "rank": 3,
    "team_name": "熊本学園大学",
    "team_short_name": "熊学",
    "runner_name": "犬飼",
    "total_distance_km": 731.0,
    "latitude": 34.56729301620549,
    "longitude": 133.69056474154797,
    "is_shadow_confederation": false
  },
  {
    "rank": 4,
    "team_name": "福岡大学",
    "team_short_name": "福岡",
    "runner_name": "口之津",
    "total_distance_km": 715.3,
    "latitude": 34.64012773514185,
    "longitude": 133.82779268232693,
    "is_shadow_confederation": false
  },
  {
    "rank": 5,
    "team_name": "四国大学",
    "team_short_name": "四国",
    "runner_name": "新居浜",
    "total_distance_km": 679.0,
    "latitude": 34.74506216586167,
    "longitude": 134.18273171449687,
    "is_shadow_confederation": false
  },
  {
    "rank": 6,
    "team_name": "広島経済大学",
    "team_short_name": "広経",
    "runner_name": "福山",
    "total_distance_km": 656.7,
    "latitude": 34.826241392646835,
    "longitude": 134.36548090321799,
    "is_shadow_confederation": false
  },
  {
    "rank": 7,
    "team_name": "鳥取大学",
    "team_short_name": "鳥取",
    "runner_name": "松江",
    "total_distance_km": 643.4,
    "latitude": 34.822853329173874,
    "longitude": 134.50181626436677,
    "is_shadow_confederation": false
  },
  {
    "rank": 8,
    "team_name": "関西大学",
    "team_short_name": "関大",
    "runner_name": "豊中",
    "total_distance_km": 642.3,
    "latitude": 34.82455383499468,
    "longitude": 134.51291756000185,
    "is_shadow_confederation": false
  },
  {
    "rank": 9,
    "team_name": "名古屋大学",
    "team_short_name": "名大",
    "runner_name": "豊田（愛知）",
    "total_distance_km": 641.7,
    "latitude": 34.82561251314105,
    "longitude": 134.51934939300511,
    "is_shadow_confederation": false
  },
  {
    "rank": 10,
    "team_name": "三重大学",
    "team_short_name": "三重",
    "runner_name": "新宮",
    "total_distance_km": 633.6,
    "latitude": 34.82895807067183,
    "longitude": 134.60507239938838,
    "is_shadow_confederation": false
  },
  {
    "rank": 11,
    "team_name": "立命館大学",
    "team_short_name": "立命",
    "runner_name": "彦根",
    "total_distance_km": 622.2,
    "latitude": 34.82811943691393,
    "longitude": 134.7130156942751,
    "is_shadow_confederation": false
  },
  {
    "rank": 12,
    "team_name": "日本大学",
    "team_short_name": "日大",
    "runner_name": "八王子",
    "total_distance_km": 603.0,
    "latitude": 34.73107210917209,
    "longitude": 134.87835584306512,
    "is_shadow_confederation": false
  },
  {
    "rank": 12,
    "team_name": "上武大学",
    "team_short_name": "上武",
    "runner_name": "伊勢崎",
    "total_distance_km": 603.0,
    "latitude": 34.73107210917209,
    "longitude": 134.87835584306512,
    "is_shadow_confederation": false
  },
  {
    "rank": 14,
    "team_name": "金沢大学",
    "team_short_name": "金沢",
    "runner_name": "富山",
    "total_distance_km": 599.8,
    "latitude": 34.71068089575375,
    "longitude": 134.9021268047052,
    "is_shadow_confederation": false
  },
  {
    "rank": 15,
    "team_name": "山梨学院大学",
    "team_short_name": "山学",
    "runner_name": "静岡",
    "total_distance_km": 583.0,
    "latitude": 34.62808897924014,
    "longitude": 135.04665258127153,
    "is_shadow_confederation": false
  },
  {
    "rank": 16,
    "team_name": "学連選抜",
    "team_short_name": "学連",
    "runner_name": "多度津",
    "total_distance_km": 544.4,
    "latitude": 34.719496449327664,
    "longitude": 135.426070525165,
    "is_shadow_confederation": false
  },
  {
    "rank": 17,
    "team_name": "福島大学",
    "team_short_name": "福島",
    "runner_name": "福島",
    "total_distance_km": 524.8,
    "latitude": 34.753567080353896,
    "longitude": 135.58334619711462,
    "is_shadow_confederation": false
  },
  {
    "rank": 18,
    "team_name": "東北大学",
    "team_short_name": "東北",
    "runner_name": "一関",
    "total_distance_km": 448.8,
    "latitude": 34.984606029121316,
    "longitude": 136.11809658784318,
    "is_shadow_confederation": false
  }
]