[
  {
    "rank": 1,
    "team_name": "琉球大学",
    "team_short_name": "琉球",
    "runner_name": "盛山",
    "total_distance_km": 237.1,
    "latitude": 34.727719424372424,
    "longitude": 137.86718098965386,
    "is_shadow_confederation": false
  },
  {
    "rank": 2,
    "team_name": "鹿児島大学",
    "team_short_name": "鹿大",
    "runner_name": "川内（鹿児島）",
    "total_distance_km": 176.3,
    "latitude": 34.9709448052398,
    "longitude": 138.38529303522958,
    "is_shadow_confederation": false
  },
  {
    "rank": 3,
    "team_name": "熊本学園大学",
    "team_short_name": "熊学",
    "runner_name": "岱明",
    "total_distance_km": 171.8,
    "latitude": 34.99480067033497,
    "longitude": 138.42446104820687,
    "is_shadow_confederation": false
  },
  {
    "rank": 4,
    "team_name": "福岡大学",
    "team_short_name": "福岡",
    "runner_name": "福岡",
    "total_distance_km": 156.4,
    "latitude": 35.07655540785701,
    "longitude": 138.54530288828693,
    "is_shadow_confederation": false
  },
  {
    "rank": 5,
    "team_name": "名古屋大学",
    "team_short_name": "名大",
    "runner_name": "美濃",
    "total_distance_km": 146.6,
    "latitude": 35.11767720028323,
    "longitude": 138.62299911582272,
    "is_shadow_confederation": false
  },
  {
    "rank": 6,
    "team_name": "四国大学",
    "team_short_name": "四国",
    "runner_name": "大三島",
    "total_distance_km": 141.5,
    "latitude": 35.139286320766885,
    "longitude": 138.66727331452086,
    "is_shadow_confederation": false
  },
  {
    "rank": 7,
    "team_name": "三重大学",
    "team_short_name": "三重",
    "runner_name": "五條",
    "total_distance_km": 138.6,
    "latitude": 35.14467822588998,
    "longitude": 138.6966372461985,
    "is_shadow_confederation": false
  },
  {
    "rank": 8,
    "team_name": "上武大学",
    "team_short_name": "上武",
    "runner_name": "越谷",
    "total_distance_km": 137.3,
    "latitude": 35.142233923998624,
    "longitude": 138.70960303308672,
    "is_shadow_confederation": false
  },
  {
    "rank": 9,
    "team_name": "日本大学",
    "team_short_name": "日大",
    "runner_name": "古河",
    "total_distance_km": 137.1,
    "latitude": 35.141716968084836,
    "longitude": 138.71170531937554,
    "is_shadow_confederation": false
  },
  {
    "rank": 10,
    "team_name": "広島経済大学",
    "team_short_name": "広経",
    "runner_name": "加計",
    "total_distance_km": 128.7,
    "latitude": 35.12185341728381,
    "longitude": 138.8003292586762,
    "is_shadow_confederation": false
  },
  {
    "rank": 11,
    "team_name": "関西大学",
    "team_short_name": "関大",
    "runner_name": "和田山",
    "total_distance_km": 127.3,
    "latitude": 35.116249250905206,
    "longitude": 138.8140897504793,
    "is_shadow_confederation": false
  },
  {
    "rank": 12,
    "team_name": "鳥取大学",
    "team_short_name": "鳥取",
    "runner_name": "鳥取",
    "total_distance_km": 123.8,
    "latitude": 35.10082570449449,
    "longitude": 138.84695649302014,
    "is_shadow_confederation": false
  },
  {
    "rank": 13,
    "team_name": "立命館大学",
    "team_short_name": "立命",
    "runner_name": "福知山",
    "total_distance_km": 118.7,
    "latitude": 35.11087277569807,
    "longitude": 138.89845428128106,
    "is_shadow_confederation": false
  },
  {
    "rank": 14,
    "team_name": "福島大学",
    "team_short_name": "福島",
    "runner_name": "石川",
    "total_distance_km": 114.2,
    "latitude": 35.128419526803505,
    "longitude": 138.94139630002414,
    "is_shadow_confederation": false
  },
  {
    "rank": 15,
    "team_name": "金沢大学",
    "team_short_name": "金沢",
    "runner_name": "秋ヶ島",
    "total_distance_km": 93.9,
    "latitude": 35.21359321805225,
    "longitude": 139.06819570797893,
    "is_shadow_confederation": false
  },
  {
    "rank": 16,
    "team_name": "山梨学院大学",
    "team_short_name": "山学",
    "runner_name": "長野",
    "total_distance_km": 86.5,
    "latitude": 35.24682792662582,
    "longitude": 139.1333199622155,
    "is_shadow_confederation": false
  },
  {
    "rank": 17,
    "team_name": "東北大学",
    "team_short_name": "東北",
    "runner_name": "帯広",
    "total_distance_km": 72.3,
    "latitude": 35.30119046999721,
    "longitude": 139.26664308468287,
    "is_shadow_confederation": false
  },
  {
    "rank": 18,
    "team_name": "学連選抜",
    "team_short_name": "学連",
    "runner_name": "美幌",
    "total_distance_km": 16.5,
    "latitude": 35.55154546015837,
    "longitude": 139.7172531458238,
    "is_shadow_confederation": false
  },
  {
    "rank": null,
    "team_name": "区間記録連合",
    "team_short_name": "区間記録",
    "runner_name": "伊勢崎",
    "total_distance_km": 251.1,
    "latitude": 34.706059929661755,
    "longitude": 137.72804739482265,
    "is_shadow_confederation": true
  }
]