[
  {
    "rank": 1,
    "team_name": "名古屋大学",
    "team_short_name": "名大",
    "runner_name": "大垣",
    "total_distance_km": 316.8,
    "latitude": 34.94045788702297,
    "longitude": 137.19300674547043,
    "is_shadow_confederation": false
  },
  {
    "rank": 2,
    "team_name": "立命館大学",
    "team_short_name": "立命",
    "runner_name": "京田辺",
    "total_distance_km": 310.6,
    "latitude": 34.90162127187247,
    "longitude": 137.23733108151805,
    "is_shadow_confederation": false
  },
  {
    "rank": 3,
    "team_name": "四国大学",
    "team_short_name": "四国",
    "runner_name": "御荘",
    "total_distance_km": 310.0,
    "latitude": 34.89881207418924,
    "longitude": 137.2428895685321,
    "is_shadow_confederation": false
  },
  {
    "rank": 4,
    "team_name": "福岡大学",
    "team_short_name": "福岡",
    "runner_name": "黒木",
    "total_distance_km": 308.8,
    "latitude": 34.89478671263891,
    "longitude": 137.2548946233019,
    "is_shadow_confederation": false
  },
  {
    "rank": 5,
    "team_name": "熊本学園大学",
    "team_short_name": "熊学",
    "runner_name": "八代",
    "total_distance_km": 308.7,
    "latitude": 34.89452278653509,
    "longitude": 137.25593962912433,
    "is_shadow_confederation": false
  },
  {
    "rank": 6,
    "team_name": "関西大学",
    "team_short_name": "関大",
    "runner_name": "上郡",
    "total_distance_km": 306.6,
    "latitude": 34.880763340755664,
    "longitude": 137.26983042100412,
    "is_shadow_confederation": false
  },
  {
    "rank": 7,
    "team_name": "広島経済大学",
    "team_short_name": "広経",
    "runner_name": "府中（広島）",
    "total_distance_km": 305.6,
    "latitude": 34.875296070981975,
    "longitude": 137.27849157924354,
    "is_shadow_confederation": false
  },
  {
    "rank": 8,
    "team_name": "鳥取大学",
    "team_short_name": "鳥取",
    "runner_name": "広瀬",
    "total_distance_km": 304.4,
    "latitude": 34.86948854185195,
    "longitude": 137.2895611827147,
    "is_shadow_confederation": false
  },
  {
    "rank": 9,
    "team_name": "日本大学",
    "team_short_name": "日大",
    "runner_name": "下館",
    "total_distance_km": 304.1,
    "latitude": 34.868223122404586,
    "longitude": 137.2924607578642,
    "is_shadow_confederation": false
  },
  {
    "rank": 10,
    "team_name": "上武大学",
    "team_short_name": "上武",
    "runner_name": "熊谷",
    "total_distance_km": 303.1,
    "latitude": 34.864005057580016,
    "longitude": 137.3021260083625,
    "is_shadow_confederation": false
  },
  {
    "rank": 11,
    "team_name": "琉球大学",
    "team_short_name": "琉球",
    "runner_name": "盛山",
    "total_distance_km": 301.4,
    "latitude": 34.853251471949264,
    "longitude": 137.31507434096602,
    "is_shadow_confederation": false
  },
  {
    "rank": 12,
    "team_name": "三重大学",
    "team_short_name": "三重",
    "runner_name": "小俣",
    "total_distance_km": 300.5,
    "latitude": 34.84645941912665,
    "longitude": 137.3204035320785,
    "is_shadow_confederation": false
  },
  {
    "rank": 13,
    "team_name": "鹿児島大学",
    "team_short_name": "鹿大",
    "runner_name": "加久藤",
    "total_distance_km": 297.9,
    "latitude": 34.828021945572225,
    "longitude": 137.33678739602644,
    "is_shadow_confederation": false
  },
  {
    "rank": 14,
    "team_name": "山梨学院大学",
    "team_short_name": "山学",
    "runner_name": "大月",
    "total_distance_km": 296.5,
    "latitude": 34.81902446207824,
    "longitude": 137.34730724106146,
    "is_shadow_confederation": false
  },
  {
    "rank": 15,
    "team_name": "金沢大学",
    "team_short_name": "金沢",
    "runner_name": "七尾",
    "total_distance_km": 295.3,
    "latitude": 34.81070075477743,
    "longitude": 137.35568378117028,
    "is_shadow_confederation": false
  },
  {
    "rank": 16,
    "team_name": "福島大学",
    "team_short_name": "福島",
    "runner_name": "津川",
    "total_distance_km": 284.1,
    "latitude": 34.73272328389996,
    "longitude": 137.4245750804985,
    "is_shadow_confederation": false
  },
  {
    "rank": 17,
    "team_name": "東北大学",
    "team_short_name": "東北",
    "runner_name": "高畠",
    "total_distance_km": 256.0,
    "latitude": 34.688036375080266,
    "longitude": 137.68792579951042,
    "is_shadow_confederation": false
  },
  {
    "rank": 18,
    "team_name": "学連選抜",
    "team_short_name": "学連",
    "runner_name": "大村",
    "total_distance_km": 251.2,
    "latitude": 34.7051856171919,
    "longitude": 137.72831310042173,
    "is_shadow_confederation": false
  },
  {
    "rank": null,
    "team_name": "区間記録連合",
    "team_short_name": "区間記録",
    "runner_name": "伊勢崎",
    "total_distance_km": 316.8,
    "latitude": 34.94045788702297,
    "longitude": 137.19300674547043,
    "is_shadow_confederation": true
  }
]