[
  {
    "rank": 1,
    "team_name": "琉球大学",
    "team_short_name": "琉球",
    "runner_name": "西表島",
    "total_distance_km": 810.1,
    "latitude": 34.40571585120188,
    "longitude": 132.96214313726745,
    "is_shadow_confederation": false
  },
  {
    "rank": 2,
    "team_name": "熊本学園大学",
    "team_short_name": "熊学",
    "runner_name": "三角",
    "total_distance_km": 762.1,
    "latitude": 34.48903803665406,
    "longitude": 133.3953377584786,
    "is_shadow_confederation": false
  },
  {
    "rank": 3,
    "team_name": "名古屋大学",
    "team_short_name": "名大",
    "runner_name": "名古屋",
    "total_distance_km": 743.6,
    "latitude": 34.51898396276522,
    "longitude": 133.57214586947288,
    "is_shadow_confederation": false
  },
  {
    "rank": 4,
    "team_name": "福岡大学",
    "team_short_name": "福岡",
    "runner_name": "口之津",
    "total_distance_km": 742.3,
    "latitude": 34.525088252950894,
    "longitude": 133.5842319146714,
    "is_shadow_confederation": false
  },
  {
    "rank": 5,
    "team_name": "関西大学",
    "team_short_name": "関大",
    "runner_name": "八尾（大阪）",
    "total_distance_km": 742.0,
    "latitude": 34.52635774292126,
    "longitude": 133.5871131509994,
    "is_shadow_confederation": false
  },
  {
    "rank": 6,
    "team_name": "鹿児島大学",
    "team_short_name": "鹿大",
    "runner_name": "鹿児島",
    "total_distance_km": 740.4,
    "latitude": 34.53359518689369,
    "longitude": 133.60210272902972,
    "is_shadow_confederation": false
  },
  {
    "rank": 7,
    "team_name": "鳥取大学",
    "team_short_name": "鳥取",
    "runner_name": "米子",
    "total_distance_km": 735.2,
    "latitude": 34.547505176573914,
    "longitude": 133.6538594408362,
    "is_shadow_confederation": false
  },
  {
    "rank": 8,
    "team_name": "広島経済大学",
    "team_short_name": "広経",
    "runner_name": "福山",
    "total_distance_km": 734.1,
    "latitude": 34.55399497374521,
    "longitude": 133.6628812036494,
    "is_shadow_confederation": false
  },
  {
    "rank": 9,
    "team_name": "立命館大学",
    "team_short_name": "立命",
    "runner_name": "長浜（滋賀）",
    "total_distance_km": 734.0,
    "latitude": 34.554515210901364,
    "longitude": 133.6637710038599,
    "is_shadow_confederation": false
  },
  {
    "rank": 10,
    "team_name": "四国大学",
    "team_short_name": "四国",
    "runner_name": "新居浜",
    "total_distance_km": 731.3,
    "latitude": 34.56533371285459,
    "longitude": 133.68831134632515,
    "is_shadow_confederation": false
  },
  {
    "rank": 11,
    "team_name": "上武大学",
    "team_short_name": "上武",
    "runner_name": "小山",
    "total_distance_km": 721.0,
    "latitude": 34.6101304111301,
    "longitude": 133.77952354074029,
    "is_shadow_confederation": false
  },
  {
    "rank": 12,
    "team_name": "山梨学院大学",
    "team_short_name": "山学",
    "runner_name": "三島",
    "total_distance_km": 719.6,
    "latitude": 34.618966308035006,
    "longitude": 133.79038525627425,
    "is_shadow_confederation": false
  },
  {
    "rank": 13,
    "team_name": "金沢大学",
    "team_short_name": "金沢",
    "runner_name": "敦賀",
    "total_distance_km": 713.0,
    "latitude": 34.646080101164635,
    "longitude": 133.85155426917038,
    "is_shadow_confederation": false
  },
  {
    "rank": 14,
    "team_name": "三重大学",
    "team_short_name": "三重",
    "runner_name": "津",
    "total_distance_km": 712.8,
    "latitude": 34.64609710535728,
    "longitude": 133.8537354625385,
    "is_shadow_confederation": false
  },
  {
    "rank": 15,
    "team_name": "日本大学",
    "team_short_name": "日大",
    "runner_name": "練馬",
    "total_distance_km": 691.8,
    "latitude": 34.7055715452232,
    "longitude": 134.05819937299512,
    "is_shadow_confederation": false
  },
  {
    "rank": 16,
    "team_name": "学連選抜",
    "team_short_name": "学連",
    "runner_name": "多度津",
    "total_distance_km": 662.5,
    "latitude": 34.83487675848766,
    "longitude": 134.31520452023145,
    "is_shadow_confederation": false
  },
  {
    "rank": 17,
    "team_name": "福島大学",
    "team_short_name": "福島",
    "runner_name": "浪江",
    "total_distance_km": 650.4,
    "latitude": 34.832434568694865,
    "longitude": 134.43201633448675,
    "is_shadow_confederation": false
  },
  {
    "rank": 18,
    "team_name": "東北大学",
    "team_short_name": "東北",
    "runner_name": "丸森",
    "total_distance_km": 646.4,
    "latitude": 34.8186542467643,
    "longitude": 134.46980670646306,
    "is_shadow_confederation": false
  }
]