[
  {
    "rank": 1,
    "team_name": "熊本学園大学",
    "team_short_name": "熊学",
    "runner_name": "岱明",
    "total_distance_km": 238.9,
    "latitude": 34.72443321231101,
    "longitude": 137.84854691291494,
    "is_shadow_confederation": false
  },
  {
    "rank": 2,
    "team_name": "琉球大学",
    "team_short_name": "琉球",
    "runner_name": "仲筋",
    "total_distance_km": 235.2,
    "latitude": 34.73733601646916,
    "longitude": 137.88414887028878,
    "is_shadow_confederation": false
  },
  {
    "rank": 3,
    "team_name": "福岡大学",
    "team_short_name": "福岡",
    "runner_name": "福岡",
    "total_distance_km": 230.7,
    "latitude": 34.75328682953167,
    "longitude": 137.92899488171972,
    "is_shadow_confederation": false
  },
  {
    "rank": 4,
    "team_name": "立命館大学",
    "team_short_name": "立命",
    "runner_name": "福知山",
    "total_distance_km": 227.9,
    "latitude": 34.76266690374559,
    "longitude": 137.95686850908123,
    "is_shadow_confederation": false
  },
  {
    "rank": 5,
    "team_name": "鹿児島大学",
    "team_short_name": "鹿大",
    "runner_name": "川内（鹿児島）",
    "total_distance_km": 223.2,
    "latitude": 34.77644589546609,
    "longitude": 138.00234368020224,
    "is_shadow_confederation": false
  },
  {
    "rank": 6,
    "team_name": "関西大学",
    "team_short_name": "関大",
    "runner_name": "和田山",
    "total_distance_km": 222.5,
    "latitude": 34.77666941623445,
    "longitude": 138.00993435168934,
    "is_shadow_confederation": false
  },
  {
    "rank": 7,
    "team_name": "広島経済大学",
    "team_short_name": "広経",
    "runner_name": "加計",
    "total_distance_km": 220.6,
    "latitude": 34.77828581542939,
    "longitude": 138.03005835250835,
    "is_shadow_confederation": false
  },
  {
    "rank": 8,
    "team_name": "三重大学",
    "team_short_name": "三重",
    "runner_name": "五條",
    "total_distance_km": 220.1,
    "latitude": 34.780056368754536,
    "longitude": 138.03508176255912,
    "is_shadow_confederation": false
  },
  {
    "rank": 9,
    "team_name": "鳥取大学",
    "team_short_name": "鳥取",
    "runner_name": "鳥取",
    "total_distance_km": 217.8,
    "latitude": 34.784219,
    "longitude": 138.05878603949037,
    "is_shadow_confederation": false
  },
  {
    "rank": 10,
    "team_name": "四国大学",
    "team_short_name": "四国",
    "runner_name": "大三島",
    "total_distance_km": 217.2,
    "latitude": 34.78608534545778,
    "longitude": 138.06478152261334,
    "is_shadow_confederation": false
  },
  {
    "rank": 11,
    "team_name": "金沢大学",
    "team_short_name": "金沢",
    "runner_name": "小浜",
    "total_distance_km": 216.3,
    "latitude": 34.79112641473922,
    "longitude": 138.07155624810704,
    "is_shadow_confederation": false
  },
  {
    "rank": 12,
    "team_name": "名古屋大学",
    "team_short_name": "名大",
    "runner_name": "美濃",
    "total_distance_km": 214.1,
    "latitude": 34.808589022445794,
    "longitude": 138.08046725738885,
    "is_shadow_confederation": false
  },
  {
    "rank": 13,
    "team_name": "山梨学院大学",
    "team_short_name": "山学",
    "runner_name": "南信濃",
    "total_distance_km": 204.2,
    "latitude": 34.84496505938828,
    "longitude": 138.1539074112424,
    "is_shadow_confederation": false
  },
  {
    "rank": 14,
    "team_name": "上武大学",
    "team_short_name": "上武",
    "runner_name": "越谷",
    "total_distance_km": 197.5,
    "latitude": 34.867870366177335,
    "longitude": 138.21583850540213,
    "is_shadow_confederation": false
  },
  {
    "rank": 15,
    "team_name": "日本大学",
    "team_short_name": "日大",
    "runner_name": "古河",
    "total_distance_km": 194.6,
    "latitude": 34.882058875284166,
    "longitude": 138.2406909645627,
    "is_shadow_confederation": false
  },
  {
    "rank": 16,
    "team_name": "福島大学",
    "team_short_name": "福島",
    "runner_name": "石川",
    "total_distance_km": 185.2,
    "latitude": 34.93698259632553,
    "longitude": 138.30830660643076,
    "is_shadow_confederation": false
  },
  {
    "rank": 17,
    "team_name": "東北大学",
    "team_short_name": "東北",
    "runner_name": "山形（山形）",
    "total_distance_km": 167.2,
    "latitude": 35.01687968954239,
    "longitude": 138.46628259865065,
    "is_shadow_confederation": false
  },
  {
    "rank": 18,
    "team_name": "学連選抜",
    "team_short_name": "学連",
    "runner_name": "新潟",
    "total_distance_km": 152.8,
    "latitude": 35.10619716646251,
    "longitude": 138.5592172495859,
    "is_shadow_confederation": false
  }
]