[
  {
    "rank": 1,
    "team_name": "四国大学",
    "team_short_name": "四国",
    "runner_name": "穴吹",
    "total_distance_km": 110.7,
    "latitude": 35.141884359576615,
    "longitude": 138.96979457972773
  },
  {
    "rank": 2,
    "team_name": "名古屋大学",
    "team_short_name": "名大",
    "runner_name": "美濃加茂",
    "total_distance_km": 107.5,
    "latitude": 35.155691193826065,
    "longitude": 138.99534723008787
  },
  {
    "rank": 3,
    "team_name": "上武大学",
    "team_short_name": "上武",
    "runner_name": "佐野",
    "total_distance_km": 107.1,
    "latitude": 35.15866806479477,
    "longitude": 138.99570059612623
  },
  {
    "rank": 4,
    "team_name": "日本大学",
    "team_short_name": "日大",
    "runner_name": "大子",
    "total_distance_km": 106.9,
    "latitude": 35.16007607722677,
    "longitude": 138.99697723017505
  },
  {
    "rank": 5,
    "team_name": "立命館大学",
    "team_short_name": "立命",
    "runner_name": "東近江",
    "total_distance_km": 106.6,
    "latitude": 35.161852650032614,
    "longitude": 138.9991111063426
  },
  {
    "rank": 6,
    "team_name": "関西大学",
    "team_short_name": "関大",
    "runner_name": "福崎",
    "total_distance_km": 106.3,
    "latitude": 35.1627618292682,
    "longitude": 139.0019984424497
  },
  {
    "rank": 7,
    "team_name": "三重大学",
    "team_short_name": "三重",
    "runner_name": "粥見",
    "total_distance_km": 105.5,
    "latitude": 35.16679950621281,
    "longitude": 139.006757743871
  },
  {
    "rank": 8,
    "team_name": "金沢大学",
    "team_short_name": "金沢",
    "runner_name": "秋ヶ島",
    "total_distance_km": 104.5,
    "latitude": 35.171860551402915,
    "longitude": 139.0101705747441
  },
  {
    "rank": 9,
    "team_name": "福島大学",
    "team_short_name": "福島",
    "runner_name": "梁川",
    "total_distance_km": 103.7,
    "latitude": 35.17458351568997,
    "longitude": 139.01055556292417
  },
  {
    "rank": 10,
    "team_name": "熊本学園大学",
    "team_short_name": "熊学",
    "runner_name": "甲佐",
    "total_distance_km": 102.3,
    "latitude": 35.18328375051081,
    "longitude": 139.01423099602175
  },
  {
    "rank": 11,
    "team_name": "山梨学院大学",
    "team_short_name": "山学",
    "runner_name": "長野",
    "total_distance_km": 101.4,
    "latitude": 35.18469717936242,
    "longitude": 139.0233675458158
  },
  {
    "rank": 12,
    "team_name": "広島経済大学",
    "team_short_name": "広経",
    "runner_name": "三次",
    "total_distance_km": 101.1,
    "latitude": 35.18360782304501,
    "longitude": 139.02592176988026
  },
  {
    "rank": 13,
    "team_name": "福岡大学",
    "team_short_name": "福岡",
    "runner_name": "久留米",
    "total_distance_km": 100.9,
    "latitude": 35.18292230200782,
    "longitude": 139.02784399007416
  },
  {
    "rank": 14,
    "team_name": "鳥取大学",
    "team_short_name": "鳥取",
    "runner_name": "川本",
    "total_distance_km": 98.1,
    "latitude": 35.19584097204872,
    "longitude": 139.0522372812557
  },
  {
    "rank": 15,
    "team_name": "鹿児島大学",
    "team_short_name": "鹿大",
    "runner_name": "東市来",
    "total_distance_km": 98.0,
    "latitude": 35.196685045282806,
    "longitude": 139.05252468056634
  },
  {
    "rank": 16,
    "team_name": "琉球大学",
    "team_short_name": "琉球",
    "runner_name": "北原",
    "total_distance_km": 97.8,
    "latitude": 35.19846235435758,
    "longitude": 139.05286392257992
  },
  {
    "rank": 17,
    "team_name": "東北大学",
    "team_short_name": "東北",
    "runner_name": "帯広",
    "total_distance_km": 76.5,
    "latitude": 35.28424192525876,
    "longitude": 139.2257764336705
  },
  {
    "rank": 18,
    "team_name": "学連選抜",
    "team_short_name": "学連",
    "runner_name": "美幌",
    "total_distance_km": 68.3,
    "latitude": 35.30793905962772,
    "longitude": 139.30898240048742
  }
]