[
  {
    "rank": 1,
    "team_name": "琉球大学",
    "team_short_name": "琉球",
    "runner_name": "大原",
    "total_distance_km": 919.3,
    "latitude": 34.110926769004706,
    "longitude": 132.11007183469815,
    "is_shadow_confederation": false
  },
  {
    "rank": 2,
    "team_name": "名古屋大学",
    "team_short_name": "名大",
    "runner_name": "揖斐川",
    "total_distance_km": 898.2,
    "latitude": 34.23378222487183,
    "longitude": 132.2198834277891,
    "is_shadow_confederation": false
  },
  {
    "rank": 3,
    "team_name": "福岡大学",
    "team_short_name": "福岡",
    "runner_name": "佐賀（佐賀）",
    "total_distance_km": 896.6,
    "latitude": 34.24747444786638,
    "longitude": 132.22361647329933,
    "is_shadow_confederation": false
  },
  {
    "rank": 4,
    "team_name": "鹿児島大学",
    "team_short_name": "鹿大",
    "runner_name": "喜入",
    "total_distance_km": 896.2,
    "latitude": 34.25045516513012,
    "longitude": 132.2260603684425,
    "is_shadow_confederation": false
  },
  {
    "rank": 5,
    "team_name": "四国大学",
    "team_short_name": "四国",
    "runner_name": "西条",
    "total_distance_km": 890.0,
    "latitude": 34.287000551739254,
    "longitude": 132.2741271915457,
    "is_shadow_confederation": false
  },
  {
    "rank": 6,
    "team_name": "熊本学園大学",
    "team_short_name": "熊学",
    "runner_name": "菊池",
    "total_distance_km": 889.3,
    "latitude": 34.28957463963471,
    "longitude": 132.2809430999718,
    "is_shadow_confederation": false
  },
  {
    "rank": 7,
    "team_name": "関西大学",
    "team_short_name": "関大",
    "runner_name": "西脇",
    "total_distance_km": 886.9,
    "latitude": 34.3054125534832,
    "longitude": 132.29744074591264,
    "is_shadow_confederation": false
  },
  {
    "rank": 8,
    "team_name": "広島経済大学",
    "team_short_name": "広経",
    "runner_name": "滝宮",
    "total_distance_km": 879.4,
    "latitude": 34.35661566915838,
    "longitude": 132.34281302059293,
    "is_shadow_confederation": false
  },
  {
    "rank": 9,
    "team_name": "立命館大学",
    "team_short_name": "立命",
    "runner_name": "園部",
    "total_distance_km": 877.9,
    "latitude": 34.364247979229724,
    "longitude": 132.35395205727653,
    "is_shadow_confederation": false
  },
  {
    "rank": 10,
    "team_name": "日本大学",
    "team_short_name": "日大",
    "runner_name": "海老名",
    "total_distance_km": 868.8,
    "latitude": 34.386995836871115,
    "longitude": 132.44121230804615,
    "is_shadow_confederation": false
  },
  {
    "rank": 11,
    "team_name": "三重大学",
    "team_short_name": "三重",
    "runner_name": "上野",
    "total_distance_km": 868.7,
    "latitude": 34.3866291977354,
    "longitude": 132.44220568786108,
    "is_shadow_confederation": false
  },
  {
    "rank": 12,
    "team_name": "山梨学院大学",
    "team_short_name": "山学",
    "runner_name": "佐久間",
    "total_distance_km": 866.8,
    "latitude": 34.3824106378794,
    "longitude": 132.46198818355805,
    "is_shadow_confederation": false
  },
  {
    "rank": 13,
    "team_name": "鳥取大学",
    "team_short_name": "鳥取",
    "runner_name": "玖珂",
    "total_distance_km": 855.3,
    "latitude": 34.390923068805776,
    "longitude": 132.5648042836956,
    "is_shadow_confederation": false
  },
  {
    "rank": 14,
    "team_name": "上武大学",
    "team_short_name": "上武",
    "runner_name": "前橋",
    "total_distance_km": 854.5,
    "latitude": 34.395563488429,
    "longitude": 132.57121266933947,
    "is_shadow_confederation": false
  },
  {
    "rank": 15,
    "team_name": "金沢大学",
    "team_short_name": "金沢",
    "runner_name": "小松",
    "total_distance_km": 849.2,
    "latitude": 34.42245995209388,
    "longitude": 132.60904262179994,
    "is_shadow_confederation": false
  },
  {
    "rank": 16,
    "team_name": "学連選抜",
    "team_short_name": "学連",
    "runner_name": "飯塚",
    "total_distance_km": 833.3,
    "latitude": 34.407954926208866,
    "longitude": 132.7452040932714,
    "is_shadow_confederation": false
  },
  {
    "rank": 17,
    "team_name": "福島大学",
    "team_short_name": "福島",
    "runner_name": "喜多方",
    "total_distance_km": 823.3,
    "latitude": 34.407046768415036,
    "longitude": 132.84423632332621,
    "is_shadow_confederation": false
  },
  {
    "rank": 18,
    "team_name": "東北大学",
    "team_short_name": "東北",
    "runner_name": "東根",
    "total_distance_km": 756.8,
    "latitude": 34.498850817533864,
    "longitude": 133.44684102221933,
    "is_shadow_confederation": false
  },
  {
    "rank": null,
    "team_name": "区間記録連合",
    "team_short_name": "区間記録",
    "runner_name": "豊中",
    "total_distance_km": 937.0,
    "latitude": 34.04364760772707,
    "longitude": 131.95466134372555,
    "is_shadow_confederation": true
  }
]