[
  {
    "rank": 1,
    "team_name": "琉球大学",
    "team_short_name": "琉球",
    "runner_name": "大原",
    "total_distance_km": 893.1,
    "latitude": 34.267905736714475,
    "longitude": 132.25121446436532,
    "is_shadow_confederation": false
  },
  {
    "rank": 2,
    "team_name": "名古屋大学",
    "team_short_name": "名大",
    "runner_name": "揖斐川",
    "total_distance_km": 875.9,
    "latitude": 34.36786165062576,
    "longitude": 132.37517713756714,
    "is_shadow_confederation": false
  },
  {
    "rank": 3,
    "team_name": "福岡大学",
    "team_short_name": "福岡",
    "runner_name": "佐賀（佐賀）",
    "total_distance_km": 871.1,
    "latitude": 34.38866206766493,
    "longitude": 132.41964458005347,
    "is_shadow_confederation": false
  },
  {
    "rank": 3,
    "team_name": "鹿児島大学",
    "team_short_name": "鹿大",
    "runner_name": "さつま柏原",
    "total_distance_km": 871.1,
    "latitude": 34.38866206766493,
    "longitude": 132.41964458005347,
    "is_shadow_confederation": false
  },
  {
    "rank": 5,
    "team_name": "熊本学園大学",
    "team_short_name": "熊学",
    "runner_name": "三角",
    "total_distance_km": 864.1,
    "latitude": 34.37890371987643,
    "longitude": 132.4896842045659,
    "is_shadow_confederation": false
  },
  {
    "rank": 6,
    "team_name": "関西大学",
    "team_short_name": "関大",
    "runner_name": "郡家",
    "total_distance_km": 863.8,
    "latitude": 34.37816751724807,
    "longitude": 132.49282285779094,
    "is_shadow_confederation": false
  },
  {
    "rank": 7,
    "team_name": "四国大学",
    "team_short_name": "四国",
    "runner_name": "江川崎",
    "total_distance_km": 863.0,
    "latitude": 34.37321930276695,
    "longitude": 132.4982327283665,
    "is_shadow_confederation": false
  },
  {
    "rank": 8,
    "team_name": "広島経済大学",
    "team_short_name": "広経",
    "runner_name": "引田",
    "total_distance_km": 856.4,
    "latitude": 34.38260163834614,
    "longitude": 132.55854995262325,
    "is_shadow_confederation": false
  },
  {
    "rank": 9,
    "team_name": "立命館大学",
    "team_short_name": "立命",
    "runner_name": "京都",
    "total_distance_km": 856.3,
    "latitude": 34.3832042048522,
    "longitude": 132.55935868651238,
    "is_shadow_confederation": false
  },
  {
    "rank": 10,
    "team_name": "三重大学",
    "team_short_name": "三重",
    "runner_name": "和歌山",
    "total_distance_km": 846.2,
    "latitude": 34.43490114509016,
    "longitude": 132.63540185467204,
    "is_shadow_confederation": false
  },
  {
    "rank": 11,
    "team_name": "日本大学",
    "team_short_name": "日大",
    "runner_name": "府中（東京）",
    "total_distance_km": 845.3,
    "latitude": 34.4342976964845,
    "longitude": 132.64281692785815,
    "is_shadow_confederation": false
  },
  {
    "rank": 12,
    "team_name": "山梨学院大学",
    "team_short_name": "山学",
    "runner_name": "上田",
    "total_distance_km": 845.0,
    "latitude": 34.43461070198285,
    "longitude": 132.64570294932113,
    "is_shadow_confederation": false
  },
  {
    "rank": 13,
    "team_name": "鳥取大学",
    "team_short_name": "鳥取",
    "runner_name": "玖珂",
    "total_distance_km": 833.0,
    "latitude": 34.40628314189202,
    "longitude": 132.74776890061722,
    "is_shadow_confederation": false
  },
  {
    "rank": 14,
    "team_name": "上武大学",
    "team_short_name": "上武",
    "runner_name": "前橋",
    "total_distance_km": 831.2,
    "latitude": 34.39769961476449,
    "longitude": 132.7638944697587,
    "is_shadow_confederation": false
  },
  {
    "rank": 15,
    "team_name": "金沢大学",
    "team_short_name": "金沢",
    "runner_name": "小松",
    "total_distance_km": 822.9,
    "latitude": 34.40720964844193,
    "longitude": 132.84846809999024,
    "is_shadow_confederation": false
  },
  {
    "rank": 16,
    "team_name": "学連選抜",
    "team_short_name": "学連",
    "runner_name": "飯塚",
    "total_distance_km": 807.4,
    "latitude": 34.40460423225711,
    "longitude": 132.9903123416386,
    "is_shadow_confederation": false
  },
  {
    "rank": 17,
    "team_name": "福島大学",
    "team_short_name": "福島",
    "runner_name": "喜多方",
    "total_distance_km": 804.2,
    "latitude": 34.399444252748054,
    "longitude": 133.01977502597356,
    "is_shadow_confederation": false
  },
  {
    "rank": 18,
    "team_name": "東北大学",
    "team_short_name": "東北",
    "runner_name": "秋田",
    "total_distance_km": 737.9,
    "latitude": 34.53634378155854,
    "longitude": 133.62873206315533,
    "is_shadow_confederation": false
  },
  {
    "rank": null,
    "team_name": "区間記録連合",
    "team_short_name": "区間記録",
    "runner_name": "豊中",
    "total_distance_km": 898.9,
    "latitude": 34.22754001485174,
    "longitude": 132.2209979816493,
    "is_shadow_confederation": true
  }
]