[
  {
    "rank": 1,
    "team_name": "琉球大学",
    "team_short_name": "琉球",
    "runner_name": "名護",
    "total_distance_km": 358.5,
    "latitude": 35.12583736114521,
    "longitude": 136.8285350362035,
    "is_shadow_confederation": false
  },
  {
    "rank": 2,
    "team_name": "鹿児島大学",
    "team_short_name": "鹿大",
    "runner_name": "加久藤",
    "total_distance_km": 270.5,
    "latitude": 34.68137101287217,
    "longitude": 137.53805056354898,
    "is_shadow_confederation": false
  },
  {
    "rank": 3,
    "team_name": "熊本学園大学",
    "team_short_name": "熊学",
    "runner_name": "八代",
    "total_distance_km": 267.1,
    "latitude": 34.69401409559005,
    "longitude": 137.5702190434181,
    "is_shadow_confederation": false
  },
  {
    "rank": 4,
    "team_name": "福岡大学",
    "team_short_name": "福岡",
    "runner_name": "黒木",
    "total_distance_km": 247.5,
    "latitude": 34.71454010210235,
    "longitude": 137.76250806938455,
    "is_shadow_confederation": false
  },
  {
    "rank": 5,
    "team_name": "名古屋大学",
    "team_short_name": "名大",
    "runner_name": "大垣",
    "total_distance_km": 227.4,
    "latitude": 34.76298387741358,
    "longitude": 137.96225086518405,
    "is_shadow_confederation": false
  },
  {
    "rank": 6,
    "team_name": "日本大学",
    "team_short_name": "日大",
    "runner_name": "古河",
    "total_distance_km": 218.5,
    "latitude": 34.784187040480255,
    "longitude": 138.05123299770088,
    "is_shadow_confederation": false
  },
  {
    "rank": 7,
    "team_name": "上武大学",
    "team_short_name": "上武",
    "runner_name": "越谷",
    "total_distance_km": 217.8,
    "latitude": 34.784219,
    "longitude": 138.05878603949037,
    "is_shadow_confederation": false
  },
  {
    "rank": 8,
    "team_name": "四国大学",
    "team_short_name": "四国",
    "runner_name": "大三島",
    "total_distance_km": 216.1,
    "latitude": 34.79283507945569,
    "longitude": 138.0722532958131,
    "is_shadow_confederation": false
  },
  {
    "rank": 9,
    "team_name": "三重大学",
    "team_short_name": "三重",
    "runner_name": "五條",
    "total_distance_km": 214.4,
    "latitude": 34.80647579960338,
    "longitude": 138.07872528198743,
    "is_shadow_confederation": false
  },
  {
    "rank": 10,
    "team_name": "鳥取大学",
    "team_short_name": "鳥取",
    "runner_name": "鳥取",
    "total_distance_km": 200.9,
    "latitude": 34.84959212578898,
    "longitude": 138.1886299591462,
    "is_shadow_confederation": false
  },
  {
    "rank": 11,
    "team_name": "広島経済大学",
    "team_short_name": "広経",
    "runner_name": "加計",
    "total_distance_km": 199.7,
    "latitude": 34.85375770418336,
    "longitude": 138.20072923441376,
    "is_shadow_confederation": false
  },
  {
    "rank": 12,
    "team_name": "関西大学",
    "team_short_name": "関大",
    "runner_name": "和田山",
    "total_distance_km": 197.9,
    "latitude": 34.86549642726971,
    "longitude": 138.212747599464,
    "is_shadow_confederation": false
  },
  {
    "rank": 13,
    "team_name": "立命館大学",
    "team_short_name": "立命",
    "runner_name": "福知山",
    "total_distance_km": 185.6,
    "latitude": 34.93394880810308,
    "longitude": 138.30594068249744,
    "is_shadow_confederation": false
  },
  {
    "rank": 14,
    "team_name": "福島大学",
    "team_short_name": "福島",
    "runner_name": "石川",
    "total_distance_km": 180.0,
    "latitude": 34.94786877350199,
    "longitude": 138.3567784296399,
    "is_shadow_confederation": false
  },
  {
    "rank": 15,
    "team_name": "山梨学院大学",
    "team_short_name": "山学",
    "runner_name": "南信濃",
    "total_distance_km": 168.7,
    "latitude": 35.011963509692414,
    "longitude": 138.45125873873468,
    "is_shadow_confederation": false
  },
  {
    "rank": 16,
    "team_name": "金沢大学",
    "team_short_name": "金沢",
    "runner_name": "小浜",
    "total_distance_km": 160.0,
    "latitude": 35.05131968663845,
    "longitude": 138.5228500995638,
    "is_shadow_confederation": false
  },
  {
    "rank": 17,
    "team_name": "東北大学",
    "team_short_name": "東北",
    "runner_name": "帯広",
    "total_distance_km": 106.7,
    "latitude": 35.161047866742685,
    "longitude": 138.99861681363808,
    "is_shadow_confederation": false
  },
  {
    "rank": 18,
    "team_name": "学連選抜",
    "team_short_name": "学連",
    "runner_name": "美幌",
    "total_distance_km": 45.6,
    "latitude": 35.382175264603006,
    "longitude": 139.51385336060792,
    "is_shadow_confederation": false
  },
  {
    "rank": null,
    "team_name": "区間記録連合",
    "team_short_name": "区間記録",
    "runner_name": "風屋",
    "total_distance_km": 393.6,
    "latitude": 34.9281626705989,
    "longitude": 136.58747013446356,
    "is_shadow_confederation": true
  }
]