[
  {
    "rank": 1,
    "team_name": "琉球大学",
    "team_short_name": "琉球",
    "runner_name": "久米島",
    "total_distance_km": 559.9,
    "latitude": 34.71921707099089,
    "longitude": 135.26433515800107,
    "is_shadow_confederation": false
  },
  {
    "rank": 2,
    "team_name": "熊本学園大学",
    "team_short_name": "熊学",
    "runner_name": "熊本",
    "total_distance_km": 494.9,
    "latitude": 34.96220270985742,
    "longitude": 135.74586572831942,
    "is_shadow_confederation": false
  },
  {
    "rank": 3,
    "team_name": "鹿児島大学",
    "team_short_name": "鹿大",
    "runner_name": "西都",
    "total_distance_km": 478.6,
    "latitude": 34.9940036336349,
    "longitude": 135.85356699136605,
    "is_shadow_confederation": false
  },
  {
    "rank": 4,
    "team_name": "福岡大学",
    "team_short_name": "福岡",
    "runner_name": "前原",
    "total_distance_km": 462.8,
    "latitude": 35.02268109950344,
    "longitude": 135.9838717723133,
    "is_shadow_confederation": false
  },
  {
    "rank": 5,
    "team_name": "四国大学",
    "team_short_name": "四国",
    "runner_name": "大洲",
    "total_distance_km": 449.2,
    "latitude": 34.98510471008319,
    "longitude": 136.11433153210405,
    "is_shadow_confederation": false
  },
  {
    "rank": 6,
    "team_name": "広島経済大学",
    "team_short_name": "広経",
    "runner_name": "高梁",
    "total_distance_km": 431.2,
    "latitude": 34.93123533371503,
    "longitude": 136.29211503212116,
    "is_shadow_confederation": false
  },
  {
    "rank": 7,
    "team_name": "鳥取大学",
    "team_short_name": "鳥取",
    "runner_name": "境",
    "total_distance_km": 421.8,
    "latitude": 34.882047001329326,
    "longitude": 136.35882028163053,
    "is_shadow_confederation": false
  },
  {
    "rank": 8,
    "team_name": "関西大学",
    "team_short_name": "関大",
    "runner_name": "枚方",
    "total_distance_km": 417.0,
    "latitude": 34.85413939077548,
    "longitude": 136.38720692463795,
    "is_shadow_confederation": false
  },
  {
    "rank": 9,
    "team_name": "名古屋大学",
    "team_short_name": "名大",
    "runner_name": "多治見",
    "total_distance_km": 416.7,
    "latitude": 34.85285437990844,
    "longitude": 136.39007206084102,
    "is_shadow_confederation": false
  },
  {
    "rank": 10,
    "team_name": "立命館大学",
    "team_short_name": "立命",
    "runner_name": "米原",
    "total_distance_km": 407.6,
    "latitude": 34.85702033792925,
    "longitude": 136.48154016325287,
    "is_shadow_confederation": false
  },
  {
    "rank": 11,
    "team_name": "三重大学",
    "team_short_name": "三重",
    "runner_name": "風屋",
    "total_distance_km": 402.9,
    "latitude": 34.87861354575392,
    "longitude": 136.5196514934772,
    "is_shadow_confederation": false
  },
  {
    "rank": 12,
    "team_name": "金沢大学",
    "team_short_name": "金沢",
    "runner_name": "志賀",
    "total_distance_km": 388.1,
    "latitude": 34.966688742634354,
    "longitude": 136.6228574168929,
    "is_shadow_confederation": false
  },
  {
    "rank": 13,
    "team_name": "日本大学",
    "team_short_name": "日大",
    "runner_name": "小田原",
    "total_distance_km": 386.8,
    "latitude": 34.97776682289588,
    "longitude": 136.62703582241835,
    "is_shadow_confederation": false
  },
  {
    "rank": 14,
    "team_name": "上武大学",
    "team_short_name": "上武",
    "runner_name": "寄居",
    "total_distance_km": 381.2,
    "latitude": 35.015818454906395,
    "longitude": 136.6629130943428,
    "is_shadow_confederation": false
  },
  {
    "rank": 15,
    "team_name": "山梨学院大学",
    "team_short_name": "山学",
    "runner_name": "浜松",
    "total_distance_km": 365.7,
    "latitude": 35.117591794922525,
    "longitude": 136.75080698713697,
    "is_shadow_confederation": false
  },
  {
    "rank": 16,
    "team_name": "福島大学",
    "team_short_name": "福島",
    "runner_name": "長岡",
    "total_distance_km": 336.0,
    "latitude": 35.03083074417956,
    "longitude": 137.01907203877113,
    "is_shadow_confederation": false
  },
  {
    "rank": 17,
    "team_name": "学連選抜",
    "team_short_name": "学連",
    "runner_name": "大村",
    "total_distance_km": 317.2,
    "latitude": 34.94353232048494,
    "longitude": 137.1907193001392,
    "is_shadow_confederation": false
  },
  {
    "rank": 18,
    "team_name": "東北大学",
    "team_short_name": "東北",
    "runner_name": "高畠",
    "total_distance_km": 277.1,
    "latitude": 34.700966052054554,
    "longitude": 137.4836489267723,
    "is_shadow_confederation": false
  }
]