[
  {
    "rank": 1,
    "team_name": "名古屋大学",
    "team_short_name": "名大",
    "runner_name": "豊田（愛知）",
    "total_distance_km": 638.5,
    "latitude": 34.832343802625616,
    "longitude": 134.5530950750862,
    "is_shadow_confederation": false
  },
  {
    "rank": 2,
    "team_name": "四国大学",
    "team_short_name": "四国",
    "runner_name": "徳島",
    "total_distance_km": 630.3,
    "latitude": 34.84304143253462,
    "longitude": 134.62879002942952,
    "is_shadow_confederation": false
  },
  {
    "rank": 3,
    "team_name": "琉球大学",
    "team_short_name": "琉球",
    "runner_name": "久米島",
    "total_distance_km": 628.5,
    "latitude": 34.84482491694805,
    "longitude": 134.64773025746507,
    "is_shadow_confederation": false
  },
  {
    "rank": 4,
    "team_name": "立命館大学",
    "team_short_name": "立命",
    "runner_name": "彦根",
    "total_distance_km": 624.9,
    "latitude": 34.834492349917284,
    "longitude": 134.68464542759654,
    "is_shadow_confederation": false
  },
  {
    "rank": 5,
    "team_name": "熊本学園大学",
    "team_short_name": "熊学",
    "runner_name": "大分",
    "total_distance_km": 624.8,
    "latitude": 34.83430040242085,
    "longitude": 134.68571358423515,
    "is_shadow_confederation": false
  },
  {
    "rank": 6,
    "team_name": "関西大学",
    "team_short_name": "関大",
    "runner_name": "豊中",
    "total_distance_km": 621.7,
    "latitude": 34.8268453694774,
    "longitude": 134.71825848915805,
    "is_shadow_confederation": false
  },
  {
    "rank": 7,
    "team_name": "福岡大学",
    "team_short_name": "福岡",
    "runner_name": "博多",
    "total_distance_km": 621.3,
    "latitude": 34.82578481872543,
    "longitude": 134.72243357694882,
    "is_shadow_confederation": false
  },
  {
    "rank": 8,
    "team_name": "広島経済大学",
    "team_short_name": "広経",
    "runner_name": "高松（香川）",
    "total_distance_km": 619.6,
    "latitude": 34.81900041369975,
    "longitude": 134.73907452953304,
    "is_shadow_confederation": false
  },
  {
    "rank": 9,
    "team_name": "三重大学",
    "team_short_name": "三重",
    "runner_name": "新宮",
    "total_distance_km": 618.4,
    "latitude": 34.81138356727185,
    "longitude": 134.7482871142463,
    "is_shadow_confederation": false
  },
  {
    "rank": 10,
    "team_name": "山梨学院大学",
    "team_short_name": "山学",
    "runner_name": "静岡",
    "total_distance_km": 617.6,
    "latitude": 34.80641345964694,
    "longitude": 134.75459187698632,
    "is_shadow_confederation": false
  },
  {
    "rank": 11,
    "team_name": "日本大学",
    "team_short_name": "日大",
    "runner_name": "八王子",
    "total_distance_km": 614.3,
    "latitude": 34.794704323856344,
    "longitude": 134.78563027778657,
    "is_shadow_confederation": false
  },
  {
    "rank": 12,
    "team_name": "鹿児島大学",
    "team_short_name": "鹿大",
    "runner_name": "笠利",
    "total_distance_km": 612.6,
    "latitude": 34.78802125695307,
    "longitude": 134.80187104660027,
    "is_shadow_confederation": false
  },
  {
    "rank": 13,
    "team_name": "上武大学",
    "team_short_name": "上武",
    "runner_name": "伊勢崎",
    "total_distance_km": 605.0,
    "latitude": 34.74494240091944,
    "longitude": 134.86461242348182,
    "is_shadow_confederation": false
  },
  {
    "rank": 14,
    "team_name": "鳥取大学",
    "team_short_name": "鳥取",
    "runner_name": "松江",
    "total_distance_km": 602.7,
    "latitude": 34.729456613966455,
    "longitude": 134.88096095501493,
    "is_shadow_confederation": false
  },
  {
    "rank": 15,
    "team_name": "金沢大学",
    "team_short_name": "金沢",
    "runner_name": "富山",
    "total_distance_km": 595.4,
    "latitude": 34.6848051476948,
    "longitude": 134.93761048540912,
    "is_shadow_confederation": false
  },
  {
    "rank": 16,
    "team_name": "福島大学",
    "team_short_name": "福島",
    "runner_name": "浪江",
    "total_distance_km": 582.5,
    "latitude": 34.62817566832108,
    "longitude": 135.05210417951238,
    "is_shadow_confederation": false
  },
  {
    "rank": 17,
    "team_name": "学連選抜",
    "team_short_name": "学連",
    "runner_name": "多度津",
    "total_distance_km": 564.3,
    "latitude": 34.70341714963537,
    "longitude": 135.22206922236919,
    "is_shadow_confederation": false
  },
  {
    "rank": 18,
    "team_name": "東北大学",
    "team_short_name": "東北",
    "runner_name": "一関",
    "total_distance_km": 528.4,
    "latitude": 34.7313476783,
    "longitude": 135.55469424454088,
    "is_shadow_confederation": false
  },
  {
    "rank": null,
    "team_name": "区間記録連合",
    "team_short_name": "区間記録",
    "runner_name": "勝沼",
    "total_distance_km": 662.7,
    "latitude": 34.83310393525108,
    "longitude": 134.31480735005627,
    "is_shadow_confederation": true
  }
]