[
  {
    "rank": 1,
    "team_name": "琉球大学",
    "team_short_name": "琉球",
    "runner_name": "久米島",
    "total_distance_km": 659.9,
    "latitude": 34.842149792400086,
    "longitude": 134.33642445975778,
    "is_shadow_confederation": false
  },
  {
    "rank": 2,
    "team_name": "鹿児島大学",
    "team_short_name": "鹿大",
    "runner_name": "西都",
    "total_distance_km": 524.5,
    "latitude": 34.75541869719172,
    "longitude": 135.5857338598291,
    "is_shadow_confederation": false
  },
  {
    "rank": 3,
    "team_name": "熊本学園大学",
    "team_short_name": "熊学",
    "runner_name": "熊本",
    "total_distance_km": 511.5,
    "latitude": 34.82960736873837,
    "longitude": 135.68752935109185,
    "is_shadow_confederation": false
  },
  {
    "rank": 4,
    "team_name": "福岡大学",
    "team_short_name": "福岡",
    "runner_name": "前原",
    "total_distance_km": 487.9,
    "latitude": 35.00711423197711,
    "longitude": 135.76909423772,
    "is_shadow_confederation": false
  },
  {
    "rank": 5,
    "team_name": "名古屋大学",
    "team_short_name": "名大",
    "runner_name": "多治見",
    "total_distance_km": 446.8,
    "latitude": 34.98393574368739,
    "longitude": 136.13901778296588,
    "is_shadow_confederation": false
  },
  {
    "rank": 6,
    "team_name": "四国大学",
    "team_short_name": "四国",
    "runner_name": "大洲",
    "total_distance_km": 444.0,
    "latitude": 34.97666275038099,
    "longitude": 136.16829437874654,
    "is_shadow_confederation": false
  },
  {
    "rank": 7,
    "team_name": "上武大学",
    "team_short_name": "上武",
    "runner_name": "桐生",
    "total_distance_km": 439.0,
    "latitude": 34.95562844645062,
    "longitude": 136.21468648615343,
    "is_shadow_confederation": false
  },
  {
    "rank": 8,
    "team_name": "日本大学",
    "team_short_name": "日大",
    "runner_name": "牛久",
    "total_distance_km": 437.0,
    "latitude": 34.9475159471135,
    "longitude": 136.23388316923464,
    "is_shadow_confederation": false
  },
  {
    "rank": 9,
    "team_name": "広島経済大学",
    "team_short_name": "広経",
    "runner_name": "高梁",
    "total_distance_km": 431.5,
    "latitude": 34.933088618561776,
    "longitude": 136.28972384388354,
    "is_shadow_confederation": false
  },
  {
    "rank": 10,
    "team_name": "鳥取大学",
    "team_short_name": "鳥取",
    "runner_name": "境",
    "total_distance_km": 430.2,
    "latitude": 34.925823674745054,
    "longitude": 136.30081075956312,
    "is_shadow_confederation": false
  },
  {
    "rank": 11,
    "team_name": "三重大学",
    "team_short_name": "三重",
    "runner_name": "奈良",
    "total_distance_km": 427.4,
    "latitude": 34.91016473810258,
    "longitude": 136.32343360499397,
    "is_shadow_confederation": false
  },
  {
    "rank": 12,
    "team_name": "関西大学",
    "team_short_name": "関大",
    "runner_name": "枚方",
    "total_distance_km": 422.4,
    "latitude": 34.8863818314126,
    "longitude": 136.354954567152,
    "is_shadow_confederation": false
  },
  {
    "rank": 13,
    "team_name": "立命館大学",
    "team_short_name": "立命",
    "runner_name": "米原",
    "total_distance_km": 401.1,
    "latitude": 34.889652042278,
    "longitude": 136.5331008185815,
    "is_shadow_confederation": false
  },
  {
    "rank": 14,
    "team_name": "山梨学院大学",
    "team_short_name": "山学",
    "runner_name": "浜松",
    "total_distance_km": 389.6,
    "latitude": 34.95542736929922,
    "longitude": 136.61430157519234,
    "is_shadow_confederation": false
  },
  {
    "rank": 15,
    "team_name": "福島大学",
    "team_short_name": "福島",
    "runner_name": "長岡",
    "total_distance_km": 371.3,
    "latitude": 35.0922207511941,
    "longitude": 136.70235339758082,
    "is_shadow_confederation": false
  },
  {
    "rank": 16,
    "team_name": "金沢大学",
    "team_short_name": "金沢",
    "runner_name": "志賀",
    "total_distance_km": 344.9,
    "latitude": 35.07860493427795,
    "longitude": 136.94436599613493,
    "is_shadow_confederation": false
  },
  {
    "rank": 17,
    "team_name": "東北大学",
    "team_short_name": "東北",
    "runner_name": "高畠",
    "total_distance_km": 295.7,
    "latitude": 34.8134753238777,
    "longitude": 137.35289160113402,
    "is_shadow_confederation": false
  },
  {
    "rank": 18,
    "team_name": "学連選抜",
    "team_short_name": "学連",
    "runner_name": "新潟",
    "total_distance_km": 191.2,
    "latitude": 34.89527868895068,
    "longitude": 138.27384551337232,
    "is_shadow_confederation": false
  },
  {
    "rank": null,
    "team_name": "区間記録連合",
    "team_short_name": "区間記録",
    "runner_name": "勝沼",
    "total_distance_km": 659.9,
    "latitude": 34.842149792400086,
    "longitude": 134.33642445975778,
    "is_shadow_confederation": true
  }
]