[
  {
    "rank": 1,
    "team_name": "名古屋大学",
    "team_short_name": "名大",
    "runner_name": "多治見",
    "total_distance_km": 440.5,
    "latitude": 34.95801143023345,
    "longitude": 136.19882895396844,
    "is_shadow_confederation": false
  },
  {
    "rank": 2,
    "team_name": "四国大学",
    "team_short_name": "四国",
    "runner_name": "大洲",
    "total_distance_km": 437.0,
    "latitude": 34.9475159471135,
    "longitude": 136.23388316923464,
    "is_shadow_confederation": false
  },
  {
    "rank": 3,
    "team_name": "熊本学園大学",
    "team_short_name": "熊学",
    "runner_name": "熊本",
    "total_distance_km": 434.5,
    "latitude": 34.93916420490886,
    "longitude": 136.25899192948765,
    "is_shadow_confederation": false
  },
  {
    "rank": 4,
    "team_name": "福岡大学",
    "team_short_name": "福岡",
    "runner_name": "前原",
    "total_distance_km": 433.7,
    "latitude": 34.93792043615859,
    "longitude": 136.26758432097807,
    "is_shadow_confederation": false
  },
  {
    "rank": 5,
    "team_name": "琉球大学",
    "team_short_name": "琉球",
    "runner_name": "波照間",
    "total_distance_km": 433.6,
    "latitude": 34.93796449383831,
    "longitude": 136.26867761960844,
    "is_shadow_confederation": false
  },
  {
    "rank": 6,
    "team_name": "立命館大学",
    "team_short_name": "立命",
    "runner_name": "舞鶴",
    "total_distance_km": 432.7,
    "latitude": 34.937901913230995,
    "longitude": 136.27832755926798,
    "is_shadow_confederation": false
  },
  {
    "rank": 7,
    "team_name": "関西大学",
    "team_short_name": "関大",
    "runner_name": "柏原",
    "total_distance_km": 428.0,
    "latitude": 34.91464987829952,
    "longitude": 136.3197646780463,
    "is_shadow_confederation": false
  },
  {
    "rank": 8,
    "team_name": "広島経済大学",
    "team_short_name": "広経",
    "runner_name": "大竹",
    "total_distance_km": 427.6,
    "latitude": 34.911659784834896,
    "longitude": 136.32221062934474,
    "is_shadow_confederation": false
  },
  {
    "rank": 9,
    "team_name": "鳥取大学",
    "team_short_name": "鳥取",
    "runner_name": "防府",
    "total_distance_km": 423.8,
    "latitude": 34.88987538676716,
    "longitude": 136.34111662830608,
    "is_shadow_confederation": false
  },
  {
    "rank": 10,
    "team_name": "日本大学",
    "team_short_name": "日大",
    "runner_name": "小田原",
    "total_distance_km": 423.0,
    "latitude": 34.88844021161507,
    "longitude": 136.34937098174666,
    "is_shadow_confederation": false
  },
  {
    "rank": 11,
    "team_name": "山梨学院大学",
    "team_short_name": "山学",
    "runner_name": "浜松",
    "total_distance_km": 422.1,
    "latitude": 34.884275075946846,
    "longitude": 136.35700976865877,
    "is_shadow_confederation": false
  },
  {
    "rank": 12,
    "team_name": "三重大学",
    "team_short_name": "三重",
    "runner_name": "風屋",
    "total_distance_km": 419.9,
    "latitude": 34.869038417873995,
    "longitude": 136.36795267396738,
    "is_shadow_confederation": false
  },
  {
    "rank": 13,
    "team_name": "上武大学",
    "team_short_name": "上武",
    "runner_name": "寄居",
    "total_distance_km": 415.6,
    "latitude": 34.851313640361354,
    "longitude": 136.40192007819135,
    "is_shadow_confederation": false
  },
  {
    "rank": 14,
    "team_name": "鹿児島大学",
    "team_short_name": "鹿大",
    "runner_name": "西米良",
    "total_distance_km": 415.5,
    "latitude": 34.851080082033036,
    "longitude": 136.4029761901956,
    "is_shadow_confederation": false
  },
  {
    "rank": 15,
    "team_name": "金沢大学",
    "team_short_name": "金沢",
    "runner_name": "志賀",
    "total_distance_km": 413.6,
    "latitude": 34.85704142066177,
    "longitude": 136.42109127646808,
    "is_shadow_confederation": false
  },
  {
    "rank": 16,
    "team_name": "福島大学",
    "team_short_name": "福島",
    "runner_name": "長岡",
    "total_distance_km": 402.9,
    "latitude": 34.87861354575392,
    "longitude": 136.5196514934772,
    "is_shadow_confederation": false
  },
  {
    "rank": 17,
    "team_name": "学連選抜",
    "team_short_name": "学連",
    "runner_name": "上",
    "total_distance_km": 375.3,
    "latitude": 35.06355066586245,
    "longitude": 136.68575730366203,
    "is_shadow_confederation": false
  },
  {
    "rank": 18,
    "team_name": "東北大学",
    "team_short_name": "東北",
    "runner_name": "大館",
    "total_distance_km": 365.3,
    "latitude": 35.11857045304608,
    "longitude": 136.7550303959132,
    "is_shadow_confederation": false
  },
  {
    "rank": null,
    "team_name": "区間記録連合",
    "team_short_name": "区間記録",
    "runner_name": "桐生",
    "total_distance_km": 450.0,
    "latitude": 34.98901130046927,
    "longitude": 136.1070333089734,
    "is_shadow_confederation": true
  }
]