[
  {
    "rank": 1,
    "team_name": "琉球大学",
    "team_short_name": "琉球",
    "runner_name": "石垣島",
    "total_distance_km": 1033.9,
    "latitude": 34.044969369482224,
    "longitude": 131.06860460741777,
    "is_shadow_confederation": false
  },
  {
    "rank": 2,
    "team_name": "鹿児島大学",
    "team_short_name": "鹿大",
    "runner_name": "喜入",
    "total_distance_km": 864.3,
    "latitude": 34.379394521628676,
    "longitude": 132.4875917690825,
    "is_shadow_confederation": false
  },
  {
    "rank": 3,
    "team_name": "熊本学園大学",
    "team_short_name": "熊学",
    "runner_name": "三角",
    "total_distance_km": 830.1,
    "latitude": 34.39979204317182,
    "longitude": 132.77550283302085,
    "is_shadow_confederation": false
  },
  {
    "rank": 4,
    "team_name": "福岡大学",
    "team_short_name": "福岡",
    "runner_name": "大牟田",
    "total_distance_km": 816.6,
    "latitude": 34.39252431899721,
    "longitude": 132.90630517330214,
    "is_shadow_confederation": false
  },
  {
    "rank": 5,
    "team_name": "四国大学",
    "team_short_name": "四国",
    "runner_name": "江川崎",
    "total_distance_km": 778.4,
    "latitude": 34.44288857958387,
    "longitude": 133.23525294998032,
    "is_shadow_confederation": false
  },
  {
    "rank": 6,
    "team_name": "広島経済大学",
    "team_short_name": "広経",
    "runner_name": "引田",
    "total_distance_km": 759.1,
    "latitude": 34.499776244288924,
    "longitude": 133.42471478851678,
    "is_shadow_confederation": false
  },
  {
    "rank": 7,
    "team_name": "関西大学",
    "team_short_name": "関大",
    "runner_name": "八尾（大阪）",
    "total_distance_km": 743.2,
    "latitude": 34.52086634732702,
    "longitude": 133.5758614271959,
    "is_shadow_confederation": false
  },
  {
    "rank": 8,
    "team_name": "鳥取大学",
    "team_short_name": "鳥取",
    "runner_name": "米子",
    "total_distance_km": 742.7,
    "latitude": 34.523211850451396,
    "longitude": 133.5805116980156,
    "is_shadow_confederation": false
  },
  {
    "rank": 9,
    "team_name": "名古屋大学",
    "team_short_name": "名大",
    "runner_name": "名古屋",
    "total_distance_km": 739.6,
    "latitude": 34.53567012796459,
    "longitude": 133.6104288635902,
    "is_shadow_confederation": false
  },
  {
    "rank": 10,
    "team_name": "三重大学",
    "team_short_name": "三重",
    "runner_name": "津",
    "total_distance_km": 725.1,
    "latitude": 34.58704921405188,
    "longitude": 133.74472304150325,
    "is_shadow_confederation": false
  },
  {
    "rank": 11,
    "team_name": "立命館大学",
    "team_short_name": "立命",
    "runner_name": "長浜（滋賀）",
    "total_distance_km": 708.8,
    "latitude": 34.65203854822791,
    "longitude": 133.89458398744904,
    "is_shadow_confederation": false
  },
  {
    "rank": 12,
    "team_name": "上武大学",
    "team_short_name": "上武",
    "runner_name": "小山",
    "total_distance_km": 693.8,
    "latitude": 34.703027616982126,
    "longitude": 134.03734489766836,
    "is_shadow_confederation": false
  },
  {
    "rank": 13,
    "team_name": "金沢大学",
    "team_short_name": "金沢",
    "runner_name": "敦賀",
    "total_distance_km": 691.8,
    "latitude": 34.7055715452232,
    "longitude": 134.05819937299512,
    "is_shadow_confederation": false
  },
  {
    "rank": 13,
    "team_name": "日本大学",
    "team_short_name": "日大",
    "runner_name": "練馬",
    "total_distance_km": 691.8,
    "latitude": 34.7055715452232,
    "longitude": 134.05819937299512,
    "is_shadow_confederation": false
  },
  {
    "rank": 15,
    "team_name": "山梨学院大学",
    "team_short_name": "山学",
    "runner_name": "三島",
    "total_distance_km": 683.0,
    "latitude": 34.734952598675015,
    "longitude": 134.14103820219557,
    "is_shadow_confederation": false
  },
  {
    "rank": 16,
    "team_name": "学連選抜",
    "team_short_name": "学連",
    "runner_name": "多度津",
    "total_distance_km": 642.3,
    "latitude": 34.82455383499468,
    "longitude": 134.51291756000185,
    "is_shadow_confederation": false
  },
  {
    "rank": 17,
    "team_name": "福島大学",
    "team_short_name": "福島",
    "runner_name": "浪江",
    "total_distance_km": 613.4,
    "latitude": 34.79172102307387,
    "longitude": 134.7947753438502,
    "is_shadow_confederation": false
  },
  {
    "rank": 18,
    "team_name": "東北大学",
    "team_short_name": "東北",
    "runner_name": "一関",
    "total_distance_km": 525.9,
    "latitude": 34.74677781861521,
    "longitude": 135.5745914338282,
    "is_shadow_confederation": false
  }
]