[
  {
    "rank": 1,
    "team_name": "琉球大学",
    "team_short_name": "琉球",
    "runner_name": "久米島",
    "total_distance_km": 559.7,
    "latitude": 34.72002357636452,
    "longitude": 135.26628794647522,
    "is_shadow_confederation": false
  },
  {
    "rank": 2,
    "team_name": "熊本学園大学",
    "team_short_name": "熊学",
    "runner_name": "熊本",
    "total_distance_km": 494.8,
    "latitude": 34.96310382216126,
    "longitude": 135.74589295601066,
    "is_shadow_confederation": false
  },
  {
    "rank": 3,
    "team_name": "鹿児島大学",
    "team_short_name": "鹿大",
    "runner_name": "西都",
    "total_distance_km": 478.2,
    "latitude": 34.99460953254208,
    "longitude": 135.85757470556734,
    "is_shadow_confederation": false
  },
  {
    "rank": 4,
    "team_name": "福岡大学",
    "team_short_name": "福岡",
    "runner_name": "前原",
    "total_distance_km": 461.7,
    "latitude": 35.02672691566858,
    "longitude": 135.99474082920062,
    "is_shadow_confederation": false
  },
  {
    "rank": 5,
    "team_name": "四国大学",
    "team_short_name": "四国",
    "runner_name": "大洲",
    "total_distance_km": 447.8,
    "latitude": 34.98521155576999,
    "longitude": 136.1282348429441,
    "is_shadow_confederation": false
  },
  {
    "rank": 6,
    "team_name": "広島経済大学",
    "team_short_name": "広経",
    "runner_name": "高梁",
    "total_distance_km": 429.7,
    "latitude": 34.9231238534678,
    "longitude": 136.3051523104419,
    "is_shadow_confederation": false
  },
  {
    "rank": 7,
    "team_name": "鳥取大学",
    "team_short_name": "鳥取",
    "runner_name": "境",
    "total_distance_km": 419.6,
    "latitude": 34.86920946425628,
    "longitude": 136.37054299287453,
    "is_shadow_confederation": false
  },
  {
    "rank": 8,
    "team_name": "関西大学",
    "team_short_name": "関大",
    "runner_name": "枚方",
    "total_distance_km": 416.6,
    "latitude": 34.85267821627689,
    "longitude": 136.3911444517423,
    "is_shadow_confederation": false
  },
  {
    "rank": 9,
    "team_name": "名古屋大学",
    "team_short_name": "名大",
    "runner_name": "多治見",
    "total_distance_km": 413.5,
    "latitude": 34.85733497972286,
    "longitude": 136.42212519354857,
    "is_shadow_confederation": false
  },
  {
    "rank": 10,
    "team_name": "立命館大学",
    "team_short_name": "立命",
    "runner_name": "米原",
    "total_distance_km": 406.8,
    "latitude": 34.86270060423331,
    "longitude": 136.48660700358272,
    "is_shadow_confederation": false
  },
  {
    "rank": 11,
    "team_name": "三重大学",
    "team_short_name": "三重",
    "runner_name": "風屋",
    "total_distance_km": 400.9,
    "latitude": 34.89033686677164,
    "longitude": 136.5351042702108,
    "is_shadow_confederation": false
  },
  {
    "rank": 12,
    "team_name": "金沢大学",
    "team_short_name": "金沢",
    "runner_name": "志賀",
    "total_distance_km": 382.9,
    "latitude": 35.00358728739273,
    "longitude": 136.6551529747685,
    "is_shadow_confederation": false
  },
  {
    "rank": 13,
    "team_name": "日本大学",
    "team_short_name": "日大",
    "runner_name": "小田原",
    "total_distance_km": 381.7,
    "latitude": 35.01241892290878,
    "longitude": 136.65931949536164,
    "is_shadow_confederation": false
  },
  {
    "rank": 14,
    "team_name": "上武大学",
    "team_short_name": "上武",
    "runner_name": "寄居",
    "total_distance_km": 377.0,
    "latitude": 35.04916533277971,
    "longitude": 136.6797415153519,
    "is_shadow_confederation": false
  },
  {
    "rank": 15,
    "team_name": "山梨学院大学",
    "team_short_name": "山学",
    "runner_name": "浜松",
    "total_distance_km": 363.3,
    "latitude": 35.12335307250736,
    "longitude": 136.7761782514416,
    "is_shadow_confederation": false
  },
  {
    "rank": 16,
    "team_name": "福島大学",
    "team_short_name": "福島",
    "runner_name": "長岡",
    "total_distance_km": 334.3,
    "latitude": 35.02031612138099,
    "longitude": 137.03250910812037,
    "is_shadow_confederation": false
  },
  {
    "rank": 17,
    "team_name": "学連選抜",
    "team_short_name": "学連",
    "runner_name": "大村",
    "total_distance_km": 315.2,
    "latitude": 34.927492089409974,
    "longitude": 137.1998089815573,
    "is_shadow_confederation": false
  },
  {
    "rank": 18,
    "team_name": "東北大学",
    "team_short_name": "東北",
    "runner_name": "高畠",
    "total_distance_km": 276.0,
    "latitude": 34.69500724546161,
    "longitude": 137.49224563410155,
    "is_shadow_confederation": false
  }
]