[
  {
    "rank": 1,
    "team_name": "名古屋大学",
    "team_short_name": "名大",
    "runner_name": "多治見",
    "total_distance_km": 538.5,
    "latitude": 34.6939222731375,
    "longitude": 135.47753665224081,
    "is_shadow_confederation": false
  },
  {
    "rank": 2,
    "team_name": "四国大学",
    "team_short_name": "四国",
    "runner_name": "大洲",
    "total_distance_km": 535.3,
    "latitude": 34.697304543183385,
    "longitude": 135.5112349018523,
    "is_shadow_confederation": false
  },
  {
    "rank": 3,
    "team_name": "熊本学園大学",
    "team_short_name": "熊学",
    "runner_name": "熊本",
    "total_distance_km": 532.9,
    "latitude": 34.699425225568326,
    "longitude": 135.53692063454073,
    "is_shadow_confederation": false
  },
  {
    "rank": 4,
    "team_name": "福岡大学",
    "team_short_name": "福岡",
    "runner_name": "前原",
    "total_distance_km": 532.1,
    "latitude": 34.700244586116234,
    "longitude": 135.54556198069122,
    "is_shadow_confederation": false
  },
  {
    "rank": 5,
    "team_name": "琉球大学",
    "team_short_name": "琉球",
    "runner_name": "波照間",
    "total_distance_km": 531.9,
    "latitude": 34.70167614834872,
    "longitude": 135.5460740762558,
    "is_shadow_confederation": false
  },
  {
    "rank": 6,
    "team_name": "立命館大学",
    "team_short_name": "立命",
    "runner_name": "舞鶴",
    "total_distance_km": 527.3,
    "latitude": 34.73813694003869,
    "longitude": 135.5634490078273,
    "is_shadow_confederation": false
  },
  {
    "rank": 7,
    "team_name": "関西大学",
    "team_short_name": "関大",
    "runner_name": "枚方",
    "total_distance_km": 525.8,
    "latitude": 34.747395024227814,
    "longitude": 135.57538732139972,
    "is_shadow_confederation": false
  },
  {
    "rank": 8,
    "team_name": "広島経済大学",
    "team_short_name": "広経",
    "runner_name": "高梁",
    "total_distance_km": 523.5,
    "latitude": 34.76232389312581,
    "longitude": 135.5926901045477,
    "is_shadow_confederation": false
  },
  {
    "rank": 9,
    "team_name": "日本大学",
    "team_short_name": "日大",
    "runner_name": "牛久",
    "total_distance_km": 518.4,
    "latitude": 34.79659509487006,
    "longitude": 135.62733499465196,
    "is_shadow_confederation": false
  },
  {
    "rank": 10,
    "team_name": "鳥取大学",
    "team_short_name": "鳥取",
    "runner_name": "境",
    "total_distance_km": 518.1,
    "latitude": 34.79910243144608,
    "longitude": 135.62845645775167,
    "is_shadow_confederation": false
  },
  {
    "rank": 10,
    "team_name": "鹿児島大学",
    "team_short_name": "鹿大",
    "runner_name": "西都",
    "total_distance_km": 518.1,
    "latitude": 34.79910243144608,
    "longitude": 135.62845645775167,
    "is_shadow_confederation": false
  },
  {
    "rank": 12,
    "team_name": "三重大学",
    "team_short_name": "三重",
    "runner_name": "奈良",
    "total_distance_km": 517.8,
    "latitude": 34.80095450940348,
    "longitude": 135.63084525272626,
    "is_shadow_confederation": false
  },
  {
    "rank": 13,
    "team_name": "山梨学院大学",
    "team_short_name": "山学",
    "runner_name": "甲府",
    "total_distance_km": 515.9,
    "latitude": 34.805551851335544,
    "longitude": 135.6500760723536,
    "is_shadow_confederation": false
  },
  {
    "rank": 14,
    "team_name": "上武大学",
    "team_short_name": "上武",
    "runner_name": "桐生",
    "total_distance_km": 508.8,
    "latitude": 34.85006316941373,
    "longitude": 135.70308564702827,
    "is_shadow_confederation": false
  },
  {
    "rank": 15,
    "team_name": "金沢大学",
    "team_short_name": "金沢",
    "runner_name": "福井",
    "total_distance_km": 505.0,
    "latitude": 34.87396106862978,
    "longitude": 135.73181702157152,
    "is_shadow_confederation": false
  },
  {
    "rank": 16,
    "team_name": "福島大学",
    "team_short_name": "福島",
    "runner_name": "福島",
    "total_distance_km": 495.7,
    "latitude": 34.954993811426775,
    "longitude": 135.7456479067896,
    "is_shadow_confederation": false
  },
  {
    "rank": 17,
    "team_name": "学連選抜",
    "team_short_name": "学連",
    "runner_name": "久世",
    "total_distance_km": 472.1,
    "latitude": 34.97785891658226,
    "longitude": 135.90250894524974,
    "is_shadow_confederation": false
  },
  {
    "rank": 18,
    "team_name": "東北大学",
    "team_short_name": "東北",
    "runner_name": "一関",
    "total_distance_km": 452.7,
    "latitude": 35.003293647607116,
    "longitude": 136.0831323040594,
    "is_shadow_confederation": false
  },
  {
    "rank": null,
    "team_name": "区間記録連合",
    "team_short_name": "区間記録",
    "runner_name": "桐生",
    "total_distance_km": 538.5,
    "latitude": 34.6939222731375,
    "longitude": 135.47753665224081,
    "is_shadow_confederation": true
  }
]