[
  {
    "rank": 1,
    "team_name": "琉球大学",
    "team_short_name": "琉球",
    "runner_name": "石垣島",
    "total_distance_km": 1022.5,
    "latitude": 34.049376391630815,
    "longitude": 131.18338203656845,
    "is_shadow_confederation": false
  },
  {
    "rank": 2,
    "team_name": "鹿児島大学",
    "team_short_name": "鹿大",
    "runner_name": "さつま柏原",
    "total_distance_km": 821.0,
    "latitude": 34.39891334829394,
    "longitude": 132.86605607688267,
    "is_shadow_confederation": false
  },
  {
    "rank": 3,
    "team_name": "熊本学園大学",
    "team_short_name": "熊学",
    "runner_name": "三角",
    "total_distance_km": 793.0,
    "latitude": 34.38295997447784,
    "longitude": 133.12443008958232,
    "is_shadow_confederation": false
  },
  {
    "rank": 4,
    "team_name": "福岡大学",
    "team_short_name": "福岡",
    "runner_name": "大牟田",
    "total_distance_km": 763.0,
    "latitude": 34.487583200577475,
    "longitude": 133.3856982906854,
    "is_shadow_confederation": false
  },
  {
    "rank": 5,
    "team_name": "名古屋大学",
    "team_short_name": "名大",
    "runner_name": "名古屋",
    "total_distance_km": 736.2,
    "latitude": 34.541593094131464,
    "longitude": 133.64566267072755,
    "is_shadow_confederation": false
  },
  {
    "rank": 6,
    "team_name": "四国大学",
    "team_short_name": "四国",
    "runner_name": "新居浜",
    "total_distance_km": 727.2,
    "latitude": 34.57668622533853,
    "longitude": 133.72567587027476,
    "is_shadow_confederation": false
  },
  {
    "rank": 7,
    "team_name": "日本大学",
    "team_short_name": "日大",
    "runner_name": "練馬",
    "total_distance_km": 715.0,
    "latitude": 34.641100636786014,
    "longitude": 133.8308456782254,
    "is_shadow_confederation": false
  },
  {
    "rank": 8,
    "team_name": "上武大学",
    "team_short_name": "上武",
    "runner_name": "小山",
    "total_distance_km": 712.9,
    "latitude": 34.64609510878124,
    "longitude": 133.85264487421605,
    "is_shadow_confederation": false
  },
  {
    "rank": 9,
    "team_name": "広島経済大学",
    "team_short_name": "広経",
    "runner_name": "福山",
    "total_distance_km": 691.2,
    "latitude": 34.70510945221135,
    "longitude": 134.06472465034537,
    "is_shadow_confederation": false
  },
  {
    "rank": 10,
    "team_name": "関西大学",
    "team_short_name": "関大",
    "runner_name": "八尾（大阪）",
    "total_distance_km": 688.0,
    "latitude": 34.7137306744777,
    "longitude": 134.09588557510673,
    "is_shadow_confederation": false
  },
  {
    "rank": 11,
    "team_name": "山梨学院大学",
    "team_short_name": "山学",
    "runner_name": "三島",
    "total_distance_km": 683.2,
    "latitude": 34.73427201589273,
    "longitude": 134.13901597600568,
    "is_shadow_confederation": false
  },
  {
    "rank": 12,
    "team_name": "三重大学",
    "team_short_name": "三重",
    "runner_name": "津",
    "total_distance_km": 682.6,
    "latitude": 34.73631376423958,
    "longitude": 134.1450826545754,
    "is_shadow_confederation": false
  },
  {
    "rank": 13,
    "team_name": "鳥取大学",
    "team_short_name": "鳥取",
    "runner_name": "米子",
    "total_distance_km": 668.1,
    "latitude": 34.80174763660128,
    "longitude": 134.2736147788591,
    "is_shadow_confederation": false
  },
  {
    "rank": 14,
    "team_name": "立命館大学",
    "team_short_name": "立命",
    "runner_name": "彦根",
    "total_distance_km": 648.0,
    "latitude": 34.825827676141664,
    "longitude": 134.4564986061796,
    "is_shadow_confederation": false
  },
  {
    "rank": 15,
    "team_name": "福島大学",
    "team_short_name": "福島",
    "runner_name": "浪江",
    "total_distance_km": 607.3,
    "latitude": 34.758834525741484,
    "longitude": 134.8460154541619,
    "is_shadow_confederation": false
  },
  {
    "rank": 16,
    "team_name": "金沢大学",
    "team_short_name": "金沢",
    "runner_name": "富山",
    "total_distance_km": 583.8,
    "latitude": 34.62944696454451,
    "longitude": 135.03822890637596,
    "is_shadow_confederation": false
  },
  {
    "rank": 17,
    "team_name": "東北大学",
    "team_short_name": "東北",
    "runner_name": "一関",
    "total_distance_km": 503.5,
    "latitude": 34.88538010929466,
    "longitude": 135.74060287032694,
    "is_shadow_confederation": false
  },
  {
    "rank": 18,
    "team_name": "学連選抜",
    "team_short_name": "学連",
    "runner_name": "久世",
    "total_distance_km": 439.3,
    "latitude": 34.95666531448691,
    "longitude": 136.2116529824883,
    "is_shadow_confederation": false
  },
  {
    "rank": null,
    "team_name": "区間記録連合",
    "team_short_name": "区間記録",
    "runner_name": "鳩山",
    "total_distance_km": 1044.6,
    "latitude": 34.025595968330464,
    "longitude": 131.0069637836688,
    "is_shadow_confederation": true
  }
]