[
  {
    "rank": 1,
    "team_name": "名古屋大学",
    "team_short_name": "名大",
    "runner_name": "美濃",
    "total_distance_km": 140.7,
    "latitude": 35.141821927603466,
    "longitude": 138.67549109419866
  },
  {
    "rank": 2,
    "team_name": "日本大学",
    "team_short_name": "日大",
    "runner_name": "古河",
    "total_distance_km": 140.4,
    "latitude": 35.142772780167185,
    "longitude": 138.6785727615778
  },
  {
    "rank": 3,
    "team_name": "関西大学",
    "team_short_name": "関大",
    "runner_name": "和田山",
    "total_distance_km": 139.9,
    "latitude": 35.14458243412186,
    "longitude": 138.68353703824883
  },
  {
    "rank": 4,
    "team_name": "上武大学",
    "team_short_name": "上武",
    "runner_name": "越谷",
    "total_distance_km": 139.5,
    "latitude": 35.14633490585771,
    "longitude": 138.68696898493178
  },
  {
    "rank": 5,
    "team_name": "立命館大学",
    "team_short_name": "立命",
    "runner_name": "福知山",
    "total_distance_km": 138.6,
    "latitude": 35.14467822588998,
    "longitude": 138.6966372461985
  },
  {
    "rank": 6,
    "team_name": "四国大学",
    "team_short_name": "四国",
    "runner_name": "大三島",
    "total_distance_km": 138.1,
    "latitude": 35.14340809158695,
    "longitude": 138.7011921904179
  },
  {
    "rank": 7,
    "team_name": "金沢大学",
    "team_short_name": "金沢",
    "runner_name": "小浜",
    "total_distance_km": 137.9,
    "latitude": 35.14312378431011,
    "longitude": 138.70335812583212
  },
  {
    "rank": 8,
    "team_name": "熊本学園大学",
    "team_short_name": "熊学",
    "runner_name": "岱明",
    "total_distance_km": 135.5,
    "latitude": 35.138340812991125,
    "longitude": 138.72864615017835
  },
  {
    "rank": 9,
    "team_name": "鳥取大学",
    "team_short_name": "鳥取",
    "runner_name": "鳥取",
    "total_distance_km": 135.0,
    "latitude": 35.137327472719534,
    "longitude": 138.7339807575034
  },
  {
    "rank": 10,
    "team_name": "福岡大学",
    "team_short_name": "福岡",
    "runner_name": "福岡",
    "total_distance_km": 134.5,
    "latitude": 35.13653258563561,
    "longitude": 138.73938107284673
  },
  {
    "rank": 11,
    "team_name": "三重大学",
    "team_short_name": "三重",
    "runner_name": "五條",
    "total_distance_km": 133.4,
    "latitude": 35.13397038562014,
    "longitude": 138.75103266601846
  },
  {
    "rank": 12,
    "team_name": "福島大学",
    "team_short_name": "福島",
    "runner_name": "石川",
    "total_distance_km": 132.8,
    "latitude": 35.132492663828586,
    "longitude": 138.75736550463998
  },
  {
    "rank": 13,
    "team_name": "広島経済大学",
    "team_short_name": "広経",
    "runner_name": "加計",
    "total_distance_km": 132.6,
    "latitude": 35.13202862832337,
    "longitude": 138.75948507354383
  },
  {
    "rank": 14,
    "team_name": "山梨学院大学",
    "team_short_name": "山学",
    "runner_name": "南信濃",
    "total_distance_km": 132.3,
    "latitude": 35.13146273034162,
    "longitude": 138.76270375245647
  },
  {
    "rank": 15,
    "team_name": "琉球大学",
    "team_short_name": "琉球",
    "runner_name": "北原",
    "total_distance_km": 130.9,
    "latitude": 35.12825295217045,
    "longitude": 138.7775496574474
  },
  {
    "rank": 16,
    "team_name": "鹿児島大学",
    "team_short_name": "鹿大",
    "runner_name": "川内（鹿児島）",
    "total_distance_km": 127.8,
    "latitude": 35.118250738897565,
    "longitude": 138.80917528912104
  },
  {
    "rank": 17,
    "team_name": "東北大学",
    "team_short_name": "東北",
    "runner_name": "帯広",
    "total_distance_km": 102.3,
    "latitude": 35.18328375051081,
    "longitude": 139.01423099602175
  },
  {
    "rank": 18,
    "team_name": "学連選抜",
    "team_short_name": "学連",
    "runner_name": "美幌",
    "total_distance_km": 94.7,
    "latitude": 35.20926509641642,
    "longitude": 139.0620663008147
  }
]