[
  {
    "rank": 1,
    "team_name": "名古屋大学",
    "team_short_name": "名大",
    "runner_name": "多治見",
    "total_distance_km": 507.4,
    "latitude": 34.858833417531635,
    "longitude": 135.71363457576112,
    "is_shadow_confederation": false
  },
  {
    "rank": 2,
    "team_name": "四国大学",
    "team_short_name": "四国",
    "runner_name": "大洲",
    "total_distance_km": 503.9,
    "latitude": 34.882335031784024,
    "longitude": 135.7382599773255,
    "is_shadow_confederation": false
  },
  {
    "rank": 3,
    "team_name": "福岡大学",
    "team_short_name": "福岡",
    "runner_name": "前原",
    "total_distance_km": 500.8,
    "latitude": 34.90903611825071,
    "longitude": 135.74430093714702,
    "is_shadow_confederation": false
  },
  {
    "rank": 4,
    "team_name": "熊本学園大学",
    "team_short_name": "熊学",
    "runner_name": "熊本",
    "total_distance_km": 500.1,
    "latitude": 34.91534416408032,
    "longitude": 135.74448033193988,
    "is_shadow_confederation": false
  },
  {
    "rank": 5,
    "team_name": "琉球大学",
    "team_short_name": "琉球",
    "runner_name": "波照間",
    "total_distance_km": 499.4,
    "latitude": 34.921652209909915,
    "longitude": 135.74465972673275,
    "is_shadow_confederation": false
  },
  {
    "rank": 6,
    "team_name": "立命館大学",
    "team_short_name": "立命",
    "runner_name": "舞鶴",
    "total_distance_km": 496.9,
    "latitude": 34.94418046378079,
    "longitude": 135.74532117449488,
    "is_shadow_confederation": false
  },
  {
    "rank": 7,
    "team_name": "関西大学",
    "team_short_name": "関大",
    "runner_name": "枚方",
    "total_distance_km": 493.3,
    "latitude": 34.976615275384695,
    "longitude": 135.7461809113305,
    "is_shadow_confederation": false
  },
  {
    "rank": 8,
    "team_name": "広島経済大学",
    "team_short_name": "広経",
    "runner_name": "高梁",
    "total_distance_km": 493.1,
    "latitude": 34.978417335742996,
    "longitude": 135.74624257829845,
    "is_shadow_confederation": false
  },
  {
    "rank": 9,
    "team_name": "日本大学",
    "team_short_name": "日大",
    "runner_name": "牛久",
    "total_distance_km": 488.5,
    "latitude": 35.001746121579366,
    "longitude": 135.76885359726646,
    "is_shadow_confederation": false
  },
  {
    "rank": 10,
    "team_name": "鹿児島大学",
    "team_short_name": "鹿大",
    "runner_name": "西都",
    "total_distance_km": 487.4,
    "latitude": 35.00898706338991,
    "longitude": 135.77256515490024,
    "is_shadow_confederation": false
  },
  {
    "rank": 11,
    "team_name": "鳥取大学",
    "team_short_name": "鳥取",
    "runner_name": "境",
    "total_distance_km": 486.8,
    "latitude": 35.009352049492456,
    "longitude": 135.77911844532514,
    "is_shadow_confederation": false
  },
  {
    "rank": 12,
    "team_name": "三重大学",
    "team_short_name": "三重",
    "runner_name": "奈良",
    "total_distance_km": 485.3,
    "latitude": 35.00459117479634,
    "longitude": 135.79098516961793,
    "is_shadow_confederation": false
  },
  {
    "rank": 13,
    "team_name": "山梨学院大学",
    "team_short_name": "山学",
    "runner_name": "甲府",
    "total_distance_km": 484.0,
    "latitude": 34.996861554882685,
    "longitude": 135.7998011408694,
    "is_shadow_confederation": false
  },
  {
    "rank": 14,
    "team_name": "上武大学",
    "team_short_name": "上武",
    "runner_name": "桐生",
    "total_distance_km": 477.0,
    "latitude": 35.00211234908667,
    "longitude": 135.86361157583605,
    "is_shadow_confederation": false
  },
  {
    "rank": 15,
    "team_name": "金沢大学",
    "team_short_name": "金沢",
    "runner_name": "福井",
    "total_distance_km": 475.2,
    "latitude": 34.99751587277201,
    "longitude": 135.88171445041525,
    "is_shadow_confederation": false
  },
  {
    "rank": 16,
    "team_name": "福島大学",
    "team_short_name": "福島",
    "runner_name": "福島",
    "total_distance_km": 465.4,
    "latitude": 35.01107625514377,
    "longitude": 135.96060480990212,
    "is_shadow_confederation": false
  },
  {
    "rank": 17,
    "team_name": "学連選抜",
    "team_short_name": "学連",
    "runner_name": "久世",
    "total_distance_km": 442.3,
    "latitude": 34.967208285940266,
    "longitude": 136.182755932608,
    "is_shadow_confederation": false
  },
  {
    "rank": 18,
    "team_name": "東北大学",
    "team_short_name": "東北",
    "runner_name": "大館",
    "total_distance_km": 424.4,
    "latitude": 34.8900174684802,
    "longitude": 136.33734516494465,
    "is_shadow_confederation": false
  },
  {
    "rank": null,
    "team_name": "区間記録連合",
    "team_short_name": "区間記録",
    "runner_name": "桐生",
    "total_distance_km": 528.8,
    "latitude": 34.728878855849565,
    "longitude": 135.55151069425492,
    "is_shadow_confederation": true
  }
]