[
  {
    "rank": 1,
    "team_name": "琉球大学",
    "team_short_name": "琉球",
    "runner_name": "高畠",
    "total_distance_km": 407.2,
    "latitude": 34.859565387045265,
    "longitude": 136.48444666888824,
    "current_leg": 4,
    "is_shadow_confederation": false
  },
  {
    "rank": 2,
    "team_name": "福島大学",
    "team_short_name": "福島",
    "runner_name": "盛山",
    "total_distance_km": 406.0,
    "latitude": 34.868928721654534,
    "longitude": 136.49091347834403,
    "current_leg": 4,
    "is_shadow_confederation": false
  },
  {
    "rank": 3,
    "team_name": "鹿児島大学",
    "team_short_name": "鹿大",
    "runner_name": "七尾",
    "total_distance_km": 401.6,
    "latitude": 34.88672537003983,
    "longitude": 136.52898450561844,
    "current_leg": 4,
    "is_shadow_confederation": false
  },
  {
    "rank": 4,
    "team_name": "四国大学",
    "team_short_name": "四国",
    "runner_name": "津川",
    "total_distance_km": 391.9,
    "latitude": 34.93867533968986,
    "longitude": 136.59984372692475,
    "current_leg": 4,
    "is_shadow_confederation": false
  },
  {
    "rank": 5,
    "team_name": "東北大学",
    "team_short_name": "東北",
    "runner_name": "京田辺",
    "total_distance_km": 390.0,
    "latitude": 34.9531030572528,
    "longitude": 136.6109536633905,
    "current_leg": 4,
    "is_shadow_confederation": false
  },
  {
    "rank": 6,
    "team_name": "金沢大学",
    "team_short_name": "金沢",
    "runner_name": "下館",
    "total_distance_km": 382.6,
    "latitude": 35.00604621570782,
    "longitude": 136.65462053838985,
    "current_leg": 4,
    "is_shadow_confederation": false
  },
  {
    "rank": 7,
    "team_name": "熊本学園大学",
    "team_short_name": "熊学",
    "runner_name": "御荘",
    "total_distance_km": 381.2,
    "latitude": 35.01581845490635,
    "longitude": 136.66291309434274,
    "current_leg": 4,
    "is_shadow_confederation": false
  },
  {
    "rank": 8,
    "team_name": "日本大学",
    "team_short_name": "日大",
    "runner_name": "広瀬",
    "total_distance_km": 376.2,
    "latitude": 35.055660515313235,
    "longitude": 136.68355052190103,
    "current_leg": 4,
    "is_shadow_confederation": false
  },
  {
    "rank": 9,
    "team_name": "鳥取大学",
    "team_short_name": "鳥取",
    "runner_name": "大村",
    "total_distance_km": 366.8,
    "latitude": 35.114842101138,
    "longitude": 136.73921368021792,
    "current_leg": 4,
    "is_shadow_confederation": false
  },
  {
    "rank": 10,
    "team_name": "三重大学",
    "team_short_name": "三重",
    "runner_name": "大月",
    "total_distance_km": 364.7,
    "latitude": 35.120038440231404,
    "longitude": 136.76136550907748,
    "current_leg": 4,
    "is_shadow_confederation": false
  },
  {
    "rank": 11,
    "team_name": "学連選抜",
    "team_short_name": "学連",
    "runner_name": "府中（広島）",
    "total_distance_km": 360.6,
    "latitude": 35.12590907856206,
    "longitude": 136.8056159240021,
    "current_leg": 4,
    "is_shadow_confederation": false
  },
  {
    "rank": 12,
    "team_name": "福岡大学",
    "team_short_name": "福岡",
    "runner_name": "加久藤",
    "total_distance_km": 355.6,
    "latitude": 35.12441115240946,
    "longitude": 136.8599471367033,
    "current_leg": 4,
    "is_shadow_confederation": false
  },
  {
    "rank": 13,
    "team_name": "広島経済大学",
    "team_short_name": "広経",
    "runner_name": "八代",
    "total_distance_km": 352.3,
    "latitude": 35.12391973887611,
    "longitude": 136.89590111346385,
    "current_leg": 4,
    "is_shadow_confederation": false
  },
  {
    "rank": 14,
    "team_name": "立命館大学",
    "team_short_name": "立命",
    "runner_name": "上郡",
    "total_distance_km": 347.5,
    "latitude": 35.096737785358535,
    "longitude": 136.92795173138,
    "current_leg": 4,
    "is_shadow_confederation": false
  },
  {
    "rank": 15,
    "team_name": "山梨学院大学",
    "team_short_name": "山学",
    "runner_name": "熊谷",
    "total_distance_km": 338.3,
    "latitude": 35.04747653962067,
    "longitude": 137.00413320228418,
    "current_leg": 4,
    "is_shadow_confederation": false
  },
  {
    "rank": 16,
    "team_name": "関西大学",
    "team_short_name": "関大",
    "runner_name": "黒木",
    "total_distance_km": 334.8,
    "latitude": 35.02321205903277,
    "longitude": 137.02831856633534,
    "current_leg": 4,
    "is_shadow_confederation": false
  },
  {
    "rank": 17,
    "team_name": "上武大学",
    "team_short_name": "上武",
    "runner_name": "小俣",
    "total_distance_km": 327.9,
    "latitude": 34.9865093243077,
    "longitude": 137.0882516746167,
    "current_leg": 4,
    "is_shadow_confederation": false
  },
  {
    "rank": 18,
    "team_name": "名古屋大学",
    "team_short_name": "名大",
    "runner_name": "大垣",
    "total_distance_km": 321.6,
    "latitude": 34.95960266606062,
    "longitude": 137.1482721034926,
    "current_leg": 4,
    "is_shadow_confederation": false
  }
]