[
  {
    "rank": 1,
    "team_name": "琉球大学",
    "team_short_name": "琉球",
    "runner_name": "久米島",
    "total_distance_km": 610.6,
    "latitude": 34.7783227740971,
    "longitude": 134.82001023815715,
    "is_shadow_confederation": false
  },
  {
    "rank": 2,
    "team_name": "熊本学園大学",
    "team_short_name": "熊学",
    "runner_name": "大分",
    "total_distance_km": 573.0,
    "latitude": 34.66207026598242,
    "longitude": 135.14383760494562,
    "is_shadow_confederation": false
  },
  {
    "rank": 3,
    "team_name": "福岡大学",
    "team_short_name": "福岡",
    "runner_name": "博多",
    "total_distance_km": 560.3,
    "latitude": 34.71804343417981,
    "longitude": 135.2602105246758,
    "is_shadow_confederation": false
  },
  {
    "rank": 4,
    "team_name": "立命館大学",
    "team_short_name": "立命",
    "runner_name": "彦根",
    "total_distance_km": 550.0,
    "latitude": 34.73413148457431,
    "longitude": 135.36790870640698,
    "is_shadow_confederation": false
  },
  {
    "rank": 5,
    "team_name": "鹿児島大学",
    "team_short_name": "鹿大",
    "runner_name": "笠利",
    "total_distance_km": 549.0,
    "latitude": 34.7318465134694,
    "longitude": 135.37846807443677,
    "is_shadow_confederation": false
  },
  {
    "rank": 6,
    "team_name": "関西大学",
    "team_short_name": "関大",
    "runner_name": "豊中",
    "total_distance_km": 547.4,
    "latitude": 34.727101103104566,
    "longitude": 135.39489361393706,
    "is_shadow_confederation": false
  },
  {
    "rank": 7,
    "team_name": "四国大学",
    "team_short_name": "四国",
    "runner_name": "徳島",
    "total_distance_km": 547.2,
    "latitude": 34.72629421917944,
    "longitude": 135.39684633629332,
    "is_shadow_confederation": false
  },
  {
    "rank": 8,
    "team_name": "鳥取大学",
    "team_short_name": "鳥取",
    "runner_name": "境",
    "total_distance_km": 544.8,
    "latitude": 34.71971834808723,
    "longitude": 135.42173930898701,
    "is_shadow_confederation": false
  },
  {
    "rank": 9,
    "team_name": "広島経済大学",
    "team_short_name": "広経",
    "runner_name": "高松（香川）",
    "total_distance_km": 544.3,
    "latitude": 34.71949309173837,
    "longitude": 135.4271622370688,
    "is_shadow_confederation": false
  },
  {
    "rank": 10,
    "team_name": "名古屋大学",
    "team_short_name": "名大",
    "runner_name": "豊田（愛知）",
    "total_distance_km": 542.5,
    "latitude": 34.71694597997669,
    "longitude": 135.4454688980575,
    "is_shadow_confederation": false
  },
  {
    "rank": 11,
    "team_name": "金沢大学",
    "team_short_name": "金沢",
    "runner_name": "福井",
    "total_distance_km": 533.9,
    "latitude": 34.697258104960014,
    "longitude": 135.52632637600232,
    "is_shadow_confederation": false
  },
  {
    "rank": 12,
    "team_name": "三重大学",
    "team_short_name": "三重",
    "runner_name": "奈良",
    "total_distance_km": 533.6,
    "latitude": 34.69791123327657,
    "longitude": 135.52950376593503,
    "is_shadow_confederation": false
  },
  {
    "rank": 13,
    "team_name": "山梨学院大学",
    "team_short_name": "山学",
    "runner_name": "甲府",
    "total_distance_km": 533.1,
    "latitude": 34.69899978047083,
    "longitude": 135.5347994158229,
    "is_shadow_confederation": false
  },
  {
    "rank": 14,
    "team_name": "上武大学",
    "team_short_name": "上武",
    "runner_name": "桐生",
    "total_distance_km": 531.1,
    "latitude": 34.70888558361182,
    "longitude": 135.54627867740277,
    "is_shadow_confederation": false
  },
  {
    "rank": 15,
    "team_name": "日本大学",
    "team_short_name": "日大",
    "runner_name": "牛久",
    "total_distance_km": 509.4,
    "latitude": 34.84505704708141,
    "longitude": 135.70060271772135,
    "is_shadow_confederation": false
  },
  {
    "rank": 16,
    "team_name": "福島大学",
    "team_short_name": "福島",
    "runner_name": "福島",
    "total_distance_km": 479.8,
    "latitude": 34.990258359314936,
    "longitude": 135.84170680369536,
    "is_shadow_confederation": false
  },
  {
    "rank": 17,
    "team_name": "東北大学",
    "team_short_name": "東北",
    "runner_name": "一関",
    "total_distance_km": 477.8,
    "latitude": 34.99812439314152,
    "longitude": 135.857714852443,
    "is_shadow_confederation": false
  },
  {
    "rank": 18,
    "team_name": "学連選抜",
    "team_short_name": "学連",
    "runner_name": "久世",
    "total_distance_km": 475.8,
    "latitude": 35.00069558234284,
    "longitude": 135.876444097582,
    "is_shadow_confederation": false
  }
]