[
  {
    "rank": 1,
    "team_name": "名古屋大学",
    "team_short_name": "名大",
    "runner_name": "美濃",
    "total_distance_km": 142.2,
    "latitude": 35.13706766478488,
    "longitude": 138.6600827573028,
    "is_shadow_confederation": false
  },
  {
    "rank": 2,
    "team_name": "日本大学",
    "team_short_name": "日大",
    "runner_name": "古河",
    "total_distance_km": 141.0,
    "latitude": 35.14087107503975,
    "longitude": 138.67240942681948,
    "is_shadow_confederation": false
  },
  {
    "rank": 3,
    "team_name": "立命館大学",
    "team_short_name": "立命",
    "runner_name": "福知山",
    "total_distance_km": 140.3,
    "latitude": 35.14308973102176,
    "longitude": 138.67959998403754,
    "is_shadow_confederation": false
  },
  {
    "rank": 4,
    "team_name": "関西大学",
    "team_short_name": "関大",
    "runner_name": "和田山",
    "total_distance_km": 139.9,
    "latitude": 35.14458243412186,
    "longitude": 138.68353703824883,
    "is_shadow_confederation": false
  },
  {
    "rank": 5,
    "team_name": "四国大学",
    "team_short_name": "四国",
    "runner_name": "大三島",
    "total_distance_km": 139.7,
    "latitude": 35.14582679950675,
    "longitude": 138.68512505561264,
    "is_shadow_confederation": false
  },
  {
    "rank": 6,
    "team_name": "上武大学",
    "team_short_name": "上武",
    "runner_name": "越谷",
    "total_distance_km": 139.5,
    "latitude": 35.14633490585771,
    "longitude": 138.68696898493178,
    "is_shadow_confederation": false
  },
  {
    "rank": 7,
    "team_name": "金沢大学",
    "team_short_name": "金沢",
    "runner_name": "小浜",
    "total_distance_km": 138.9,
    "latitude": 35.14523045254589,
    "longitude": 138.6934144924429,
    "is_shadow_confederation": false
  },
  {
    "rank": 8,
    "team_name": "三重大学",
    "team_short_name": "三重",
    "runner_name": "五條",
    "total_distance_km": 136.7,
    "latitude": 35.14085115438993,
    "longitude": 138.71591380573184,
    "is_shadow_confederation": false
  },
  {
    "rank": 9,
    "team_name": "鳥取大学",
    "team_short_name": "鳥取",
    "runner_name": "鳥取",
    "total_distance_km": 136.3,
    "latitude": 35.14028045438427,
    "longitude": 138.7202250899424,
    "is_shadow_confederation": false
  },
  {
    "rank": 10,
    "team_name": "熊本学園大学",
    "team_short_name": "熊学",
    "runner_name": "岱明",
    "total_distance_km": 136.0,
    "latitude": 35.13962359532565,
    "longitude": 138.72341636074893,
    "is_shadow_confederation": false
  },
  {
    "rank": 11,
    "team_name": "福島大学",
    "team_short_name": "福島",
    "runner_name": "石川",
    "total_distance_km": 135.3,
    "latitude": 35.137804404969884,
    "longitude": 138.7307405682974,
    "is_shadow_confederation": false
  },
  {
    "rank": 11,
    "team_name": "福岡大学",
    "team_short_name": "福岡",
    "runner_name": "福岡",
    "total_distance_km": 135.3,
    "latitude": 35.137804404969884,
    "longitude": 138.7307405682974,
    "is_shadow_confederation": false
  },
  {
    "rank": 13,
    "team_name": "山梨学院大学",
    "team_short_name": "山学",
    "runner_name": "南信濃",
    "total_distance_km": 135.2,
    "latitude": 35.137645427553096,
    "longitude": 138.73182063136605,
    "is_shadow_confederation": false
  },
  {
    "rank": 14,
    "team_name": "広島経済大学",
    "team_short_name": "広経",
    "runner_name": "加計",
    "total_distance_km": 133.0,
    "latitude": 35.1329852377591,
    "longitude": 138.7552545584328,
    "is_shadow_confederation": false
  },
  {
    "rank": 15,
    "team_name": "琉球大学",
    "team_short_name": "琉球",
    "runner_name": "北原",
    "total_distance_km": 132.2,
    "latitude": 35.131274097681036,
    "longitude": 138.76377664542736,
    "is_shadow_confederation": false
  },
  {
    "rank": 16,
    "team_name": "鹿児島大学",
    "team_short_name": "鹿大",
    "runner_name": "川内（鹿児島）",
    "total_distance_km": 128.0,
    "latitude": 35.11905133409451,
    "longitude": 138.80720950457774,
    "is_shadow_confederation": false
  },
  {
    "rank": 17,
    "team_name": "東北大学",
    "team_short_name": "東北",
    "runner_name": "帯広",
    "total_distance_km": 105.2,
    "latitude": 35.168903235813,
    "longitude": 139.00875819200786,
    "is_shadow_confederation": false
  },
  {
    "rank": 18,
    "team_name": "学連選抜",
    "team_short_name": "学連",
    "runner_name": "美幌",
    "total_distance_km": 96.6,
    "latitude": 35.20819967668495,
    "longitude": 139.05819207207063,
    "is_shadow_confederation": false
  },
  {
    "rank": null,
    "team_name": "区間記録連合",
    "team_short_name": "区間記録",
    "runner_name": "佐野",
    "total_distance_km": 151.1,
    "latitude": 35.111806928259924,
    "longitude": 138.5759714480996,
    "is_shadow_confederation": true
  }
]