[
  {
    "rank": 1,
    "team_name": "琉球大学",
    "team_short_name": "琉球",
    "runner_name": "波照間",
    "total_distance_km": 475.4,
    "latitude": 34.99867305975888,
    "longitude": 135.8800345418925,
    "is_shadow_confederation": false
  },
  {
    "rank": 2,
    "team_name": "熊本学園大学",
    "team_short_name": "熊学",
    "runner_name": "熊本",
    "total_distance_km": 429.8,
    "latitude": 34.923669415225014,
    "longitude": 136.3043018428899,
    "is_shadow_confederation": false
  },
  {
    "rank": 3,
    "team_name": "鹿児島大学",
    "team_short_name": "鹿大",
    "runner_name": "西都",
    "total_distance_km": 415.1,
    "latitude": 34.85182461648117,
    "longitude": 136.40659449345085,
    "is_shadow_confederation": false
  },
  {
    "rank": 4,
    "team_name": "福岡大学",
    "team_short_name": "福岡",
    "runner_name": "前原",
    "total_distance_km": 404.8,
    "latitude": 34.87667523921544,
    "longitude": 136.49930209696885,
    "is_shadow_confederation": false
  },
  {
    "rank": 5,
    "team_name": "四国大学",
    "team_short_name": "四国",
    "runner_name": "松山",
    "total_distance_km": 390.3,
    "latitude": 34.950980007375726,
    "longitude": 136.60898013605478,
    "is_shadow_confederation": false
  },
  {
    "rank": 6,
    "team_name": "広島経済大学",
    "team_short_name": "広経",
    "runner_name": "大竹",
    "total_distance_km": 379.3,
    "latitude": 35.030406776088945,
    "longitude": 136.67177128820634,
    "is_shadow_confederation": false
  },
  {
    "rank": 7,
    "team_name": "鳥取大学",
    "team_short_name": "鳥取",
    "runner_name": "防府",
    "total_distance_km": 364.0,
    "latitude": 35.12175109194764,
    "longitude": 136.76875647443592,
    "is_shadow_confederation": false
  },
  {
    "rank": 8,
    "team_name": "関西大学",
    "team_short_name": "関大",
    "runner_name": "柏原",
    "total_distance_km": 362.2,
    "latitude": 35.12467769494236,
    "longitude": 136.7881263006248,
    "is_shadow_confederation": false
  },
  {
    "rank": 9,
    "team_name": "名古屋大学",
    "team_short_name": "名大",
    "runner_name": "愛西",
    "total_distance_km": 359.6,
    "latitude": 35.12635498114107,
    "longitude": 136.8165609739456,
    "is_shadow_confederation": false
  },
  {
    "rank": 10,
    "team_name": "立命館大学",
    "team_short_name": "立命",
    "runner_name": "米原",
    "total_distance_km": 356.1,
    "latitude": 35.1241572156617,
    "longitude": 136.85447059747008,
    "is_shadow_confederation": false
  },
  {
    "rank": 11,
    "team_name": "三重大学",
    "team_short_name": "三重",
    "runner_name": "風屋",
    "total_distance_km": 352.1,
    "latitude": 35.12392789601223,
    "longitude": 136.89809526819306,
    "is_shadow_confederation": false
  },
  {
    "rank": 12,
    "team_name": "金沢大学",
    "team_short_name": "金沢",
    "runner_name": "志賀",
    "total_distance_km": 335.0,
    "latitude": 35.02435567958974,
    "longitude": 137.02662448157238,
    "is_shadow_confederation": false
  },
  {
    "rank": 13,
    "team_name": "日本大学",
    "team_short_name": "日大",
    "runner_name": "小田原",
    "total_distance_km": 331.3,
    "latitude": 35.00242002758726,
    "longitude": 137.05657003818422,
    "is_shadow_confederation": false
  },
  {
    "rank": 14,
    "team_name": "上武大学",
    "team_short_name": "上武",
    "runner_name": "寄居",
    "total_distance_km": 331.0,
    "latitude": 35.001084694848075,
    "longitude": 137.05942771206705,
    "is_shadow_confederation": false
  },
  {
    "rank": 15,
    "team_name": "山梨学院大学",
    "team_short_name": "山学",
    "runner_name": "大月",
    "total_distance_km": 309.7,
    "latitude": 34.89818124672609,
    "longitude": 137.24605654847468,
    "is_shadow_confederation": false
  },
  {
    "rank": 16,
    "team_name": "福島大学",
    "team_short_name": "福島",
    "runner_name": "津川",
    "total_distance_km": 293.2,
    "latitude": 34.795285267370964,
    "longitude": 137.36899323000432,
    "is_shadow_confederation": false
  },
  {
    "rank": 17,
    "team_name": "学連選抜",
    "team_short_name": "学連",
    "runner_name": "大村",
    "total_distance_km": 254.0,
    "latitude": 34.688194449000235,
    "longitude": 137.70971781703557,
    "is_shadow_confederation": false
  },
  {
    "rank": 18,
    "team_name": "東北大学",
    "team_short_name": "東北",
    "runner_name": "高畠",
    "total_distance_km": 242.9,
    "latitude": 34.7291245754664,
    "longitude": 137.806083881834,
    "is_shadow_confederation": false
  }
]