[
  {
    "rank": 1,
    "team_name": "琉球大学",
    "team_short_name": "琉球",
    "runner_name": "波照間",
    "total_distance_km": 548.8,
    "latitude": 34.731355291540325,
    "longitude": 135.3805691985439,
    "is_shadow_confederation": false
  },
  {
    "rank": 2,
    "team_name": "熊本学園大学",
    "team_short_name": "熊学",
    "runner_name": "熊本",
    "total_distance_km": 519.3,
    "latitude": 34.788891901181785,
    "longitude": 135.62425127501112,
    "is_shadow_confederation": false
  },
  {
    "rank": 3,
    "team_name": "福岡大学",
    "team_short_name": "福岡",
    "runner_name": "前原",
    "total_distance_km": 502.3,
    "latitude": 34.89551887718727,
    "longitude": 135.74391651973372,
    "is_shadow_confederation": false
  },
  {
    "rank": 4,
    "team_name": "立命館大学",
    "team_short_name": "立命",
    "runner_name": "舞鶴",
    "total_distance_km": 495.8,
    "latitude": 34.95409269912294,
    "longitude": 135.74562067909838,
    "is_shadow_confederation": false
  },
  {
    "rank": 5,
    "team_name": "鹿児島大学",
    "team_short_name": "鹿大",
    "runner_name": "西都",
    "total_distance_km": 495.4,
    "latitude": 34.95769714833827,
    "longitude": 135.7457295898633,
    "is_shadow_confederation": false
  },
  {
    "rank": 6,
    "team_name": "関西大学",
    "team_short_name": "関大",
    "runner_name": "枚方",
    "total_distance_km": 492.7,
    "latitude": 34.97941693069071,
    "longitude": 135.74946942317223,
    "is_shadow_confederation": false
  },
  {
    "rank": 6,
    "team_name": "名古屋大学",
    "team_short_name": "名大",
    "runner_name": "多治見",
    "total_distance_km": 492.7,
    "latitude": 34.97941693069071,
    "longitude": 135.74946942317223,
    "is_shadow_confederation": false
  },
  {
    "rank": 8,
    "team_name": "広島経済大学",
    "team_short_name": "広経",
    "runner_name": "高梁",
    "total_distance_km": 489.4,
    "latitude": 34.995843744012895,
    "longitude": 135.7640454877525,
    "is_shadow_confederation": false
  },
  {
    "rank": 9,
    "team_name": "四国大学",
    "team_short_name": "四国",
    "runner_name": "大洲",
    "total_distance_km": 488.7,
    "latitude": 35.000054429508864,
    "longitude": 135.76809646913625,
    "is_shadow_confederation": false
  },
  {
    "rank": 10,
    "team_name": "鳥取大学",
    "team_short_name": "鳥取",
    "runner_name": "境",
    "total_distance_km": 488.0,
    "latitude": 35.00621286380412,
    "longitude": 135.76910044529544,
    "is_shadow_confederation": false
  },
  {
    "rank": 11,
    "team_name": "上武大学",
    "team_short_name": "上武",
    "runner_name": "桐生",
    "total_distance_km": 481.5,
    "latitude": 34.98966645237589,
    "longitude": 135.8239771740013,
    "is_shadow_confederation": false
  },
  {
    "rank": 12,
    "team_name": "金沢大学",
    "team_short_name": "金沢",
    "runner_name": "福井",
    "total_distance_km": 481.4,
    "latitude": 34.98965154860577,
    "longitude": 135.82507231990252,
    "is_shadow_confederation": false
  },
  {
    "rank": 13,
    "team_name": "三重大学",
    "team_short_name": "三重",
    "runner_name": "奈良",
    "total_distance_km": 480.8,
    "latitude": 34.991445711557574,
    "longitude": 135.8312112544217,
    "is_shadow_confederation": false
  },
  {
    "rank": 14,
    "team_name": "山梨学院大学",
    "team_short_name": "山学",
    "runner_name": "甲府",
    "total_distance_km": 478.8,
    "latitude": 34.993744745391304,
    "longitude": 135.85160606427752,
    "is_shadow_confederation": false
  },
  {
    "rank": 15,
    "team_name": "日本大学",
    "team_short_name": "日大",
    "runner_name": "牛久",
    "total_distance_km": 467.7,
    "latitude": 34.996199654262846,
    "longitude": 135.94315214298442,
    "is_shadow_confederation": false
  },
  {
    "rank": 16,
    "team_name": "福島大学",
    "team_short_name": "福島",
    "runner_name": "福島",
    "total_distance_km": 444.4,
    "latitude": 34.97809547669999,
    "longitude": 136.16430947967453,
    "is_shadow_confederation": false
  },
  {
    "rank": 17,
    "team_name": "東北大学",
    "team_short_name": "東北",
    "runner_name": "一関",
    "total_distance_km": 439.6,
    "latitude": 34.957535445875806,
    "longitude": 136.20854844523484,
    "is_shadow_confederation": false
  },
  {
    "rank": 18,
    "team_name": "学連選抜",
    "team_short_name": "学連",
    "runner_name": "久世",
    "total_distance_km": 423.1,
    "latitude": 34.88883315857028,
    "longitude": 136.34839048928595,
    "is_shadow_confederation": false
  }
]