[
  {
    "rank": 1,
    "team_name": "琉球大学",
    "team_short_name": "琉球",
    "runner_name": "名護",
    "total_distance_km": 359.2,
    "latitude": 35.12630266848333,
    "longitude": 136.82094899534437,
    "is_shadow_confederation": false
  },
  {
    "rank": 2,
    "team_name": "熊本学園大学",
    "team_short_name": "熊学",
    "runner_name": "人吉",
    "total_distance_km": 348.1,
    "latitude": 35.10167360030673,
    "longitude": 136.92526214968348,
    "is_shadow_confederation": false
  },
  {
    "rank": 3,
    "team_name": "福岡大学",
    "team_short_name": "福岡",
    "runner_name": "朝倉",
    "total_distance_km": 337.4,
    "latitude": 35.040808896284254,
    "longitude": 137.00970885116368,
    "is_shadow_confederation": false
  },
  {
    "rank": 4,
    "team_name": "立命館大学",
    "team_short_name": "立命",
    "runner_name": "米原",
    "total_distance_km": 335.3,
    "latitude": 35.02607111042525,
    "longitude": 137.0240833544279,
    "is_shadow_confederation": false
  },
  {
    "rank": 5,
    "team_name": "四国大学",
    "team_short_name": "四国",
    "runner_name": "御荘",
    "total_distance_km": 333.2,
    "latitude": 35.01358807769586,
    "longitude": 137.04119162840948,
    "is_shadow_confederation": false
  },
  {
    "rank": 6,
    "team_name": "鹿児島大学",
    "team_short_name": "鹿大",
    "runner_name": "加久藤",
    "total_distance_km": 332.1,
    "latitude": 35.007690605603656,
    "longitude": 137.05080244601967,
    "is_shadow_confederation": false
  },
  {
    "rank": 7,
    "team_name": "広島経済大学",
    "team_short_name": "広経",
    "runner_name": "府中（広島）",
    "total_distance_km": 328.3,
    "latitude": 34.98873731249686,
    "longitude": 137.08480707603385,
    "is_shadow_confederation": false
  },
  {
    "rank": 8,
    "team_name": "関西大学",
    "team_short_name": "関大",
    "runner_name": "上郡",
    "total_distance_km": 327.7,
    "latitude": 34.98563839851103,
    "longitude": 137.09015730428573,
    "is_shadow_confederation": false
  },
  {
    "rank": 9,
    "team_name": "鳥取大学",
    "team_short_name": "鳥取",
    "runner_name": "広瀬",
    "total_distance_km": 327.3,
    "latitude": 34.98408510034488,
    "longitude": 137.0941107770314,
    "is_shadow_confederation": false
  },
  {
    "rank": 10,
    "team_name": "名古屋大学",
    "team_short_name": "名大",
    "runner_name": "大垣",
    "total_distance_km": 326.9,
    "latitude": 34.98253180217872,
    "longitude": 137.09806424977708,
    "is_shadow_confederation": false
  },
  {
    "rank": 11,
    "team_name": "三重大学",
    "team_short_name": "三重",
    "runner_name": "小俣",
    "total_distance_km": 326.3,
    "latitude": 34.98034517019581,
    "longitude": 137.10406817325585,
    "is_shadow_confederation": false
  },
  {
    "rank": 12,
    "team_name": "山梨学院大学",
    "team_short_name": "山学",
    "runner_name": "大月",
    "total_distance_km": 322.3,
    "latitude": 34.96256370775889,
    "longitude": 137.14152071683523,
    "is_shadow_confederation": false
  },
  {
    "rank": 13,
    "team_name": "金沢大学",
    "team_short_name": "金沢",
    "runner_name": "七尾",
    "total_distance_km": 321.3,
    "latitude": 34.958814288343774,
    "longitude": 137.15138037163527,
    "is_shadow_confederation": false
  },
  {
    "rank": 14,
    "team_name": "上武大学",
    "team_short_name": "上武",
    "runner_name": "熊谷",
    "total_distance_km": 316.3,
    "latitude": 34.936614845195514,
    "longitude": 137.19586605213445,
    "is_shadow_confederation": false
  },
  {
    "rank": 15,
    "team_name": "日本大学",
    "team_short_name": "日大",
    "runner_name": "下館",
    "total_distance_km": 311.9,
    "latitude": 34.91031729713872,
    "longitude": 137.22837310345568,
    "is_shadow_confederation": false
  },
  {
    "rank": 16,
    "team_name": "福島大学",
    "team_short_name": "福島",
    "runner_name": "津川",
    "total_distance_km": 288.7,
    "latitude": 34.76612709689955,
    "longitude": 137.3986633176492,
    "is_shadow_confederation": false
  },
  {
    "rank": 17,
    "team_name": "東北大学",
    "team_short_name": "東北",
    "runner_name": "高畠",
    "total_distance_km": 276.0,
    "latitude": 34.69500724546161,
    "longitude": 137.49224563410155,
    "is_shadow_confederation": false
  },
  {
    "rank": 18,
    "team_name": "学連選抜",
    "team_short_name": "学連",
    "runner_name": "大村",
    "total_distance_km": 265.4,
    "latitude": 34.69379098257754,
    "longitude": 137.58874677147,
    "is_shadow_confederation": false
  }
]