[
  {
    "rank": 1,
    "team_name": "琉球大学",
    "team_short_name": "琉球",
    "runner_name": "大原",
    "total_distance_km": 921.1,
    "latitude": 34.10143989953206,
    "longitude": 132.09450527261257,
    "is_shadow_confederation": false
  },
  {
    "rank": 2,
    "team_name": "鹿児島大学",
    "team_short_name": "鹿大",
    "runner_name": "さつま柏原",
    "total_distance_km": 774.0,
    "latitude": 34.459280390978485,
    "longitude": 133.27807813178458,
    "is_shadow_confederation": false
  },
  {
    "rank": 3,
    "team_name": "熊本学園大学",
    "team_short_name": "熊学",
    "runner_name": "犬飼",
    "total_distance_km": 746.2,
    "latitude": 34.504857008465024,
    "longitude": 133.5497530350154,
    "is_shadow_confederation": false
  },
  {
    "rank": 4,
    "team_name": "福岡大学",
    "team_short_name": "福岡",
    "runner_name": "口之津",
    "total_distance_km": 732.2,
    "latitude": 34.55999678860172,
    "longitude": 133.68093330198394,
    "is_shadow_confederation": false
  },
  {
    "rank": 5,
    "team_name": "四国大学",
    "team_short_name": "四国",
    "runner_name": "新居浜",
    "total_distance_km": 694.6,
    "latitude": 34.70158700533691,
    "longitude": 134.02896379657707,
    "is_shadow_confederation": false
  },
  {
    "rank": 6,
    "team_name": "広島経済大学",
    "team_short_name": "広経",
    "runner_name": "福山",
    "total_distance_km": 673.8,
    "latitude": 34.76816484364617,
    "longitude": 134.23049096779874,
    "is_shadow_confederation": false
  },
  {
    "rank": 7,
    "team_name": "鳥取大学",
    "team_short_name": "鳥取",
    "runner_name": "米子",
    "total_distance_km": 659.2,
    "latitude": 34.838012423672886,
    "longitude": 134.34220275352553,
    "is_shadow_confederation": false
  },
  {
    "rank": 8,
    "team_name": "名古屋大学",
    "team_short_name": "名大",
    "runner_name": "名古屋",
    "total_distance_km": 658.0,
    "latitude": 34.832264629700745,
    "longitude": 134.3532903963403,
    "is_shadow_confederation": false
  },
  {
    "rank": 9,
    "team_name": "関西大学",
    "team_short_name": "関大",
    "runner_name": "八尾（大阪）",
    "total_distance_km": 657.8,
    "latitude": 34.831337977846296,
    "longitude": 134.35516585893686,
    "is_shadow_confederation": false
  },
  {
    "rank": 10,
    "team_name": "三重大学",
    "team_short_name": "三重",
    "runner_name": "新宮",
    "total_distance_km": 650.8,
    "latitude": 34.83314967559168,
    "longitude": 134.42781527854126,
    "is_shadow_confederation": false
  },
  {
    "rank": 11,
    "team_name": "立命館大学",
    "team_short_name": "立命",
    "runner_name": "彦根",
    "total_distance_km": 636.5,
    "latitude": 34.83369591659042,
    "longitude": 134.57483227018545,
    "is_shadow_confederation": false
  },
  {
    "rank": 12,
    "team_name": "上武大学",
    "team_short_name": "上武",
    "runner_name": "伊勢崎",
    "total_distance_km": 614.6,
    "latitude": 34.794987887598936,
    "longitude": 134.78241318427774,
    "is_shadow_confederation": false
  },
  {
    "rank": 13,
    "team_name": "日本大学",
    "team_short_name": "日大",
    "runner_name": "八王子",
    "total_distance_km": 614.0,
    "latitude": 34.793709890262186,
    "longitude": 134.7886786331411,
    "is_shadow_confederation": false
  },
  {
    "rank": 14,
    "team_name": "金沢大学",
    "team_short_name": "金沢",
    "runner_name": "富山",
    "total_distance_km": 613.6,
    "latitude": 34.79238397880331,
    "longitude": 134.79274310694717,
    "is_shadow_confederation": false
  },
  {
    "rank": 15,
    "team_name": "山梨学院大学",
    "team_short_name": "山学",
    "runner_name": "静岡",
    "total_distance_km": 598.3,
    "latitude": 34.6997603597764,
    "longitude": 134.91169941137318,
    "is_shadow_confederation": false
  },
  {
    "rank": 16,
    "team_name": "学連選抜",
    "team_short_name": "学連",
    "runner_name": "多度津",
    "total_distance_km": 560.1,
    "latitude": 34.71860621732285,
    "longitude": 135.2622848244742,
    "is_shadow_confederation": false
  },
  {
    "rank": 17,
    "team_name": "福島大学",
    "team_short_name": "福島",
    "runner_name": "浪江",
    "total_distance_km": 541.1,
    "latitude": 34.70923137270174,
    "longitude": 135.4573936421839,
    "is_shadow_confederation": false
  },
  {
    "rank": 18,
    "team_name": "東北大学",
    "team_short_name": "東北",
    "runner_name": "一関",
    "total_distance_km": 455.0,
    "latitude": 35.014921967512436,
    "longitude": 136.06227089991415,
    "is_shadow_confederation": false
  }
]