[
  {
    "rank": 1,
    "team_name": "琉球大学",
    "team_short_name": "琉球",
    "runner_name": "那覇",
    "total_distance_km": 749.7,
    "latitude": 34.49945778096729,
    "longitude": 133.51369693185922,
    "is_shadow_confederation": false
  },
  {
    "rank": 2,
    "team_name": "熊本学園大学",
    "team_short_name": "熊学",
    "runner_name": "犬飼",
    "total_distance_km": 701.6,
    "latitude": 34.673386903808215,
    "longitude": 133.96212878024073,
    "is_shadow_confederation": false
  },
  {
    "rank": 3,
    "team_name": "福岡大学",
    "team_short_name": "福岡",
    "runner_name": "口之津",
    "total_distance_km": 687.9,
    "latitude": 34.71449804098838,
    "longitude": 134.09645840147655,
    "is_shadow_confederation": false
  },
  {
    "rank": 4,
    "team_name": "鹿児島大学",
    "team_short_name": "鹿大",
    "runner_name": "鹿児島",
    "total_distance_km": 684.6,
    "latitude": 34.7298466853877,
    "longitude": 134.12472200480494,
    "is_shadow_confederation": false
  },
  {
    "rank": 5,
    "team_name": "名古屋大学",
    "team_short_name": "名大",
    "runner_name": "名古屋",
    "total_distance_km": 682.0,
    "latitude": 34.73775928320468,
    "longitude": 134.15134575965783,
    "is_shadow_confederation": false
  },
  {
    "rank": 6,
    "team_name": "関西大学",
    "team_short_name": "関大",
    "runner_name": "八尾（大阪）",
    "total_distance_km": 679.5,
    "latitude": 34.74338273166444,
    "longitude": 134.17766884489745,
    "is_shadow_confederation": false
  },
  {
    "rank": 7,
    "team_name": "立命館大学",
    "team_short_name": "立命",
    "runner_name": "長浜（滋賀）",
    "total_distance_km": 675.1,
    "latitude": 34.75977454745154,
    "longitude": 134.22108598958056,
    "is_shadow_confederation": false
  },
  {
    "rank": 8,
    "team_name": "四国大学",
    "team_short_name": "四国",
    "runner_name": "新居浜",
    "total_distance_km": 674.8,
    "latitude": 34.7619154111138,
    "longitude": 134.2230432309516,
    "is_shadow_confederation": false
  },
  {
    "rank": 9,
    "team_name": "鳥取大学",
    "team_short_name": "鳥取",
    "runner_name": "米子",
    "total_distance_km": 674.4,
    "latitude": 34.76499304230811,
    "longitude": 134.22531959340762,
    "is_shadow_confederation": false
  },
  {
    "rank": 10,
    "team_name": "広島経済大学",
    "team_short_name": "広経",
    "runner_name": "福山",
    "total_distance_km": 674.2,
    "latitude": 34.7663460099907,
    "longitude": 134.22676325924814,
    "is_shadow_confederation": false
  },
  {
    "rank": 11,
    "team_name": "山梨学院大学",
    "team_short_name": "山学",
    "runner_name": "静岡",
    "total_distance_km": 663.1,
    "latitude": 34.83070885315371,
    "longitude": 134.31222116517674,
    "is_shadow_confederation": false
  },
  {
    "rank": 12,
    "team_name": "上武大学",
    "team_short_name": "上武",
    "runner_name": "伊勢崎",
    "total_distance_km": 661.8,
    "latitude": 34.8408195624005,
    "longitude": 134.31750760435483,
    "is_shadow_confederation": false
  },
  {
    "rank": 13,
    "team_name": "三重大学",
    "team_short_name": "三重",
    "runner_name": "新宮",
    "total_distance_km": 658.6,
    "latitude": 34.83504458526409,
    "longitude": 134.3476640085506,
    "is_shadow_confederation": false
  },
  {
    "rank": 14,
    "team_name": "金沢大学",
    "team_short_name": "金沢",
    "runner_name": "富山",
    "total_distance_km": 654.5,
    "latitude": 34.8286267213337,
    "longitude": 134.38862868358024,
    "is_shadow_confederation": false
  },
  {
    "rank": 15,
    "team_name": "日本大学",
    "team_short_name": "日大",
    "runner_name": "八王子",
    "total_distance_km": 631.9,
    "latitude": 34.8334803201957,
    "longitude": 134.62111197341676,
    "is_shadow_confederation": false
  },
  {
    "rank": 16,
    "team_name": "学連選抜",
    "team_short_name": "学連",
    "runner_name": "多度津",
    "total_distance_km": 604.5,
    "latitude": 34.74176250376657,
    "longitude": 134.86848189098373,
    "is_shadow_confederation": false
  },
  {
    "rank": 17,
    "team_name": "福島大学",
    "team_short_name": "福島",
    "runner_name": "浪江",
    "total_distance_km": 596.7,
    "latitude": 34.69114464554085,
    "longitude": 134.92567861988272,
    "is_shadow_confederation": false
  },
  {
    "rank": 18,
    "team_name": "東北大学",
    "team_short_name": "東北",
    "runner_name": "丸森",
    "total_distance_km": 588.7,
    "latitude": 34.647537140259345,
    "longitude": 134.99192696826395,
    "is_shadow_confederation": false
  }
]