[
  {
    "rank": 1,
    "team_name": "琉球大学",
    "team_short_name": "琉球",
    "runner_name": "波照間",
    "total_distance_km": 532.5,
    "latitude": 34.70006524297965,
    "longitude": 135.54120152276306,
    "is_shadow_confederation": false
  },
  {
    "rank": 2,
    "team_name": "熊本学園大学",
    "team_short_name": "熊学",
    "runner_name": "熊本",
    "total_distance_km": 472.8,
    "latitude": 34.98056846781824,
    "longitude": 135.89568206211345,
    "is_shadow_confederation": false
  },
  {
    "rank": 3,
    "team_name": "鹿児島大学",
    "team_short_name": "鹿大",
    "runner_name": "西都",
    "total_distance_km": 460.3,
    "latitude": 35.03043125665837,
    "longitude": 136.00917515066286,
    "is_shadow_confederation": false
  },
  {
    "rank": 4,
    "team_name": "福岡大学",
    "team_short_name": "福岡",
    "runner_name": "前原",
    "total_distance_km": 443.4,
    "latitude": 34.973809979089815,
    "longitude": 136.17387659157836,
    "is_shadow_confederation": false
  },
  {
    "rank": 5,
    "team_name": "四国大学",
    "team_short_name": "四国",
    "runner_name": "大洲",
    "total_distance_km": 425.8,
    "latitude": 34.90080113331452,
    "longitude": 136.33513329064425,
    "is_shadow_confederation": false
  },
  {
    "rank": 6,
    "team_name": "広島経済大学",
    "team_short_name": "広経",
    "runner_name": "高梁",
    "total_distance_km": 413.3,
    "latitude": 34.857043541043424,
    "longitude": 136.42419370402234,
    "is_shadow_confederation": false
  },
  {
    "rank": 7,
    "team_name": "鳥取大学",
    "team_short_name": "鳥取",
    "runner_name": "防府",
    "total_distance_km": 404.2,
    "latitude": 34.87716986427196,
    "longitude": 136.50560332647663,
    "is_shadow_confederation": false
  },
  {
    "rank": 8,
    "team_name": "名古屋大学",
    "team_short_name": "名大",
    "runner_name": "愛西",
    "total_distance_km": 398.8,
    "latitude": 34.90239757784658,
    "longitude": 136.54856035365816,
    "is_shadow_confederation": false
  },
  {
    "rank": 9,
    "team_name": "関西大学",
    "team_short_name": "関大",
    "runner_name": "柏原",
    "total_distance_km": 395.1,
    "latitude": 34.91725332458968,
    "longitude": 136.5784596036059,
    "is_shadow_confederation": false
  },
  {
    "rank": 10,
    "team_name": "立命館大学",
    "team_short_name": "立命",
    "runner_name": "米原",
    "total_distance_km": 391.6,
    "latitude": 34.940982464881,
    "longitude": 136.60155680363667,
    "is_shadow_confederation": false
  },
  {
    "rank": 11,
    "team_name": "三重大学",
    "team_short_name": "三重",
    "runner_name": "風屋",
    "total_distance_km": 385.1,
    "latitude": 34.98932792684304,
    "longitude": 136.63892753160536,
    "is_shadow_confederation": false
  },
  {
    "rank": 12,
    "team_name": "金沢大学",
    "team_short_name": "金沢",
    "runner_name": "志賀",
    "total_distance_km": 370.5,
    "latitude": 35.099245789849476,
    "longitude": 136.70433278540912,
    "is_shadow_confederation": false
  },
  {
    "rank": 13,
    "team_name": "日本大学",
    "team_short_name": "日大",
    "runner_name": "小田原",
    "total_distance_km": 367.4,
    "latitude": 35.1133387346524,
    "longitude": 136.7328913332919,
    "is_shadow_confederation": false
  },
  {
    "rank": 14,
    "team_name": "上武大学",
    "team_short_name": "上武",
    "runner_name": "寄居",
    "total_distance_km": 365.0,
    "latitude": 35.11930444663875,
    "longitude": 136.75819795249538,
    "is_shadow_confederation": false
  },
  {
    "rank": 15,
    "team_name": "山梨学院大学",
    "team_short_name": "山学",
    "runner_name": "浜松",
    "total_distance_km": 344.8,
    "latitude": 35.07818093094499,
    "longitude": 136.94533359348452,
    "is_shadow_confederation": false
  },
  {
    "rank": 16,
    "team_name": "福島大学",
    "team_short_name": "福島",
    "runner_name": "津川",
    "total_distance_km": 321.1,
    "latitude": 34.958704378230784,
    "longitude": 137.15356606380084,
    "is_shadow_confederation": false
  },
  {
    "rank": 17,
    "team_name": "学連選抜",
    "team_short_name": "学連",
    "runner_name": "大村",
    "total_distance_km": 294.4,
    "latitude": 34.8040915579528,
    "longitude": 137.3613831534612,
    "is_shadow_confederation": false
  },
  {
    "rank": 18,
    "team_name": "東北大学",
    "team_short_name": "東北",
    "runner_name": "高畠",
    "total_distance_km": 261.6,
    "latitude": 34.68372949353902,
    "longitude": 137.62753022008272,
    "is_shadow_confederation": false
  }
]