[
  {
    "rank": 1,
    "team_name": "琉球大学",
    "team_short_name": "琉球",
    "runner_name": "名護",
    "total_distance_km": 364.7,
    "latitude": 35.12003844023142,
    "longitude": 136.76136550907754,
    "current_leg": 4,
    "is_shadow_confederation": false
  },
  {
    "rank": 2,
    "team_name": "名古屋大学",
    "team_short_name": "名大",
    "runner_name": "大垣",
    "total_distance_km": 333.1,
    "latitude": 35.013087614505245,
    "longitude": 137.04210284833428,
    "current_leg": 4,
    "is_shadow_confederation": false
  },
  {
    "rank": 3,
    "team_name": "鹿児島大学",
    "team_short_name": "鹿大",
    "runner_name": "加久藤",
    "total_distance_km": 330.4,
    "latitude": 34.99841402936969,
    "longitude": 137.06514305983268,
    "current_leg": 4,
    "is_shadow_confederation": false
  },
  {
    "rank": 4,
    "team_name": "熊本学園大学",
    "team_short_name": "熊学",
    "runner_name": "八代",
    "total_distance_km": 320.1,
    "latitude": 34.95698003215342,
    "longitude": 137.16425973763538,
    "current_leg": 4,
    "is_shadow_confederation": false
  },
  {
    "rank": 5,
    "team_name": "福岡大学",
    "team_short_name": "福岡",
    "runner_name": "黒木",
    "total_distance_km": 319.9,
    "latitude": 34.95638532495489,
    "longitude": 137.1663268825363,
    "current_leg": 4,
    "is_shadow_confederation": false
  },
  {
    "rank": 6,
    "team_name": "立命館大学",
    "team_short_name": "立命",
    "runner_name": "京田辺",
    "total_distance_km": 319.7,
    "latitude": 34.95580466380111,
    "longitude": 137.16839985949468,
    "current_leg": 4,
    "is_shadow_confederation": false
  },
  {
    "rank": 7,
    "team_name": "鳥取大学",
    "team_short_name": "鳥取",
    "runner_name": "広瀬",
    "total_distance_km": 318.8,
    "latitude": 34.952523836247536,
    "longitude": 137.1773021505047,
    "current_leg": 4,
    "is_shadow_confederation": false
  },
  {
    "rank": 8,
    "team_name": "関西大学",
    "team_short_name": "関大",
    "runner_name": "上郡",
    "total_distance_km": 316.7,
    "latitude": 34.93968927865748,
    "longitude": 137.19357860680321,
    "current_leg": 4,
    "is_shadow_confederation": false
  },
  {
    "rank": 9,
    "team_name": "金沢大学",
    "team_short_name": "金沢",
    "runner_name": "七尾",
    "total_distance_km": 313.3,
    "latitude": 34.91596718268987,
    "longitude": 137.2146742414103,
    "current_leg": 4,
    "is_shadow_confederation": false
  },
  {
    "rank": 10,
    "team_name": "四国大学",
    "team_short_name": "四国",
    "runner_name": "御荘",
    "total_distance_km": 311.3,
    "latitude": 34.906350590281654,
    "longitude": 137.23248687485892,
    "current_leg": 4,
    "is_shadow_confederation": false
  },
  {
    "rank": 11,
    "team_name": "三重大学",
    "team_short_name": "三重",
    "runner_name": "小俣",
    "total_distance_km": 310.6,
    "latitude": 34.90162127187247,
    "longitude": 137.23733108151805,
    "current_leg": 4,
    "is_shadow_confederation": false
  },
  {
    "rank": 12,
    "team_name": "上武大学",
    "team_short_name": "上武",
    "runner_name": "熊谷",
    "total_distance_km": 309.8,
    "latitude": 34.89832161733107,
    "longitude": 137.24497581634932,
    "current_leg": 3,
    "is_shadow_confederation": false
  },
  {
    "rank": 13,
    "team_name": "日本大学",
    "team_short_name": "日大",
    "runner_name": "下館",
    "total_distance_km": 308.8,
    "latitude": 34.89478671263891,
    "longitude": 137.2548946233019,
    "current_leg": 3,
    "is_shadow_confederation": false
  },
  {
    "rank": 14,
    "team_name": "山梨学院大学",
    "team_short_name": "山学",
    "runner_name": "大月",
    "total_distance_km": 305.8,
    "latitude": 34.876287461876224,
    "longitude": 137.27666450364958,
    "current_leg": 3,
    "is_shadow_confederation": false
  },
  {
    "rank": 15,
    "team_name": "広島経済大学",
    "team_short_name": "広経",
    "runner_name": "府中（広島）",
    "total_distance_km": 300.7,
    "latitude": 34.84801447420531,
    "longitude": 137.3192971745505,
    "current_leg": 3,
    "is_shadow_confederation": false
  },
  {
    "rank": 16,
    "team_name": "東北大学",
    "team_short_name": "東北",
    "runner_name": "高畠",
    "total_distance_km": 294.2,
    "latitude": 34.80261504724031,
    "longitude": 137.36263726897795,
    "current_leg": 3,
    "is_shadow_confederation": false
  },
  {
    "rank": 17,
    "team_name": "福島大学",
    "team_short_name": "福島",
    "runner_name": "津川",
    "total_distance_km": 291.4,
    "latitude": 34.78259123183194,
    "longitude": 137.38124221965643,
    "current_leg": 3,
    "is_shadow_confederation": false
  },
  {
    "rank": 18,
    "team_name": "学連選抜",
    "team_short_name": "学連",
    "runner_name": "大村",
    "total_distance_km": 283.1,
    "latitude": 34.725532232941575,
    "longitude": 137.42953244381178,
    "current_leg": 3,
    "is_shadow_confederation": false
  },
  {
    "rank": null,
    "team_name": "区間記録連合",
    "team_short_name": "区間記録",
    "runner_name": "風屋",
    "total_distance_km": 405.7,
    "latitude": 34.871360832002345,
    "longitude": 136.49234364375002,
    "current_leg": 5,
    "is_shadow_confederation": true
  }
]