[
  {
    "rank": 1,
    "team_name": "琉球大学",
    "team_short_name": "琉球",
    "runner_name": "盛山",
    "total_distance_km": 232.5,
    "latitude": 34.745637538693174,
    "longitude": 137.9117124538938,
    "is_shadow_confederation": false
  },
  {
    "rank": 2,
    "team_name": "鹿児島大学",
    "team_short_name": "鹿大",
    "runner_name": "川内（鹿児島）",
    "total_distance_km": 166.2,
    "latitude": 35.01969481400765,
    "longitude": 138.47610310174906,
    "is_shadow_confederation": false
  },
  {
    "rank": 3,
    "team_name": "熊本学園大学",
    "team_short_name": "熊学",
    "runner_name": "岱明",
    "total_distance_km": 163.2,
    "latitude": 35.03740540301833,
    "longitude": 138.4945931417381,
    "is_shadow_confederation": false
  },
  {
    "rank": 4,
    "team_name": "福岡大学",
    "team_short_name": "福岡",
    "runner_name": "福岡",
    "total_distance_km": 151.1,
    "latitude": 35.111806928259924,
    "longitude": 138.5759714480996,
    "is_shadow_confederation": false
  },
  {
    "rank": 5,
    "team_name": "名古屋大学",
    "team_short_name": "名大",
    "runner_name": "美濃",
    "total_distance_km": 137.2,
    "latitude": 35.14197772742745,
    "longitude": 138.71065491071627,
    "is_shadow_confederation": false
  },
  {
    "rank": 6,
    "team_name": "四国大学",
    "team_short_name": "四国",
    "runner_name": "大三島",
    "total_distance_km": 135.9,
    "latitude": 35.13930005222515,
    "longitude": 138.72444052873013,
    "is_shadow_confederation": false
  },
  {
    "rank": 7,
    "team_name": "上武大学",
    "team_short_name": "上武",
    "runner_name": "越谷",
    "total_distance_km": 132.4,
    "latitude": 35.1316513630022,
    "longitude": 138.7616308594856,
    "is_shadow_confederation": false
  },
  {
    "rank": 8,
    "team_name": "三重大学",
    "team_short_name": "三重",
    "runner_name": "五條",
    "total_distance_km": 130.3,
    "latitude": 35.1264890650784,
    "longitude": 138.78374051835564,
    "is_shadow_confederation": false
  },
  {
    "rank": 9,
    "team_name": "日本大学",
    "team_short_name": "日大",
    "runner_name": "古河",
    "total_distance_km": 128.6,
    "latitude": 35.121453119685334,
    "longitude": 138.80131215094784,
    "is_shadow_confederation": false
  },
  {
    "rank": 10,
    "team_name": "関西大学",
    "team_short_name": "関大",
    "runner_name": "和田山",
    "total_distance_km": 117.4,
    "latitude": 35.117918964635784,
    "longitude": 138.90963844535298,
    "is_shadow_confederation": false
  },
  {
    "rank": 11,
    "team_name": "広島経済大学",
    "team_short_name": "広経",
    "runner_name": "加計",
    "total_distance_km": 115.1,
    "latitude": 35.12390609195665,
    "longitude": 138.93353352320935,
    "is_shadow_confederation": false
  },
  {
    "rank": 12,
    "team_name": "鳥取大学",
    "team_short_name": "鳥取",
    "runner_name": "鳥取",
    "total_distance_km": 114.6,
    "latitude": 35.12599856210592,
    "longitude": 138.93815334980516,
    "is_shadow_confederation": false
  },
  {
    "rank": 13,
    "team_name": "立命館大学",
    "team_short_name": "立命",
    "runner_name": "福知山",
    "total_distance_km": 110.7,
    "latitude": 35.141884359576615,
    "longitude": 138.96979457972773,
    "is_shadow_confederation": false
  },
  {
    "rank": 14,
    "team_name": "福島大学",
    "team_short_name": "福島",
    "runner_name": "石川",
    "total_distance_km": 106.8,
    "latitude": 35.16033523235405,
    "longitude": 138.99802846180413,
    "is_shadow_confederation": false
  },
  {
    "rank": 15,
    "team_name": "金沢大学",
    "team_short_name": "金沢",
    "runner_name": "秋ヶ島",
    "total_distance_km": 89.1,
    "latitude": 35.232252389782225,
    "longitude": 139.11209931535268,
    "is_shadow_confederation": false
  },
  {
    "rank": 16,
    "team_name": "山梨学院大学",
    "team_short_name": "山学",
    "runner_name": "長野",
    "total_distance_km": 76.6,
    "latitude": 35.283982893679095,
    "longitude": 139.22472356256637,
    "is_shadow_confederation": false
  },
  {
    "rank": 17,
    "team_name": "東北大学",
    "team_short_name": "東北",
    "runner_name": "帯広",
    "total_distance_km": 68.6,
    "latitude": 35.30758799402373,
    "longitude": 139.30574026534907,
    "is_shadow_confederation": false
  },
  {
    "rank": 18,
    "team_name": "学連選抜",
    "team_short_name": "学連",
    "runner_name": "美幌",
    "total_distance_km": 14.7,
    "latitude": 35.5653892534273,
    "longitude": 139.72760442387835,
    "is_shadow_confederation": false
  },
  {
    "rank": null,
    "team_name": "区間記録連合",
    "team_short_name": "区間記録",
    "runner_name": "伊勢崎",
    "total_distance_km": 251.1,
    "latitude": 34.706059929661755,
    "longitude": 137.72804739482265,
    "is_shadow_confederation": true
  }
]