[
  {
    "rank": 1,
    "team_name": "名古屋大学",
    "team_short_name": "名大",
    "runner_name": "美濃",
    "total_distance_km": 211.0,
    "latitude": 34.82097166804086,
    "longitude": 138.10617503890063,
    "is_shadow_confederation": false
  },
  {
    "rank": 2,
    "team_name": "四国大学",
    "team_short_name": "四国",
    "runner_name": "大三島",
    "total_distance_km": 207.0,
    "latitude": 34.83733235674366,
    "longitude": 138.1251815687784,
    "is_shadow_confederation": false
  },
  {
    "rank": 3,
    "team_name": "熊本学園大学",
    "team_short_name": "熊学",
    "runner_name": "岱明",
    "total_distance_km": 204.5,
    "latitude": 34.84420717039039,
    "longitude": 138.15075874314363,
    "is_shadow_confederation": false
  },
  {
    "rank": 4,
    "team_name": "広島経済大学",
    "team_short_name": "広経",
    "runner_name": "加計",
    "total_distance_km": 203.9,
    "latitude": 34.845722948386175,
    "longitude": 138.15705607934115,
    "is_shadow_confederation": false
  },
  {
    "rank": 5,
    "team_name": "関西大学",
    "team_short_name": "関大",
    "runner_name": "和田山",
    "total_distance_km": 202.9,
    "latitude": 34.84593890309055,
    "longitude": 138.16784662957826,
    "is_shadow_confederation": false
  },
  {
    "rank": 6,
    "team_name": "福岡大学",
    "team_short_name": "福岡",
    "runner_name": "福岡",
    "total_distance_km": 202.8,
    "latitude": 34.84625486131115,
    "longitude": 138.1688706506657,
    "is_shadow_confederation": false
  },
  {
    "rank": 7,
    "team_name": "立命館大学",
    "team_short_name": "立命",
    "runner_name": "福知山",
    "total_distance_km": 202.6,
    "latitude": 34.84688296775202,
    "longitude": 138.17092038804162,
    "is_shadow_confederation": false
  },
  {
    "rank": 8,
    "team_name": "金沢大学",
    "team_short_name": "金沢",
    "runner_name": "小浜",
    "total_distance_km": 200.9,
    "latitude": 34.84959212578898,
    "longitude": 138.1886299591462,
    "is_shadow_confederation": false
  },
  {
    "rank": 9,
    "team_name": "鳥取大学",
    "team_short_name": "鳥取",
    "runner_name": "鳥取",
    "total_distance_km": 200.8,
    "latitude": 34.85001356749499,
    "longitude": 138.18959652232292,
    "is_shadow_confederation": false
  },
  {
    "rank": 9,
    "team_name": "琉球大学",
    "team_short_name": "琉球",
    "runner_name": "仲筋",
    "total_distance_km": 200.8,
    "latitude": 34.85001356749499,
    "longitude": 138.18959652232292,
    "is_shadow_confederation": false
  },
  {
    "rank": 11,
    "team_name": "上武大学",
    "team_short_name": "上武",
    "runner_name": "越谷",
    "total_distance_km": 199.5,
    "latitude": 34.85442564737721,
    "longitude": 138.20276055344524,
    "is_shadow_confederation": false
  },
  {
    "rank": 12,
    "team_name": "日本大学",
    "team_short_name": "日大",
    "runner_name": "古河",
    "total_distance_km": 198.5,
    "latitude": 34.86070651755186,
    "longitude": 138.20970059824015,
    "is_shadow_confederation": false
  },
  {
    "rank": 13,
    "team_name": "三重大学",
    "team_short_name": "三重",
    "runner_name": "五條",
    "total_distance_km": 197.7,
    "latitude": 34.866955608727224,
    "longitude": 138.21400992836445,
    "is_shadow_confederation": false
  },
  {
    "rank": 14,
    "team_name": "鹿児島大学",
    "team_short_name": "鹿大",
    "runner_name": "川内（鹿児島）",
    "total_distance_km": 196.6,
    "latitude": 34.869933391309516,
    "longitude": 138.22524970099272,
    "is_shadow_confederation": false
  },
  {
    "rank": 15,
    "team_name": "山梨学院大学",
    "team_short_name": "山学",
    "runner_name": "南信濃",
    "total_distance_km": 195.3,
    "latitude": 34.878492989629386,
    "longitude": 138.23450805182154,
    "is_shadow_confederation": false
  },
  {
    "rank": 16,
    "team_name": "福島大学",
    "team_short_name": "福島",
    "runner_name": "石川",
    "total_distance_km": 192.1,
    "latitude": 34.89265880579879,
    "longitude": 138.26462777156092,
    "is_shadow_confederation": false
  },
  {
    "rank": 17,
    "team_name": "東北大学",
    "team_short_name": "東北",
    "runner_name": "山形（山形）",
    "total_distance_km": 163.3,
    "latitude": 35.03670189669974,
    "longitude": 138.49390799071404,
    "is_shadow_confederation": false
  },
  {
    "rank": 18,
    "team_name": "学連選抜",
    "team_short_name": "学連",
    "runner_name": "新潟",
    "total_distance_km": 156.6,
    "latitude": 35.07494459761993,
    "longitude": 138.5443182890945,
    "is_shadow_confederation": false
  },
  {
    "rank": null,
    "team_name": "区間記録連合",
    "team_short_name": "区間記録",
    "runner_name": "佐野",
    "total_distance_km": 211.0,
    "latitude": 34.82097166804086,
    "longitude": 138.10617503890063,
    "is_shadow_confederation": true
  }
]