[
  {
    "rank": 1,
    "team_name": "琉球大学",
    "team_short_name": "琉球",
    "runner_name": "久米島",
    "total_distance_km": 559.5,
    "latitude": 34.72082094155299,
    "longitude": 135.2682455959494,
    "is_shadow_confederation": false
  },
  {
    "rank": 2,
    "team_name": "鹿児島大学",
    "team_short_name": "鹿大",
    "runner_name": "西都",
    "total_distance_km": 437.6,
    "latitude": 34.95079195815355,
    "longitude": 136.22866966043316,
    "is_shadow_confederation": false
  },
  {
    "rank": 3,
    "team_name": "熊本学園大学",
    "team_short_name": "熊学",
    "runner_name": "熊本",
    "total_distance_km": 430.7,
    "latitude": 34.92825497614252,
    "longitude": 136.29620301145783,
    "is_shadow_confederation": false
  },
  {
    "rank": 4,
    "team_name": "福岡大学",
    "team_short_name": "福岡",
    "runner_name": "朝倉",
    "total_distance_km": 405.4,
    "latitude": 34.87359549670754,
    "longitude": 136.49419142281474,
    "is_shadow_confederation": false
  },
  {
    "rank": 5,
    "team_name": "名古屋大学",
    "team_short_name": "名大",
    "runner_name": "愛西",
    "total_distance_km": 378.2,
    "latitude": 35.040234006969314,
    "longitude": 136.67244912188474,
    "is_shadow_confederation": false
  },
  {
    "rank": 6,
    "team_name": "四国大学",
    "team_short_name": "四国",
    "runner_name": "松山",
    "total_distance_km": 371.3,
    "latitude": 35.0922207511941,
    "longitude": 136.70235339758082,
    "is_shadow_confederation": false
  },
  {
    "rank": 7,
    "team_name": "上武大学",
    "team_short_name": "上武",
    "runner_name": "寄居",
    "total_distance_km": 360.7,
    "latitude": 35.125832117085835,
    "longitude": 136.80452282254106,
    "is_shadow_confederation": false
  },
  {
    "rank": 8,
    "team_name": "日本大学",
    "team_short_name": "日大",
    "runner_name": "小田原",
    "total_distance_km": 359.1,
    "latitude": 35.1262895903189,
    "longitude": 136.82204600069406,
    "is_shadow_confederation": false
  },
  {
    "rank": 9,
    "team_name": "広島経済大学",
    "team_short_name": "広経",
    "runner_name": "大竹",
    "total_distance_km": 358.1,
    "latitude": 35.12447092620704,
    "longitude": 136.83259608620884,
    "is_shadow_confederation": false
  },
  {
    "rank": 10,
    "team_name": "三重大学",
    "team_short_name": "三重",
    "runner_name": "風屋",
    "total_distance_km": 357.7,
    "latitude": 35.124184567800995,
    "longitude": 136.83691715486185,
    "is_shadow_confederation": false
  },
  {
    "rank": 11,
    "team_name": "鳥取大学",
    "team_short_name": "鳥取",
    "runner_name": "防府",
    "total_distance_km": 351.2,
    "latitude": 35.12209356839366,
    "longitude": 136.9074631558664,
    "is_shadow_confederation": false
  },
  {
    "rank": 12,
    "team_name": "関西大学",
    "team_short_name": "関大",
    "runner_name": "柏原",
    "total_distance_km": 344.8,
    "latitude": 35.07818093094499,
    "longitude": 136.94533359348452,
    "is_shadow_confederation": false
  },
  {
    "rank": 13,
    "team_name": "立命館大学",
    "team_short_name": "立命",
    "runner_name": "米原",
    "total_distance_km": 341.0,
    "latitude": 35.060904956707084,
    "longitude": 136.98091925418177,
    "is_shadow_confederation": false
  },
  {
    "rank": 14,
    "team_name": "山梨学院大学",
    "team_short_name": "山学",
    "runner_name": "大月",
    "total_distance_km": 308.1,
    "latitude": 34.89169563162805,
    "longitude": 137.26145069308905,
    "is_shadow_confederation": false
  },
  {
    "rank": 15,
    "team_name": "福島大学",
    "team_short_name": "福島",
    "runner_name": "津川",
    "total_distance_km": 303.8,
    "latitude": 34.866957702957215,
    "longitude": 137.2953603330137,
    "is_shadow_confederation": false
  },
  {
    "rank": 16,
    "team_name": "金沢大学",
    "team_short_name": "金沢",
    "runner_name": "七尾",
    "total_distance_km": 284.3,
    "latitude": 34.734521392213615,
    "longitude": 137.42441686465563,
    "is_shadow_confederation": false
  },
  {
    "rank": 17,
    "team_name": "東北大学",
    "team_short_name": "東北",
    "runner_name": "高畠",
    "total_distance_km": 227.4,
    "latitude": 34.76298387741358,
    "longitude": 137.96225086518405,
    "is_shadow_confederation": false
  },
  {
    "rank": 18,
    "team_name": "学連選抜",
    "team_short_name": "学連",
    "runner_name": "新潟",
    "total_distance_km": 128.9,
    "latitude": 35.122502759485,
    "longitude": 138.79828916784567,
    "is_shadow_confederation": false
  },
  {
    "rank": null,
    "team_name": "区間記録連合",
    "team_short_name": "区間記録",
    "runner_name": "勝沼",
    "total_distance_km": 575.9,
    "latitude": 34.64685825978711,
    "longitude": 135.11816612082072,
    "is_shadow_confederation": true
  }
]