[
  {
    "rank": 1,
    "team_name": "琉球大学",
    "team_short_name": "琉球",
    "runner_name": "久米島",
    "total_distance_km": 659.0,
    "latitude": 34.836897888972985,
    "longitude": 134.34391308335748,
    "is_shadow_confederation": false
  },
  {
    "rank": 2,
    "team_name": "鹿児島大学",
    "team_short_name": "鹿大",
    "runner_name": "西都",
    "total_distance_km": 520.4,
    "latitude": 34.78032053128223,
    "longitude": 135.61834571288207,
    "is_shadow_confederation": false
  },
  {
    "rank": 3,
    "team_name": "熊本学園大学",
    "team_short_name": "熊学",
    "runner_name": "熊本",
    "total_distance_km": 509.2,
    "latitude": 34.846725754525515,
    "longitude": 135.70143036082365,
    "is_shadow_confederation": false
  },
  {
    "rank": 4,
    "team_name": "福岡大学",
    "team_short_name": "福岡",
    "runner_name": "前原",
    "total_distance_km": 483.7,
    "latitude": 34.99549422123125,
    "longitude": 135.80263623845852,
    "is_shadow_confederation": false
  },
  {
    "rank": 5,
    "team_name": "四国大学",
    "team_short_name": "四国",
    "runner_name": "大洲",
    "total_distance_km": 442.3,
    "latitude": 34.967208285940266,
    "longitude": 136.182755932608,
    "is_shadow_confederation": false
  },
  {
    "rank": 6,
    "team_name": "名古屋大学",
    "team_short_name": "名大",
    "runner_name": "多治見",
    "total_distance_km": 441.8,
    "latitude": 34.964600355081025,
    "longitude": 136.1872209289996,
    "is_shadow_confederation": false
  },
  {
    "rank": 7,
    "team_name": "上武大学",
    "team_short_name": "上武",
    "runner_name": "桐生",
    "total_distance_km": 434.5,
    "latitude": 34.93916420490886,
    "longitude": 136.25899192948765,
    "is_shadow_confederation": false
  },
  {
    "rank": 8,
    "team_name": "日本大学",
    "team_short_name": "日大",
    "runner_name": "牛久",
    "total_distance_km": 431.6,
    "latitude": 34.933706380177355,
    "longitude": 136.28892678113766,
    "is_shadow_confederation": false
  },
  {
    "rank": 9,
    "team_name": "広島経済大学",
    "team_short_name": "広経",
    "runner_name": "高梁",
    "total_distance_km": 430.9,
    "latitude": 34.92938204886829,
    "longitude": 136.29450622035878,
    "is_shadow_confederation": false
  },
  {
    "rank": 10,
    "team_name": "鳥取大学",
    "team_short_name": "鳥取",
    "runner_name": "境",
    "total_distance_km": 426.8,
    "latitude": 34.907890333142674,
    "longitude": 136.32920022085926,
    "is_shadow_confederation": false
  },
  {
    "rank": 11,
    "team_name": "三重大学",
    "team_short_name": "三重",
    "runner_name": "奈良",
    "total_distance_km": 423.4,
    "latitude": 34.88917490363564,
    "longitude": 136.34535438862366,
    "is_shadow_confederation": false
  },
  {
    "rank": 12,
    "team_name": "関西大学",
    "team_short_name": "関大",
    "runner_name": "枚方",
    "total_distance_km": 418.3,
    "latitude": 34.85875051868236,
    "longitude": 136.3744698341546,
    "is_shadow_confederation": false
  },
  {
    "rank": 13,
    "team_name": "立命館大学",
    "team_short_name": "立命",
    "runner_name": "米原",
    "total_distance_km": 397.6,
    "latitude": 34.91214396096104,
    "longitude": 136.5530629314054,
    "is_shadow_confederation": false
  },
  {
    "rank": 14,
    "team_name": "山梨学院大学",
    "team_short_name": "山学",
    "runner_name": "浜松",
    "total_distance_km": 385.9,
    "latitude": 34.98440007303827,
    "longitude": 136.63254748566757,
    "is_shadow_confederation": false
  },
  {
    "rank": 15,
    "team_name": "福島大学",
    "team_short_name": "福島",
    "runner_name": "長岡",
    "total_distance_km": 367.9,
    "latitude": 35.112085929247726,
    "longitude": 136.72762271085347,
    "is_shadow_confederation": false
  },
  {
    "rank": 16,
    "team_name": "金沢大学",
    "team_short_name": "金沢",
    "runner_name": "志賀",
    "total_distance_km": 344.4,
    "latitude": 35.076331095332954,
    "longitude": 136.9490793715447,
    "is_shadow_confederation": false
  },
  {
    "rank": 17,
    "team_name": "東北大学",
    "team_short_name": "東北",
    "runner_name": "高畠",
    "total_distance_km": 294.0,
    "latitude": 34.801138536527816,
    "longitude": 137.3638913844947,
    "is_shadow_confederation": false
  },
  {
    "rank": 18,
    "team_name": "学連選抜",
    "team_short_name": "学連",
    "runner_name": "新潟",
    "total_distance_km": 189.5,
    "latitude": 34.90564738713065,
    "longitude": 138.28701832109317,
    "is_shadow_confederation": false
  },
  {
    "rank": null,
    "team_name": "区間記録連合",
    "team_short_name": "区間記録",
    "runner_name": "勝沼",
    "total_distance_km": 659.0,
    "latitude": 34.836897888972985,
    "longitude": 134.34391308335748,
    "is_shadow_confederation": true
  }
]