[
  {
    "rank": 1,
    "team_name": "琉球大学",
    "team_short_name": "琉球",
    "runner_name": "盛山",
    "total_distance_km": 279.6,
    "latitude": 34.71755280848862,
    "longitude": 137.4656277131507,
    "is_shadow_confederation": false
  },
  {
    "rank": 2,
    "team_name": "熊本学園大学",
    "team_short_name": "熊学",
    "runner_name": "八代",
    "total_distance_km": 266.1,
    "latitude": 34.69403978204452,
    "longitude": 137.5811328509731,
    "is_shadow_confederation": false
  },
  {
    "rank": 3,
    "team_name": "鹿児島大学",
    "team_short_name": "鹿大",
    "runner_name": "加久藤",
    "total_distance_km": 259.0,
    "latitude": 34.684456631465856,
    "longitude": 137.65567405370308,
    "is_shadow_confederation": false
  },
  {
    "rank": 4,
    "team_name": "福岡大学",
    "team_short_name": "福岡",
    "runner_name": "黒木",
    "total_distance_km": 251.3,
    "latitude": 34.70431130472204,
    "longitude": 137.7285788060208,
    "is_shadow_confederation": false
  },
  {
    "rank": 5,
    "team_name": "四国大学",
    "team_short_name": "四国",
    "runner_name": "御荘",
    "total_distance_km": 236.8,
    "latitude": 34.729464335160465,
    "longitude": 137.8696373224091,
    "is_shadow_confederation": false
  },
  {
    "rank": 6,
    "team_name": "広島経済大学",
    "team_short_name": "広経",
    "runner_name": "府中（広島）",
    "total_distance_km": 231.4,
    "latitude": 34.75034791211892,
    "longitude": 137.92227815872008,
    "is_shadow_confederation": false
  },
  {
    "rank": 7,
    "team_name": "鳥取大学",
    "team_short_name": "鳥取",
    "runner_name": "鳥取",
    "total_distance_km": 219.7,
    "latitude": 34.78147281141465,
    "longitude": 138.0391004905997,
    "is_shadow_confederation": false
  },
  {
    "rank": 8,
    "team_name": "三重大学",
    "team_short_name": "三重",
    "runner_name": "五條",
    "total_distance_km": 219.1,
    "latitude": 34.78371720561487,
    "longitude": 138.04479325207902,
    "is_shadow_confederation": false
  },
  {
    "rank": 9,
    "team_name": "立命館大学",
    "team_short_name": "立命",
    "runner_name": "福知山",
    "total_distance_km": 217.9,
    "latitude": 34.784219,
    "longitude": 138.05769346771385,
    "is_shadow_confederation": false
  },
  {
    "rank": 10,
    "team_name": "関西大学",
    "team_short_name": "関大",
    "runner_name": "和田山",
    "total_distance_km": 216.8,
    "latitude": 34.78751871002146,
    "longitude": 138.06879176519973,
    "is_shadow_confederation": false
  },
  {
    "rank": 11,
    "team_name": "名古屋大学",
    "team_short_name": "名大",
    "runner_name": "美濃",
    "total_distance_km": 216.0,
    "latitude": 34.79368941181393,
    "longitude": 138.07260181966615,
    "is_shadow_confederation": false
  },
  {
    "rank": 12,
    "team_name": "金沢大学",
    "team_short_name": "金沢",
    "runner_name": "小浜",
    "total_distance_km": 206.4,
    "latitude": 34.83775383906504,
    "longitude": 138.13151885344516,
    "is_shadow_confederation": false
  },
  {
    "rank": 13,
    "team_name": "上武大学",
    "team_short_name": "上武",
    "runner_name": "越谷",
    "total_distance_km": 202.6,
    "latitude": 34.84688296775202,
    "longitude": 138.17092038804162,
    "is_shadow_confederation": false
  },
  {
    "rank": 14,
    "team_name": "日本大学",
    "team_short_name": "日大",
    "runner_name": "古河",
    "total_distance_km": 197.1,
    "latitude": 34.86890199263153,
    "longitude": 138.219992046147,
    "is_shadow_confederation": false
  },
  {
    "rank": 15,
    "team_name": "山梨学院大学",
    "team_short_name": "山学",
    "runner_name": "南信濃",
    "total_distance_km": 192.5,
    "latitude": 34.891140480392856,
    "longitude": 138.26065875476678,
    "is_shadow_confederation": false
  },
  {
    "rank": 16,
    "team_name": "福島大学",
    "team_short_name": "福島",
    "runner_name": "石川",
    "total_distance_km": 180.7,
    "latitude": 34.94878757054237,
    "longitude": 138.34929210705369,
    "is_shadow_confederation": false
  },
  {
    "rank": 17,
    "team_name": "東北大学",
    "team_short_name": "東北",
    "runner_name": "山形（山形）",
    "total_distance_km": 136.5,
    "latitude": 35.14070124675838,
    "longitude": 138.71809109828598,
    "is_shadow_confederation": false
  },
  {
    "rank": 18,
    "team_name": "学連選抜",
    "team_short_name": "学連",
    "runner_name": "新潟",
    "total_distance_km": 124.1,
    "latitude": 35.101314187459835,
    "longitude": 138.84372030716855,
    "is_shadow_confederation": false
  }
]