[
  {
    "rank": 1,
    "team_name": "琉球大学",
    "team_short_name": "琉球",
    "runner_name": "那覇",
    "total_distance_km": 665.3,
    "latitude": 34.820476558599715,
    "longitude": 134.29280661983984,
    "is_shadow_confederation": false
  },
  {
    "rank": 2,
    "team_name": "鹿児島大学",
    "team_short_name": "鹿大",
    "runner_name": "笠利",
    "total_distance_km": 572.9,
    "latitude": 34.66264196372272,
    "longitude": 135.14468110773524,
    "is_shadow_confederation": false
  },
  {
    "rank": 3,
    "team_name": "熊本学園大学",
    "team_short_name": "熊学",
    "runner_name": "大分",
    "total_distance_km": 571.2,
    "latitude": 34.670195543573655,
    "longitude": 135.16020529160383,
    "is_shadow_confederation": false
  },
  {
    "rank": 4,
    "team_name": "福岡大学",
    "team_short_name": "福岡",
    "runner_name": "博多",
    "total_distance_km": 539.9,
    "latitude": 34.70160003883862,
    "longitude": 135.4664437324867,
    "is_shadow_confederation": false
  },
  {
    "rank": 5,
    "team_name": "四国大学",
    "team_short_name": "四国",
    "runner_name": "大洲",
    "total_distance_km": 517.1,
    "latitude": 34.8026681637146,
    "longitude": 135.63787819593284,
    "is_shadow_confederation": false
  },
  {
    "rank": 6,
    "team_name": "広島経済大学",
    "team_short_name": "広経",
    "runner_name": "高梁",
    "total_distance_km": 496.6,
    "latitude": 34.946883800692284,
    "longitude": 135.74540285756856,
    "is_shadow_confederation": false
  },
  {
    "rank": 7,
    "team_name": "名古屋大学",
    "team_short_name": "名大",
    "runner_name": "多治見",
    "total_distance_km": 488.7,
    "latitude": 35.000054429508864,
    "longitude": 135.76809646913625,
    "is_shadow_confederation": false
  },
  {
    "rank": 8,
    "team_name": "鳥取大学",
    "team_short_name": "鳥取",
    "runner_name": "境",
    "total_distance_km": 486.9,
    "latitude": 35.00936494401986,
    "longitude": 135.77802363155965,
    "is_shadow_confederation": false
  },
  {
    "rank": 9,
    "team_name": "関西大学",
    "team_short_name": "関大",
    "runner_name": "枚方",
    "total_distance_km": 485.1,
    "latitude": 35.00308801580233,
    "longitude": 135.79167180945737,
    "is_shadow_confederation": false
  },
  {
    "rank": 10,
    "team_name": "立命館大学",
    "team_short_name": "立命",
    "runner_name": "舞鶴",
    "total_distance_km": 475.7,
    "latitude": 35.00029867293214,
    "longitude": 135.8774276225255,
    "is_shadow_confederation": false
  },
  {
    "rank": 11,
    "team_name": "三重大学",
    "team_short_name": "三重",
    "runner_name": "奈良",
    "total_distance_km": 469.6,
    "latitude": 34.98570660398856,
    "longitude": 135.9268629047043,
    "is_shadow_confederation": false
  },
  {
    "rank": 12,
    "team_name": "日本大学",
    "team_short_name": "日大",
    "runner_name": "牛久",
    "total_distance_km": 463.8,
    "latitude": 35.02089443897034,
    "longitude": 135.97314934724642,
    "is_shadow_confederation": false
  },
  {
    "rank": 13,
    "team_name": "上武大学",
    "team_short_name": "上武",
    "runner_name": "桐生",
    "total_distance_km": 457.6,
    "latitude": 35.025808154389075,
    "longitude": 136.03717753415165,
    "is_shadow_confederation": false
  },
  {
    "rank": 14,
    "team_name": "金沢大学",
    "team_short_name": "金沢",
    "runner_name": "福井",
    "total_distance_km": 451.4,
    "latitude": 34.996750359735216,
    "longitude": 136.09494605291138,
    "is_shadow_confederation": false
  },
  {
    "rank": 15,
    "team_name": "山梨学院大学",
    "team_short_name": "山学",
    "runner_name": "甲府",
    "total_distance_km": 435.1,
    "latitude": 34.9403887742261,
    "longitude": 136.25261460908013,
    "is_shadow_confederation": false
  },
  {
    "rank": 16,
    "team_name": "福島大学",
    "team_short_name": "福島",
    "runner_name": "長岡",
    "total_distance_km": 398.0,
    "latitude": 34.909337899939054,
    "longitude": 136.5506204066231,
    "is_shadow_confederation": false
  },
  {
    "rank": 17,
    "team_name": "学連選抜",
    "team_short_name": "学連",
    "runner_name": "上",
    "total_distance_km": 389.1,
    "latitude": 34.95865471791531,
    "longitude": 136.61804193960796,
    "is_shadow_confederation": false
  },
  {
    "rank": 18,
    "team_name": "東北大学",
    "team_short_name": "東北",
    "runner_name": "大館",
    "total_distance_km": 333.9,
    "latitude": 35.01753834819487,
    "longitude": 137.03530323183537,
    "is_shadow_confederation": false
  }
]