[
  {
    "rank": 1,
    "team_name": "日本大学",
    "team_short_name": "日大",
    "runner_name": "古河",
    "total_distance_km": 139.6,
    "latitude": 35.146448982199196,
    "longitude": 138.68591906429458
  },
  {
    "rank": 2,
    "team_name": "上武大学",
    "team_short_name": "上武",
    "runner_name": "越谷",
    "total_distance_km": 139.5,
    "latitude": 35.14633490585771,
    "longitude": 138.68696898493178
  },
  {
    "rank": 3,
    "team_name": "名古屋大学",
    "team_short_name": "名大",
    "runner_name": "美濃",
    "total_distance_km": 138.4,
    "latitude": 35.143856239150104,
    "longitude": 138.69794566046426
  },
  {
    "rank": 4,
    "team_name": "四国大学",
    "team_short_name": "四国",
    "runner_name": "大三島",
    "total_distance_km": 137.6,
    "latitude": 35.14306703539261,
    "longitude": 138.70655193974494
  },
  {
    "rank": 5,
    "team_name": "関西大学",
    "team_short_name": "関大",
    "runner_name": "和田山",
    "total_distance_km": 136.7,
    "latitude": 35.14085115438993,
    "longitude": 138.71591380573184
  },
  {
    "rank": 6,
    "team_name": "熊本学園大学",
    "team_short_name": "熊学",
    "runner_name": "岱明",
    "total_distance_km": 135.5,
    "latitude": 35.138340812991125,
    "longitude": 138.72864615017835
  },
  {
    "rank": 6,
    "team_name": "金沢大学",
    "team_short_name": "金沢",
    "runner_name": "小浜",
    "total_distance_km": 135.5,
    "latitude": 35.138340812991125,
    "longitude": 138.72864615017835
  },
  {
    "rank": 8,
    "team_name": "立命館大学",
    "team_short_name": "立命",
    "runner_name": "福知山",
    "total_distance_km": 135.3,
    "latitude": 35.137804404969884,
    "longitude": 138.7307405682974
  },
  {
    "rank": 9,
    "team_name": "福岡大学",
    "team_short_name": "福岡",
    "runner_name": "福岡",
    "total_distance_km": 134.1,
    "latitude": 35.13569439437694,
    "longitude": 138.74364435429337
  },
  {
    "rank": 10,
    "team_name": "鳥取大学",
    "team_short_name": "鳥取",
    "runner_name": "鳥取",
    "total_distance_km": 132.1,
    "latitude": 35.13108546502045,
    "longitude": 138.76484953839824
  },
  {
    "rank": 11,
    "team_name": "三重大学",
    "team_short_name": "三重",
    "runner_name": "五條",
    "total_distance_km": 131.9,
    "latitude": 35.130708199699285,
    "longitude": 138.76699532434
  },
  {
    "rank": 12,
    "team_name": "福島大学",
    "team_short_name": "福島",
    "runner_name": "石川",
    "total_distance_km": 131.8,
    "latitude": 35.13051280110123,
    "longitude": 138.76806614090688
  },
  {
    "rank": 13,
    "team_name": "広島経済大学",
    "team_short_name": "広経",
    "runner_name": "加計",
    "total_distance_km": 131.4,
    "latitude": 35.12950842379866,
    "longitude": 138.7722810371471
  },
  {
    "rank": 14,
    "team_name": "山梨学院大学",
    "team_short_name": "山学",
    "runner_name": "南信濃",
    "total_distance_km": 130.2,
    "latitude": 35.12604715785371,
    "longitude": 138.7846967426967
  },
  {
    "rank": 15,
    "team_name": "琉球大学",
    "team_short_name": "琉球",
    "runner_name": "北原",
    "total_distance_km": 129.5,
    "latitude": 35.12413327620166,
    "longitude": 138.7920129117934
  },
  {
    "rank": 16,
    "team_name": "鹿児島大学",
    "team_short_name": "鹿大",
    "runner_name": "川内（鹿児島）",
    "total_distance_km": 127.5,
    "latitude": 35.11704984610215,
    "longitude": 138.812123965936
  },
  {
    "rank": 17,
    "team_name": "東北大学",
    "team_short_name": "東北",
    "runner_name": "帯広",
    "total_distance_km": 98.5,
    "latitude": 35.19338548857742,
    "longitude": 139.04906048711675
  },
  {
    "rank": 18,
    "team_name": "学連選抜",
    "team_short_name": "学連",
    "runner_name": "美幌",
    "total_distance_km": 90.9,
    "latitude": 35.22641435925821,
    "longitude": 139.0939912151916
  }
]