[
  {
    "rank": 1,
    "team_name": "琉球大学",
    "team_short_name": "琉球",
    "runner_name": "波照間",
    "total_distance_km": 502.0,
    "latitude": 34.898222325399956,
    "longitude": 135.74399340321636,
    "is_shadow_confederation": false
  },
  {
    "rank": 2,
    "team_name": "熊本学園大学",
    "team_short_name": "熊学",
    "runner_name": "熊本",
    "total_distance_km": 449.7,
    "latitude": 34.98727193149172,
    "longitude": 136.10954927407576,
    "is_shadow_confederation": false
  },
  {
    "rank": 3,
    "team_name": "鹿児島大学",
    "team_short_name": "鹿大",
    "runner_name": "西都",
    "total_distance_km": 435.7,
    "latitude": 34.94318006878893,
    "longitude": 136.2469908650679,
    "is_shadow_confederation": false
  },
  {
    "rank": 4,
    "team_name": "福岡大学",
    "team_short_name": "福岡",
    "runner_name": "前原",
    "total_distance_km": 422.5,
    "latitude": 34.887070483420956,
    "longitude": 136.35424872375847,
    "is_shadow_confederation": false
  },
  {
    "rank": 5,
    "team_name": "四国大学",
    "team_short_name": "四国",
    "runner_name": "松山",
    "total_distance_km": 409.8,
    "latitude": 34.85085209163031,
    "longitude": 136.4594918797959,
    "is_shadow_confederation": false
  },
  {
    "rank": 6,
    "team_name": "広島経済大学",
    "team_short_name": "広経",
    "runner_name": "大竹",
    "total_distance_km": 396.9,
    "latitude": 34.91472425151414,
    "longitude": 136.55967648553562,
    "is_shadow_confederation": false
  },
  {
    "rank": 7,
    "team_name": "鳥取大学",
    "team_short_name": "鳥取",
    "runner_name": "防府",
    "total_distance_km": 382.3,
    "latitude": 35.008433037666144,
    "longitude": 136.6549195939764,
    "is_shadow_confederation": false
  },
  {
    "rank": 8,
    "team_name": "名古屋大学",
    "team_short_name": "名大",
    "runner_name": "愛西",
    "total_distance_km": 379.3,
    "latitude": 35.030406776088945,
    "longitude": 136.67177128820634,
    "is_shadow_confederation": false
  },
  {
    "rank": 9,
    "team_name": "関西大学",
    "team_short_name": "関大",
    "runner_name": "柏原",
    "total_distance_km": 378.3,
    "latitude": 35.03941656828979,
    "longitude": 136.6720975017471,
    "is_shadow_confederation": false
  },
  {
    "rank": 10,
    "team_name": "立命館大学",
    "team_short_name": "立命",
    "runner_name": "米原",
    "total_distance_km": 371.0,
    "latitude": 35.094855140689866,
    "longitude": 136.70309566801643,
    "is_shadow_confederation": false
  },
  {
    "rank": 11,
    "team_name": "三重大学",
    "team_short_name": "三重",
    "runner_name": "風屋",
    "total_distance_km": 368.5,
    "latitude": 35.10998937616496,
    "longitude": 136.72164843490387,
    "is_shadow_confederation": false
  },
  {
    "rank": 12,
    "team_name": "金沢大学",
    "team_short_name": "金沢",
    "runner_name": "志賀",
    "total_distance_km": 350.7,
    "latitude": 35.11976691963004,
    "longitude": 136.9120337024208,
    "is_shadow_confederation": false
  },
  {
    "rank": 13,
    "team_name": "日本大学",
    "team_short_name": "日大",
    "runner_name": "小田原",
    "total_distance_km": 348.0,
    "latitude": 35.10085096448202,
    "longitude": 136.92571041329958,
    "is_shadow_confederation": false
  },
  {
    "rank": 14,
    "team_name": "上武大学",
    "team_short_name": "上武",
    "runner_name": "寄居",
    "total_distance_km": 347.5,
    "latitude": 35.096737785358485,
    "longitude": 136.92795173138003,
    "is_shadow_confederation": false
  },
  {
    "rank": 15,
    "team_name": "山梨学院大学",
    "team_short_name": "山学",
    "runner_name": "大月",
    "total_distance_km": 325.3,
    "latitude": 34.976682070044845,
    "longitude": 137.1140300589318,
    "is_shadow_confederation": false
  },
  {
    "rank": 16,
    "team_name": "福島大学",
    "team_short_name": "福島",
    "runner_name": "津川",
    "total_distance_km": 306.1,
    "latitude": 34.8777745482176,
    "longitude": 137.27392389025866,
    "is_shadow_confederation": false
  },
  {
    "rank": 17,
    "team_name": "学連選抜",
    "team_short_name": "学連",
    "runner_name": "大村",
    "total_distance_km": 272.8,
    "latitude": 34.679294700584215,
    "longitude": 137.51329720602288,
    "is_shadow_confederation": false
  },
  {
    "rank": 18,
    "team_name": "東北大学",
    "team_short_name": "東北",
    "runner_name": "高畠",
    "total_distance_km": 255.2,
    "latitude": 34.688476605138725,
    "longitude": 137.69663937181522,
    "is_shadow_confederation": false
  }
]