[
  {
    "rank": 1,
    "team_name": "名古屋大学",
    "team_short_name": "名大",
    "runner_name": "多治見",
    "total_distance_km": 434.1,
    "latitude": 34.938421214855204,
    "longitude": 136.26327644146807,
    "is_shadow_confederation": false
  },
  {
    "rank": 2,
    "team_name": "福岡大学",
    "team_short_name": "福岡",
    "runner_name": "前原",
    "total_distance_km": 429.5,
    "latitude": 34.9225998457637,
    "longitude": 136.3072328576477,
    "is_shadow_confederation": false
  },
  {
    "rank": 3,
    "team_name": "熊本学園大学",
    "team_short_name": "熊学",
    "runner_name": "熊本",
    "total_distance_km": 429.0,
    "latitude": 34.91986269363779,
    "longitude": 136.3112374139336,
    "is_shadow_confederation": false
  },
  {
    "rank": 4,
    "team_name": "琉球大学",
    "team_short_name": "琉球",
    "runner_name": "波照間",
    "total_distance_km": 428.8,
    "latitude": 34.919343757702954,
    "longitude": 136.31333350810178,
    "is_shadow_confederation": false
  },
  {
    "rank": 5,
    "team_name": "四国大学",
    "team_short_name": "四国",
    "runner_name": "大洲",
    "total_distance_km": 428.7,
    "latitude": 34.91894823137184,
    "longitude": 136.3143161218101,
    "is_shadow_confederation": false
  },
  {
    "rank": 6,
    "team_name": "立命館大学",
    "team_short_name": "立命",
    "runner_name": "舞鶴",
    "total_distance_km": 427.0,
    "latitude": 34.9085167300712,
    "longitude": 136.32714822482677,
    "is_shadow_confederation": false
  },
  {
    "rank": 7,
    "team_name": "関西大学",
    "team_short_name": "関大",
    "runner_name": "柏原",
    "total_distance_km": 423.9,
    "latitude": 34.89010044875799,
    "longitude": 136.34007621179148,
    "is_shadow_confederation": false
  },
  {
    "rank": 8,
    "team_name": "広島経済大学",
    "team_short_name": "広経",
    "runner_name": "大竹",
    "total_distance_km": 423.6,
    "latitude": 34.889603535832876,
    "longitude": 136.34325606272472,
    "is_shadow_confederation": false
  },
  {
    "rank": 9,
    "team_name": "鳥取大学",
    "team_short_name": "鳥取",
    "runner_name": "防府",
    "total_distance_km": 422.6,
    "latitude": 34.88775913542932,
    "longitude": 136.35354288036496,
    "is_shadow_confederation": false
  },
  {
    "rank": 10,
    "team_name": "日本大学",
    "team_short_name": "日大",
    "runner_name": "小田原",
    "total_distance_km": 421.4,
    "latitude": 34.878568075487514,
    "longitude": 136.35996987613854,
    "is_shadow_confederation": false
  },
  {
    "rank": 11,
    "team_name": "山梨学院大学",
    "team_short_name": "山学",
    "runner_name": "浜松",
    "total_distance_km": 418.6,
    "latitude": 34.86122874856204,
    "longitude": 136.3738085451351,
    "is_shadow_confederation": false
  },
  {
    "rank": 12,
    "team_name": "三重大学",
    "team_short_name": "三重",
    "runner_name": "風屋",
    "total_distance_km": 417.2,
    "latitude": 34.85490137322369,
    "longitude": 136.3852248653949,
    "is_shadow_confederation": false
  },
  {
    "rank": 13,
    "team_name": "上武大学",
    "team_short_name": "上武",
    "runner_name": "寄居",
    "total_distance_km": 415.0,
    "latitude": 34.85210597625081,
    "longitude": 136.40747161560387,
    "is_shadow_confederation": false
  },
  {
    "rank": 14,
    "team_name": "鹿児島大学",
    "team_short_name": "鹿大",
    "runner_name": "西米良",
    "total_distance_km": 410.4,
    "latitude": 34.852575533241925,
    "longitude": 136.45333326319505,
    "is_shadow_confederation": false
  },
  {
    "rank": 15,
    "team_name": "金沢大学",
    "team_short_name": "金沢",
    "runner_name": "志賀",
    "total_distance_km": 407.8,
    "latitude": 34.8560658881762,
    "longitude": 136.4796847568999,
    "is_shadow_confederation": false
  },
  {
    "rank": 16,
    "team_name": "福島大学",
    "team_short_name": "福島",
    "runner_name": "長岡",
    "total_distance_km": 400.2,
    "latitude": 34.89148289940073,
    "longitude": 136.54229373312558,
    "is_shadow_confederation": false
  },
  {
    "rank": 17,
    "team_name": "学連選抜",
    "team_short_name": "学連",
    "runner_name": "上",
    "total_distance_km": 368.9,
    "latitude": 35.10790508304854,
    "longitude": 136.71806846326754,
    "is_shadow_confederation": false
  },
  {
    "rank": 18,
    "team_name": "東北大学",
    "team_short_name": "東北",
    "runner_name": "大館",
    "total_distance_km": 360.4,
    "latitude": 35.12606300151453,
    "longitude": 136.80780212692432,
    "is_shadow_confederation": false
  },
  {
    "rank": null,
    "team_name": "区間記録連合",
    "team_short_name": "区間記録",
    "runner_name": "桐生",
    "total_distance_km": 450.0,
    "latitude": 34.98901130046927,
    "longitude": 136.1070333089734,
    "is_shadow_confederation": true
  }
]