[
  {
    "rank": 1,
    "team_name": "琉球大学",
    "team_short_name": "琉球",
    "runner_name": "那覇",
    "total_distance_km": 747.8,
    "latitude": 34.49961115438794,
    "longitude": 133.53415771762022,
    "is_shadow_confederation": false
  },
  {
    "rank": 2,
    "team_name": "熊本学園大学",
    "team_short_name": "熊学",
    "runner_name": "犬飼",
    "total_distance_km": 695.0,
    "latitude": 34.700253025798084,
    "longitude": 134.02490766701098,
    "is_shadow_confederation": false
  },
  {
    "rank": 3,
    "team_name": "福岡大学",
    "team_short_name": "福岡",
    "runner_name": "口之津",
    "total_distance_km": 682.8,
    "latitude": 34.7356331814573,
    "longitude": 134.14306042838547,
    "is_shadow_confederation": false
  },
  {
    "rank": 4,
    "team_name": "鹿児島大学",
    "team_short_name": "鹿大",
    "runner_name": "鹿児島",
    "total_distance_km": 679.3,
    "latitude": 34.744079382771496,
    "longitude": 134.17968326036748,
    "is_shadow_confederation": false
  },
  {
    "rank": 5,
    "team_name": "名古屋大学",
    "team_short_name": "名大",
    "runner_name": "名古屋",
    "total_distance_km": 677.9,
    "latitude": 34.74810013056674,
    "longitude": 134.19414979638054,
    "is_shadow_confederation": false
  },
  {
    "rank": 6,
    "team_name": "関西大学",
    "team_short_name": "関大",
    "runner_name": "八尾（大阪）",
    "total_distance_km": 675.7,
    "latitude": 34.757514161260524,
    "longitude": 134.21517992764458,
    "is_shadow_confederation": false
  },
  {
    "rank": 7,
    "team_name": "立命館大学",
    "team_short_name": "立命",
    "runner_name": "長浜（滋賀）",
    "total_distance_km": 670.7,
    "latitude": 34.784381592618196,
    "longitude": 134.25660728124004,
    "is_shadow_confederation": false
  },
  {
    "rank": 8,
    "team_name": "四国大学",
    "team_short_name": "四国",
    "runner_name": "新居浜",
    "total_distance_km": 670.0,
    "latitude": 34.78909325632914,
    "longitude": 134.26168166699526,
    "is_shadow_confederation": false
  },
  {
    "rank": 9,
    "team_name": "鳥取大学",
    "team_short_name": "鳥取",
    "runner_name": "米子",
    "total_distance_km": 668.9,
    "latitude": 34.79681036903558,
    "longitude": 134.26724290358695,
    "is_shadow_confederation": false
  },
  {
    "rank": 10,
    "team_name": "広島経済大学",
    "team_short_name": "広経",
    "runner_name": "福山",
    "total_distance_km": 668.5,
    "latitude": 34.79927900281843,
    "longitude": 134.27042884122304,
    "is_shadow_confederation": false
  },
  {
    "rank": 11,
    "team_name": "山梨学院大学",
    "team_short_name": "山学",
    "runner_name": "静岡",
    "total_distance_km": 659.4,
    "latitude": 34.839194529023516,
    "longitude": 134.34055181244904,
    "is_shadow_confederation": false
  },
  {
    "rank": 12,
    "team_name": "上武大学",
    "team_short_name": "上武",
    "runner_name": "伊勢崎",
    "total_distance_km": 658.6,
    "latitude": 34.83504458526409,
    "longitude": 134.3476640085506,
    "is_shadow_confederation": false
  },
  {
    "rank": 13,
    "team_name": "三重大学",
    "team_short_name": "三重",
    "runner_name": "新宮",
    "total_distance_km": 656.2,
    "latitude": 34.8253335588588,
    "longitude": 134.3707722209921,
    "is_shadow_confederation": false
  },
  {
    "rank": 14,
    "team_name": "金沢大学",
    "team_short_name": "金沢",
    "runner_name": "富山",
    "total_distance_km": 650.6,
    "latitude": 34.832958412602586,
    "longitude": 134.42992426386476,
    "is_shadow_confederation": false
  },
  {
    "rank": 15,
    "team_name": "日本大学",
    "team_short_name": "日大",
    "runner_name": "八王子",
    "total_distance_km": 626.7,
    "latitude": 34.839662517788234,
    "longitude": 134.66608151476655,
    "is_shadow_confederation": false
  },
  {
    "rank": 16,
    "team_name": "学連選抜",
    "team_short_name": "学連",
    "runner_name": "多度津",
    "total_distance_km": 602.7,
    "latitude": 34.729456613966455,
    "longitude": 134.88096095501493,
    "is_shadow_confederation": false
  },
  {
    "rank": 17,
    "team_name": "福島大学",
    "team_short_name": "福島",
    "runner_name": "浪江",
    "total_distance_km": 594.0,
    "latitude": 34.67658354630622,
    "longitude": 134.94896962338743,
    "is_shadow_confederation": false
  },
  {
    "rank": 18,
    "team_name": "東北大学",
    "team_short_name": "東北",
    "runner_name": "丸森",
    "total_distance_km": 584.5,
    "latitude": 34.63342297492763,
    "longitude": 135.03243593246253,
    "is_shadow_confederation": false
  }
]