[
  {
    "rank": 1,
    "team_name": "琉球大学",
    "team_short_name": "琉球",
    "runner_name": "波照間",
    "total_distance_km": 449.3,
    "latitude": 34.985514393557864,
    "longitude": 136.11335595490897,
    "is_shadow_confederation": false
  },
  {
    "rank": 2,
    "team_name": "熊本学園大学",
    "team_short_name": "熊学",
    "runner_name": "熊本",
    "total_distance_km": 442.9,
    "latitude": 34.97042052665789,
    "longitude": 136.17747614288982,
    "is_shadow_confederation": false
  },
  {
    "rank": 3,
    "team_name": "福岡大学",
    "team_short_name": "福岡",
    "runner_name": "前原",
    "total_distance_km": 432.2,
    "latitude": 34.93658670291525,
    "longitude": 136.28356233241325,
    "is_shadow_confederation": false
  },
  {
    "rank": 4,
    "team_name": "立命館大学",
    "team_short_name": "立命",
    "runner_name": "舞鶴",
    "total_distance_km": 425.2,
    "latitude": 34.89565382129152,
    "longitude": 136.3368125246899,
    "is_shadow_confederation": false
  },
  {
    "rank": 5,
    "team_name": "関西大学",
    "team_short_name": "関大",
    "runner_name": "柏原",
    "total_distance_km": 419.3,
    "latitude": 34.867143420227656,
    "longitude": 136.37245407251174,
    "is_shadow_confederation": false
  },
  {
    "rank": 6,
    "team_name": "四国大学",
    "team_short_name": "四国",
    "runner_name": "松山",
    "total_distance_km": 417.2,
    "latitude": 34.85490137322369,
    "longitude": 136.3852248653949,
    "is_shadow_confederation": false
  },
  {
    "rank": 7,
    "team_name": "名古屋大学",
    "team_short_name": "名大",
    "runner_name": "愛西",
    "total_distance_km": 415.9,
    "latitude": 34.85190180018477,
    "longitude": 136.39871929437322,
    "is_shadow_confederation": false
  },
  {
    "rank": 8,
    "team_name": "広島経済大学",
    "team_short_name": "広経",
    "runner_name": "大竹",
    "total_distance_km": 415.1,
    "latitude": 34.85182461648117,
    "longitude": 136.40659449345085,
    "is_shadow_confederation": false
  },
  {
    "rank": 9,
    "team_name": "鹿児島大学",
    "team_short_name": "鹿大",
    "runner_name": "西米良",
    "total_distance_km": 414.5,
    "latitude": 34.854159522105725,
    "longitude": 136.41207214677237,
    "is_shadow_confederation": false
  },
  {
    "rank": 10,
    "team_name": "上武大学",
    "team_short_name": "上武",
    "runner_name": "寄居",
    "total_distance_km": 412.2,
    "latitude": 34.8563705216526,
    "longitude": 136.4357353848844,
    "is_shadow_confederation": false
  },
  {
    "rank": 11,
    "team_name": "鳥取大学",
    "team_short_name": "鳥取",
    "runner_name": "防府",
    "total_distance_km": 412.1,
    "latitude": 34.856334577746765,
    "longitude": 136.43681907403325,
    "is_shadow_confederation": false
  },
  {
    "rank": 12,
    "team_name": "三重大学",
    "team_short_name": "三重",
    "runner_name": "風屋",
    "total_distance_km": 406.8,
    "latitude": 34.86270060423331,
    "longitude": 136.48660700358272,
    "is_shadow_confederation": false
  },
  {
    "rank": 13,
    "team_name": "山梨学院大学",
    "team_short_name": "山学",
    "runner_name": "浜松",
    "total_distance_km": 406.3,
    "latitude": 34.86648563361647,
    "longitude": 136.48950685124245,
    "is_shadow_confederation": false
  },
  {
    "rank": 14,
    "team_name": "金沢大学",
    "team_short_name": "金沢",
    "runner_name": "志賀",
    "total_distance_km": 404.9,
    "latitude": 34.87630459248766,
    "longitude": 136.49830505364088,
    "is_shadow_confederation": false
  },
  {
    "rank": 15,
    "team_name": "日本大学",
    "team_short_name": "日大",
    "runner_name": "小田原",
    "total_distance_km": 403.0,
    "latitude": 34.878478417794604,
    "longitude": 136.51857004330725,
    "is_shadow_confederation": false
  },
  {
    "rank": 16,
    "team_name": "福島大学",
    "team_short_name": "福島",
    "runner_name": "長岡",
    "total_distance_km": 383.1,
    "latitude": 35.002079744117665,
    "longitude": 136.65395154540195,
    "is_shadow_confederation": false
  },
  {
    "rank": 17,
    "team_name": "東北大学",
    "team_short_name": "東北",
    "runner_name": "大館",
    "total_distance_km": 365.2,
    "latitude": 35.11881511757697,
    "longitude": 136.75608624810727,
    "is_shadow_confederation": false
  },
  {
    "rank": 18,
    "team_name": "学連選抜",
    "team_short_name": "学連",
    "runner_name": "上",
    "total_distance_km": 352.7,
    "latitude": 35.12390342460385,
    "longitude": 136.89151280400569,
    "is_shadow_confederation": false
  }
]