[
  {
    "rank": 1,
    "team_name": "琉球大学",
    "team_short_name": "琉球",
    "runner_name": "西表島",
    "total_distance_km": 859.7,
    "latitude": 34.36924605347864,
    "longitude": 132.5293597063822,
    "is_shadow_confederation": false
  },
  {
    "rank": 2,
    "team_name": "福岡大学",
    "team_short_name": "福岡",
    "runner_name": "大牟田",
    "total_distance_km": 842.2,
    "latitude": 34.44748155185625,
    "longitude": 132.66302531095226,
    "is_shadow_confederation": false
  },
  {
    "rank": 3,
    "team_name": "名古屋大学",
    "team_short_name": "名大",
    "runner_name": "大府",
    "total_distance_km": 840.1,
    "latitude": 34.4410581489223,
    "longitude": 132.68393617537546,
    "is_shadow_confederation": false
  },
  {
    "rank": 4,
    "team_name": "鹿児島大学",
    "team_short_name": "鹿大",
    "runner_name": "さつま柏原",
    "total_distance_km": 834.6,
    "latitude": 34.41519932491523,
    "longitude": 132.73408992810627,
    "is_shadow_confederation": false
  },
  {
    "rank": 5,
    "team_name": "熊本学園大学",
    "team_short_name": "熊学",
    "runner_name": "三角",
    "total_distance_km": 833.7,
    "latitude": 34.41018397196467,
    "longitude": 132.7417843501437,
    "is_shadow_confederation": false
  },
  {
    "rank": 6,
    "team_name": "四国大学",
    "team_short_name": "四国",
    "runner_name": "江川崎",
    "total_distance_km": 832.9,
    "latitude": 34.40572588045307,
    "longitude": 132.74862383639916,
    "is_shadow_confederation": false
  },
  {
    "rank": 7,
    "team_name": "関西大学",
    "team_short_name": "関大",
    "runner_name": "郡家",
    "total_distance_km": 831.0,
    "latitude": 34.39775331899328,
    "longitude": 132.7660290441253,
    "is_shadow_confederation": false
  },
  {
    "rank": 8,
    "team_name": "広島経済大学",
    "team_short_name": "広経",
    "runner_name": "引田",
    "total_distance_km": 824.7,
    "latitude": 34.40675024167532,
    "longitude": 132.82954369179254,
    "is_shadow_confederation": false
  },
  {
    "rank": 9,
    "team_name": "立命館大学",
    "team_short_name": "立命",
    "runner_name": "京都",
    "total_distance_km": 819.3,
    "latitude": 34.39568140673807,
    "longitude": 132.88394002427015,
    "is_shadow_confederation": false
  },
  {
    "rank": 10,
    "team_name": "三重大学",
    "team_short_name": "三重",
    "runner_name": "和歌山",
    "total_distance_km": 814.5,
    "latitude": 34.39681074397547,
    "longitude": 132.92625957242458,
    "is_shadow_confederation": false
  },
  {
    "rank": 11,
    "team_name": "日本大学",
    "team_short_name": "日大",
    "runner_name": "府中（東京）",
    "total_distance_km": 812.2,
    "latitude": 34.39501301163758,
    "longitude": 132.94487016512144,
    "is_shadow_confederation": false
  },
  {
    "rank": 12,
    "team_name": "山梨学院大学",
    "team_short_name": "山学",
    "runner_name": "上田",
    "total_distance_km": 812.1,
    "latitude": 34.39557829500589,
    "longitude": 132.9457172812395,
    "is_shadow_confederation": false
  },
  {
    "rank": 13,
    "team_name": "鳥取大学",
    "team_short_name": "鳥取",
    "runner_name": "玖珂",
    "total_distance_km": 807.9,
    "latitude": 34.40600897279863,
    "longitude": 132.98527048895298,
    "is_shadow_confederation": false
  },
  {
    "rank": 14,
    "team_name": "上武大学",
    "team_short_name": "上武",
    "runner_name": "前橋",
    "total_distance_km": 799.2,
    "latitude": 34.393984358635684,
    "longitude": 133.06807742444366,
    "is_shadow_confederation": false
  },
  {
    "rank": 15,
    "team_name": "金沢大学",
    "team_short_name": "金沢",
    "runner_name": "小松",
    "total_distance_km": 790.1,
    "latitude": 34.394309971677615,
    "longitude": 133.15192898494539,
    "is_shadow_confederation": false
  },
  {
    "rank": 16,
    "team_name": "学連選抜",
    "team_short_name": "学連",
    "runner_name": "飯塚",
    "total_distance_km": 775.7,
    "latitude": 34.45383638145076,
    "longitude": 133.26106181063162,
    "is_shadow_confederation": false
  },
  {
    "rank": 17,
    "team_name": "福島大学",
    "team_short_name": "福島",
    "runner_name": "喜多方",
    "total_distance_km": 769.1,
    "latitude": 34.48086459851887,
    "longitude": 133.32266846177347,
    "is_shadow_confederation": false
  },
  {
    "rank": 18,
    "team_name": "東北大学",
    "team_short_name": "東北",
    "runner_name": "秋田",
    "total_distance_km": 710.9,
    "latitude": 34.647393315898015,
    "longitude": 133.8726818829562,
    "is_shadow_confederation": false
  },
  {
    "rank": null,
    "team_name": "区間記録連合",
    "team_short_name": "区間記録",
    "runner_name": "西脇",
    "total_distance_km": 859.7,
    "latitude": 34.36924605347864,
    "longitude": 132.5293597063822,
    "is_shadow_confederation": true
  }
]