[
  {
    "rank": 1,
    "team_name": "琉球大学",
    "team_short_name": "琉球",
    "runner_name": "名護",
    "total_distance_km": 364.0,
    "latitude": 35.12175109194764,
    "longitude": 136.76875647443592,
    "is_shadow_confederation": false
  },
  {
    "rank": 2,
    "team_name": "熊本学園大学",
    "team_short_name": "熊学",
    "runner_name": "人吉",
    "total_distance_km": 333.2,
    "latitude": 35.01358807769586,
    "longitude": 137.04119162840948,
    "is_shadow_confederation": false
  },
  {
    "rank": 3,
    "team_name": "鹿児島大学",
    "team_short_name": "鹿大",
    "runner_name": "加久藤",
    "total_distance_km": 320.5,
    "latitude": 34.95799669194763,
    "longitude": 137.16007237541444,
    "is_shadow_confederation": false
  },
  {
    "rank": 4,
    "team_name": "福岡大学",
    "team_short_name": "福岡",
    "runner_name": "黒木",
    "total_distance_km": 316.9,
    "latitude": 34.94122649538846,
    "longitude": 137.1924348841376,
    "is_shadow_confederation": false
  },
  {
    "rank": 5,
    "team_name": "四国大学",
    "team_short_name": "四国",
    "runner_name": "御荘",
    "total_distance_km": 301.5,
    "latitude": 34.85393672127573,
    "longitude": 137.31436388517866,
    "is_shadow_confederation": false
  },
  {
    "rank": 6,
    "team_name": "広島経済大学",
    "team_short_name": "広経",
    "runner_name": "府中（広島）",
    "total_distance_km": 291.5,
    "latitude": 34.78329645602855,
    "longitude": 137.38056172023133,
    "is_shadow_confederation": false
  },
  {
    "rank": 7,
    "team_name": "鳥取大学",
    "team_short_name": "鳥取",
    "runner_name": "広瀬",
    "total_distance_km": 280.8,
    "latitude": 34.720379330477016,
    "longitude": 137.45351406002683,
    "is_shadow_confederation": false
  },
  {
    "rank": 8,
    "team_name": "関西大学",
    "team_short_name": "関大",
    "runner_name": "上郡",
    "total_distance_km": 279.2,
    "latitude": 34.71515965190887,
    "longitude": 137.46885138154295,
    "is_shadow_confederation": false
  },
  {
    "rank": 9,
    "team_name": "名古屋大学",
    "team_short_name": "名大",
    "runner_name": "大垣",
    "total_distance_km": 275.4,
    "latitude": 34.692420415998384,
    "longitude": 137.49747043440667,
    "is_shadow_confederation": false
  },
  {
    "rank": 10,
    "team_name": "立命館大学",
    "team_short_name": "立命",
    "runner_name": "京田辺",
    "total_distance_km": 275.2,
    "latitude": 34.69088182583752,
    "longitude": 137.4984656620009,
    "is_shadow_confederation": false
  },
  {
    "rank": 11,
    "team_name": "三重大学",
    "team_short_name": "三重",
    "runner_name": "小俣",
    "total_distance_km": 273.7,
    "latitude": 34.6823606411791,
    "longitude": 137.5080085198284,
    "is_shadow_confederation": false
  },
  {
    "rank": 12,
    "team_name": "金沢大学",
    "team_short_name": "金沢",
    "runner_name": "七尾",
    "total_distance_km": 261.3,
    "latitude": 34.68367825872377,
    "longitude": 137.63080222237096,
    "is_shadow_confederation": false
  },
  {
    "rank": 13,
    "team_name": "上武大学",
    "team_short_name": "上武",
    "runner_name": "熊谷",
    "total_distance_km": 254.1,
    "latitude": 34.68823746089952,
    "longitude": 137.7086277494295,
    "is_shadow_confederation": false
  },
  {
    "rank": 14,
    "team_name": "日本大学",
    "team_short_name": "日大",
    "runner_name": "下館",
    "total_distance_km": 251.3,
    "latitude": 34.70431130472204,
    "longitude": 137.7285788060208,
    "is_shadow_confederation": false
  },
  {
    "rank": 15,
    "team_name": "山梨学院大学",
    "team_short_name": "山学",
    "runner_name": "大月",
    "total_distance_km": 237.0,
    "latitude": 34.72819171631822,
    "longitude": 137.8681109520492,
    "is_shadow_confederation": false
  },
  {
    "rank": 16,
    "team_name": "福島大学",
    "team_short_name": "福島",
    "runner_name": "津川",
    "total_distance_km": 225.6,
    "latitude": 34.77006597374692,
    "longitude": 137.9779027919168,
    "is_shadow_confederation": false
  },
  {
    "rank": 17,
    "team_name": "東北大学",
    "team_short_name": "東北",
    "runner_name": "山形（山形）",
    "total_distance_km": 181.6,
    "latitude": 34.95041122086566,
    "longitude": 138.33964581437078,
    "is_shadow_confederation": false
  },
  {
    "rank": 18,
    "team_name": "学連選抜",
    "team_short_name": "学連",
    "runner_name": "新潟",
    "total_distance_km": 175.5,
    "latitude": 34.97460285388112,
    "longitude": 138.3927598391275,
    "is_shadow_confederation": false
  }
]