[
  {
    "rank": 1,
    "team_name": "四国大学",
    "team_short_name": "四国",
    "runner_name": "穴吹",
    "total_distance_km": 104.3,
    "latitude": 35.17186005659459,
    "longitude": 139.00797511018357
  },
  {
    "rank": 2,
    "team_name": "上武大学",
    "team_short_name": "上武",
    "runner_name": "佐野",
    "total_distance_km": 102.7,
    "latitude": 35.179707664593174,
    "longitude": 139.01367189843702
  },
  {
    "rank": 3,
    "team_name": "関西大学",
    "team_short_name": "関大",
    "runner_name": "福崎",
    "total_distance_km": 102.4,
    "latitude": 35.1823897290314,
    "longitude": 139.0140912216256
  },
  {
    "rank": 4,
    "team_name": "名古屋大学",
    "team_short_name": "名大",
    "runner_name": "美濃加茂",
    "total_distance_km": 102.3,
    "latitude": 35.18328375051081,
    "longitude": 139.01423099602175
  },
  {
    "rank": 5,
    "team_name": "立命館大学",
    "team_short_name": "立命",
    "runner_name": "東近江",
    "total_distance_km": 102.2,
    "latitude": 35.18391295751563,
    "longitude": 139.0148896668244
  },
  {
    "rank": 6,
    "team_name": "金沢大学",
    "team_short_name": "金沢",
    "runner_name": "秋ヶ島",
    "total_distance_km": 101.4,
    "latitude": 35.18469717936242,
    "longitude": 139.0233675458158
  },
  {
    "rank": 7,
    "team_name": "日本大学",
    "team_short_name": "日大",
    "runner_name": "大子",
    "total_distance_km": 100.4,
    "latitude": 35.185250712297005,
    "longitude": 139.0320893507078
  },
  {
    "rank": 8,
    "team_name": "福島大学",
    "team_short_name": "福島",
    "runner_name": "梁川",
    "total_distance_km": 99.2,
    "latitude": 35.189391653816884,
    "longitude": 139.04386440116514
  },
  {
    "rank": 9,
    "team_name": "三重大学",
    "team_short_name": "三重",
    "runner_name": "粥見",
    "total_distance_km": 98.7,
    "latitude": 35.19203207465343,
    "longitude": 139.0476224480491
  },
  {
    "rank": 10,
    "team_name": "熊本学園大学",
    "team_short_name": "熊学",
    "runner_name": "甲佐",
    "total_distance_km": 98.1,
    "latitude": 35.19584097204872,
    "longitude": 139.0522372812557
  },
  {
    "rank": 11,
    "team_name": "山梨学院大学",
    "team_short_name": "山学",
    "runner_name": "長野",
    "total_distance_km": 97.5,
    "latitude": 35.20102030940545,
    "longitude": 139.0539321472523
  },
  {
    "rank": 12,
    "team_name": "琉球大学",
    "team_short_name": "琉球",
    "runner_name": "北原",
    "total_distance_km": 96.4,
    "latitude": 35.20969367680057,
    "longitude": 139.05879981597806
  },
  {
    "rank": 12,
    "team_name": "福岡大学",
    "team_short_name": "福岡",
    "runner_name": "久留米",
    "total_distance_km": 96.4,
    "latitude": 35.20969367680057,
    "longitude": 139.05879981597806
  },
  {
    "rank": 14,
    "team_name": "広島経済大学",
    "team_short_name": "広経",
    "runner_name": "三次",
    "total_distance_km": 95.6,
    "latitude": 35.21227436784104,
    "longitude": 139.0607220347944
  },
  {
    "rank": 15,
    "team_name": "鹿児島大学",
    "team_short_name": "鹿大",
    "runner_name": "東市来",
    "total_distance_km": 93.5,
    "latitude": 35.21604959831955,
    "longitude": 139.07055237498145
  },
  {
    "rank": 16,
    "team_name": "鳥取大学",
    "team_short_name": "鳥取",
    "runner_name": "川本",
    "total_distance_km": 90.9,
    "latitude": 35.22641435925821,
    "longitude": 139.0939912151916
  },
  {
    "rank": 17,
    "team_name": "東北大学",
    "team_short_name": "東北",
    "runner_name": "帯広",
    "total_distance_km": 70.4,
    "latitude": 35.30416709837025,
    "longitude": 139.28670603943002
  },
  {
    "rank": 18,
    "team_name": "学連選抜",
    "team_short_name": "学連",
    "runner_name": "美幌",
    "total_distance_km": 66.8,
    "latitude": 35.31127917276049,
    "longitude": 139.32227399559505
  }
]