[
  {
    "rank": 1,
    "team_name": "琉球大学",
    "team_short_name": "琉球",
    "runner_name": "波照間",
    "total_distance_km": 484.1,
    "latitude": 34.9973173327665,
    "longitude": 135.79885610833966,
    "is_shadow_confederation": false
  },
  {
    "rank": 2,
    "team_name": "鹿児島大学",
    "team_short_name": "鹿大",
    "runner_name": "西米良",
    "total_distance_km": 373.1,
    "latitude": 35.08063006251559,
    "longitude": 136.6903740062639,
    "is_shadow_confederation": false
  },
  {
    "rank": 3,
    "team_name": "熊本学園大学",
    "team_short_name": "熊学",
    "runner_name": "人吉",
    "total_distance_km": 365.2,
    "latitude": 35.11881511757697,
    "longitude": 136.75608624810727,
    "is_shadow_confederation": false
  },
  {
    "rank": 4,
    "team_name": "福岡大学",
    "team_short_name": "福岡",
    "runner_name": "朝倉",
    "total_distance_km": 345.6,
    "latitude": 35.08212725211472,
    "longitude": 136.9381246628778,
    "is_shadow_confederation": false
  },
  {
    "rank": 5,
    "team_name": "名古屋大学",
    "team_short_name": "名大",
    "runner_name": "大垣",
    "total_distance_km": 317.6,
    "latitude": 34.946356715299714,
    "longitude": 137.18807036835216,
    "is_shadow_confederation": false
  },
  {
    "rank": 6,
    "team_name": "四国大学",
    "team_short_name": "四国",
    "runner_name": "御荘",
    "total_distance_km": 314.2,
    "latitude": 34.92047726782234,
    "longitude": 137.2066763006821,
    "is_shadow_confederation": false
  },
  {
    "rank": 7,
    "team_name": "上武大学",
    "team_short_name": "上武",
    "runner_name": "熊谷",
    "total_distance_km": 304.7,
    "latitude": 34.87088655126977,
    "longitude": 137.28675320403153,
    "is_shadow_confederation": false
  },
  {
    "rank": 8,
    "team_name": "日本大学",
    "team_short_name": "日大",
    "runner_name": "下館",
    "total_distance_km": 303.3,
    "latitude": 34.86484867054493,
    "longitude": 137.30019295826284,
    "is_shadow_confederation": false
  },
  {
    "rank": 9,
    "team_name": "三重大学",
    "team_short_name": "三重",
    "runner_name": "小俣",
    "total_distance_km": 301.4,
    "latitude": 34.853251471949264,
    "longitude": 137.31507434096602,
    "is_shadow_confederation": false
  },
  {
    "rank": 10,
    "team_name": "広島経済大学",
    "team_short_name": "広経",
    "runner_name": "府中（広島）",
    "total_distance_km": 298.4,
    "latitude": 34.8303630106353,
    "longitude": 137.3321167776194,
    "is_shadow_confederation": false
  },
  {
    "rank": 11,
    "team_name": "鳥取大学",
    "team_short_name": "鳥取",
    "runner_name": "広瀬",
    "total_distance_km": 293.7,
    "latitude": 34.798923770459076,
    "longitude": 137.36577255776987,
    "is_shadow_confederation": false
  },
  {
    "rank": 12,
    "team_name": "関西大学",
    "team_short_name": "関大",
    "runner_name": "上郡",
    "total_distance_km": 288.5,
    "latitude": 34.765439399931005,
    "longitude": 137.40064589478632,
    "is_shadow_confederation": false
  },
  {
    "rank": 13,
    "team_name": "立命館大学",
    "team_short_name": "立命",
    "runner_name": "京田辺",
    "total_distance_km": 276.9,
    "latitude": 34.699873839435725,
    "longitude": 137.48538567362044,
    "is_shadow_confederation": false
  },
  {
    "rank": 14,
    "team_name": "福島大学",
    "team_short_name": "福島",
    "runner_name": "津川",
    "total_distance_km": 255.8,
    "latitude": 34.68812834883322,
    "longitude": 137.69010509731132,
    "is_shadow_confederation": false
  },
  {
    "rank": 15,
    "team_name": "山梨学院大学",
    "team_short_name": "山学",
    "runner_name": "大月",
    "total_distance_km": 253.5,
    "latitude": 34.689654965236365,
    "longitude": 137.71432961946948,
    "is_shadow_confederation": false
  },
  {
    "rank": 16,
    "team_name": "金沢大学",
    "team_short_name": "金沢",
    "runner_name": "七尾",
    "total_distance_km": 233.5,
    "latitude": 34.74283694344958,
    "longitude": 137.9013527546704,
    "is_shadow_confederation": false
  },
  {
    "rank": 17,
    "team_name": "東北大学",
    "team_short_name": "東北",
    "runner_name": "山形（山形）",
    "total_distance_km": 180.6,
    "latitude": 34.94863933454064,
    "longitude": 138.35037195461607,
    "is_shadow_confederation": false
  },
  {
    "rank": 18,
    "team_name": "学連選抜",
    "team_short_name": "学連",
    "runner_name": "美幌",
    "total_distance_km": 91.9,
    "latitude": 35.22248023463967,
    "longitude": 139.0853709745521,
    "is_shadow_confederation": false
  },
  {
    "rank": null,
    "team_name": "区間記録連合",
    "team_short_name": "区間記録",
    "runner_name": "桐生",
    "total_distance_km": 525.8,
    "latitude": 34.747395024227814,
    "longitude": 135.57538732139972,
    "is_shadow_confederation": true
  }
]