[
  {
    "rank": 1,
    "team_name": "四国大学",
    "team_short_name": "四国",
    "runner_name": "穴吹",
    "total_distance_km": 106.8,
    "latitude": 35.16033523235405,
    "longitude": 138.99802846180413
  },
  {
    "rank": 2,
    "team_name": "名古屋大学",
    "team_short_name": "名大",
    "runner_name": "美濃加茂",
    "total_distance_km": 105.5,
    "latitude": 35.16679950621281,
    "longitude": 139.006757743871
  },
  {
    "rank": 3,
    "team_name": "立命館大学",
    "team_short_name": "立命",
    "runner_name": "東近江",
    "total_distance_km": 103.9,
    "latitude": 35.174087233483355,
    "longitude": 139.00933307943046
  },
  {
    "rank": 4,
    "team_name": "上武大学",
    "team_short_name": "上武",
    "runner_name": "佐野",
    "total_distance_km": 103.5,
    "latitude": 35.174385990043014,
    "longitude": 139.01256985539254
  },
  {
    "rank": 5,
    "team_name": "関西大学",
    "team_short_name": "関大",
    "runner_name": "福崎",
    "total_distance_km": 103.2,
    "latitude": 35.176090598834705,
    "longitude": 139.01456324023258
  },
  {
    "rank": 5,
    "team_name": "金沢大学",
    "team_short_name": "金沢",
    "runner_name": "秋ヶ島",
    "total_distance_km": 103.2,
    "latitude": 35.176090598834705,
    "longitude": 139.01456324023258
  },
  {
    "rank": 7,
    "team_name": "日本大学",
    "team_short_name": "日大",
    "runner_name": "大子",
    "total_distance_km": 102.7,
    "latitude": 35.179707664593174,
    "longitude": 139.01367189843702
  },
  {
    "rank": 8,
    "team_name": "三重大学",
    "team_short_name": "三重",
    "runner_name": "粥見",
    "total_distance_km": 101.0,
    "latitude": 35.18314392326731,
    "longitude": 139.02684681508626
  },
  {
    "rank": 9,
    "team_name": "熊本学園大学",
    "team_short_name": "熊学",
    "runner_name": "甲佐",
    "total_distance_km": 100.3,
    "latitude": 35.18580769914171,
    "longitude": 139.03295256147211
  },
  {
    "rank": 10,
    "team_name": "福島大学",
    "team_short_name": "福島",
    "runner_name": "梁川",
    "total_distance_km": 99.7,
    "latitude": 35.18773537537761,
    "longitude": 139.03893098236185
  },
  {
    "rank": 11,
    "team_name": "山梨学院大学",
    "team_short_name": "山学",
    "runner_name": "長野",
    "total_distance_km": 99.3,
    "latitude": 35.18902791260617,
    "longitude": 139.0428750448558
  },
  {
    "rank": 12,
    "team_name": "福岡大学",
    "team_short_name": "福岡",
    "runner_name": "久留米",
    "total_distance_km": 97.9,
    "latitude": 35.19757857437809,
    "longitude": 139.0526690569013
  },
  {
    "rank": 13,
    "team_name": "琉球大学",
    "team_short_name": "琉球",
    "runner_name": "北原",
    "total_distance_km": 96.9,
    "latitude": 35.20568170829665,
    "longitude": 139.0571090841306
  },
  {
    "rank": 13,
    "team_name": "広島経済大学",
    "team_short_name": "広経",
    "runner_name": "三次",
    "total_distance_km": 96.9,
    "latitude": 35.20568170829665,
    "longitude": 139.0571090841306
  },
  {
    "rank": 15,
    "team_name": "鹿児島大学",
    "team_short_name": "鹿大",
    "runner_name": "東市来",
    "total_distance_km": 95.3,
    "latitude": 35.2144521183063,
    "longitude": 139.0617979600145
  },
  {
    "rank": 16,
    "team_name": "鳥取大学",
    "team_short_name": "鳥取",
    "runner_name": "川本",
    "total_distance_km": 92.8,
    "latitude": 35.21991226408704,
    "longitude": 139.07608841843006
  },
  {
    "rank": 17,
    "team_name": "東北大学",
    "team_short_name": "東北",
    "runner_name": "帯広",
    "total_distance_km": 71.9,
    "latitude": 35.302822391157015,
    "longitude": 139.27056461012415
  },
  {
    "rank": 18,
    "team_name": "学連選抜",
    "team_short_name": "学連",
    "runner_name": "美幌",
    "total_distance_km": 67.6,
    "latitude": 35.30933790560102,
    "longitude": 139.31534131600066
  }
]