[
  {
    "rank": 1,
    "team_name": "福岡大学",
    "team_short_name": "福岡",
    "runner_name": "久留米",
    "total_distance_km": 60.6,
    "latitude": 35.31721229151605,
    "longitude": 139.3874668318944,
    "is_shadow_confederation": false
  },
  {
    "rank": 2,
    "team_name": "熊本学園大学",
    "team_short_name": "熊学",
    "runner_name": "甲佐",
    "total_distance_km": 60.1,
    "latitude": 35.31776056987204,
    "longitude": 139.3929245014505,
    "is_shadow_confederation": false
  },
  {
    "rank": 3,
    "team_name": "金沢大学",
    "team_short_name": "金沢",
    "runner_name": "秋ヶ島",
    "total_distance_km": 58.5,
    "latitude": 35.31845747028835,
    "longitude": 139.41039736388615,
    "is_shadow_confederation": false
  },
  {
    "rank": 4,
    "team_name": "鹿児島大学",
    "team_short_name": "鹿大",
    "runner_name": "東市来",
    "total_distance_km": 58.0,
    "latitude": 35.31796669684266,
    "longitude": 139.41586320745944,
    "is_shadow_confederation": false
  },
  {
    "rank": 5,
    "team_name": "上武大学",
    "team_short_name": "上武",
    "runner_name": "佐野",
    "total_distance_km": 57.8,
    "latitude": 35.31793987287838,
    "longitude": 139.41803326632237,
    "is_shadow_confederation": false
  },
  {
    "rank": 6,
    "team_name": "福島大学",
    "team_short_name": "福島",
    "runner_name": "梁川",
    "total_distance_km": 57.7,
    "latitude": 35.318177032398005,
    "longitude": 139.4190942291116,
    "is_shadow_confederation": false
  },
  {
    "rank": 7,
    "team_name": "日本大学",
    "team_short_name": "日大",
    "runner_name": "大子",
    "total_distance_km": 57.2,
    "latitude": 35.31936282999611,
    "longitude": 139.42439904305778,
    "is_shadow_confederation": false
  },
  {
    "rank": 8,
    "team_name": "立命館大学",
    "team_short_name": "立命",
    "runner_name": "東近江",
    "total_distance_km": 56.6,
    "latitude": 35.32010149043347,
    "longitude": 139.43092439346034,
    "is_shadow_confederation": false
  },
  {
    "rank": 9,
    "team_name": "四国大学",
    "team_short_name": "四国",
    "runner_name": "穴吹",
    "total_distance_km": 55.2,
    "latitude": 35.32582412469431,
    "longitude": 139.44395925664452,
    "is_shadow_confederation": false
  },
  {
    "rank": 10,
    "team_name": "鳥取大学",
    "team_short_name": "鳥取",
    "runner_name": "川本",
    "total_distance_km": 54.7,
    "latitude": 35.3267489255801,
    "longitude": 139.44934008653507,
    "is_shadow_confederation": false
  },
  {
    "rank": 11,
    "team_name": "琉球大学",
    "team_short_name": "琉球",
    "runner_name": "北原",
    "total_distance_km": 54.5,
    "latitude": 35.327103396739396,
    "longitude": 139.451496784656,
    "is_shadow_confederation": false
  },
  {
    "rank": 12,
    "team_name": "広島経済大学",
    "team_short_name": "広経",
    "runner_name": "三次",
    "total_distance_km": 54.3,
    "latitude": 35.327534068137645,
    "longitude": 139.45361312082113,
    "is_shadow_confederation": false
  },
  {
    "rank": 13,
    "team_name": "関西大学",
    "team_short_name": "関大",
    "runner_name": "福崎",
    "total_distance_km": 54.2,
    "latitude": 35.32805877281061,
    "longitude": 139.45450742148003,
    "is_shadow_confederation": false
  },
  {
    "rank": 14,
    "team_name": "名古屋大学",
    "team_short_name": "名大",
    "runner_name": "美濃加茂",
    "total_distance_km": 54.0,
    "latitude": 35.32910818215653,
    "longitude": 139.45629602279786,
    "is_shadow_confederation": false
  },
  {
    "rank": 15,
    "team_name": "山梨学院大学",
    "team_short_name": "山学",
    "runner_name": "長野",
    "total_distance_km": 53.3,
    "latitude": 35.33278111486726,
    "longitude": 139.46255612741018,
    "is_shadow_confederation": false
  },
  {
    "rank": 16,
    "team_name": "三重大学",
    "team_short_name": "三重",
    "runner_name": "粥見",
    "total_distance_km": 52.0,
    "latitude": 35.33663719836943,
    "longitude": 139.4749651753383,
    "is_shadow_confederation": false
  },
  {
    "rank": 17,
    "team_name": "東北大学",
    "team_short_name": "東北",
    "runner_name": "帯広",
    "total_distance_km": 34.7,
    "latitude": 35.445163097485555,
    "longitude": 139.58441055529735,
    "is_shadow_confederation": false
  },
  {
    "rank": 18,
    "team_name": "学連選抜",
    "team_short_name": "学連",
    "runner_name": "美幌",
    "total_distance_km": 25.8,
    "latitude": 35.48653288983988,
    "longitude": 139.65648954116233,
    "is_shadow_confederation": false
  }
]