[
  {
    "rank": 1,
    "team_name": "琉球大学",
    "team_short_name": "琉球",
    "runner_name": "名護",
    "total_distance_km": 355.3,
    "latitude": 35.124567590930376,
    "longitude": 136.8632329218434,
    "is_shadow_confederation": false
  },
  {
    "rank": 2,
    "team_name": "鹿児島大学",
    "team_short_name": "鹿大",
    "runner_name": "加久藤",
    "total_distance_km": 265.8,
    "latitude": 34.693923634931046,
    "longitude": 137.58439981404086,
    "is_shadow_confederation": false
  },
  {
    "rank": 3,
    "team_name": "熊本学園大学",
    "team_short_name": "熊学",
    "runner_name": "八代",
    "total_distance_km": 258.9,
    "latitude": 34.684620886778944,
    "longitude": 137.65674704892032,
    "is_shadow_confederation": false
  },
  {
    "rank": 4,
    "team_name": "福岡大学",
    "team_short_name": "福岡",
    "runner_name": "黒木",
    "total_distance_km": 236.2,
    "latitude": 34.73273894299606,
    "longitude": 137.87475624992544,
    "is_shadow_confederation": false
  },
  {
    "rank": 5,
    "team_name": "名古屋大学",
    "team_short_name": "名大",
    "runner_name": "大垣",
    "total_distance_km": 221.7,
    "latitude": 34.77835921141938,
    "longitude": 138.01840470651356,
    "is_shadow_confederation": false
  },
  {
    "rank": 6,
    "team_name": "日本大学",
    "team_short_name": "日大",
    "runner_name": "古河",
    "total_distance_km": 210.5,
    "latitude": 34.8194722944254,
    "longitude": 138.1111723602895,
    "is_shadow_confederation": false
  },
  {
    "rank": 7,
    "team_name": "四国大学",
    "team_short_name": "四国",
    "runner_name": "大三島",
    "total_distance_km": 209.9,
    "latitude": 34.819514519059275,
    "longitude": 138.1173719378552,
    "is_shadow_confederation": false
  },
  {
    "rank": 8,
    "team_name": "上武大学",
    "team_short_name": "上武",
    "runner_name": "越谷",
    "total_distance_km": 209.6,
    "latitude": 34.82154816213629,
    "longitude": 138.11949614264398,
    "is_shadow_confederation": false
  },
  {
    "rank": 9,
    "team_name": "三重大学",
    "team_short_name": "三重",
    "runner_name": "五條",
    "total_distance_km": 202.1,
    "latitude": 34.848397883338095,
    "longitude": 138.17606935884177,
    "is_shadow_confederation": false
  },
  {
    "rank": 10,
    "team_name": "広島経済大学",
    "team_short_name": "広経",
    "runner_name": "加計",
    "total_distance_km": 191.9,
    "latitude": 34.893029620781384,
    "longitude": 138.26676604723698,
    "is_shadow_confederation": false
  },
  {
    "rank": 11,
    "team_name": "鳥取大学",
    "team_short_name": "鳥取",
    "runner_name": "鳥取",
    "total_distance_km": 189.4,
    "latitude": 34.906514192033754,
    "longitude": 138.28731854233325,
    "is_shadow_confederation": false
  },
  {
    "rank": 12,
    "team_name": "関西大学",
    "team_short_name": "関大",
    "runner_name": "和田山",
    "total_distance_km": 187.2,
    "latitude": 34.92379003712317,
    "longitude": 138.2956605565721,
    "is_shadow_confederation": false
  },
  {
    "rank": 13,
    "team_name": "立命館大学",
    "team_short_name": "立命",
    "runner_name": "福知山",
    "total_distance_km": 175.7,
    "latitude": 34.9737679215964,
    "longitude": 138.3908187148888,
    "is_shadow_confederation": false
  },
  {
    "rank": 14,
    "team_name": "福島大学",
    "team_short_name": "福島",
    "runner_name": "石川",
    "total_distance_km": 165.2,
    "latitude": 35.023741343656106,
    "longitude": 138.48422386708063,
    "is_shadow_confederation": false
  },
  {
    "rank": 15,
    "team_name": "山梨学院大学",
    "team_short_name": "山学",
    "runner_name": "南信濃",
    "total_distance_km": 158.4,
    "latitude": 35.060521867610156,
    "longitude": 138.536154672033,
    "is_shadow_confederation": false
  },
  {
    "rank": 16,
    "team_name": "金沢大学",
    "team_short_name": "金沢",
    "runner_name": "小浜",
    "total_distance_km": 146.0,
    "latitude": 35.12296227411332,
    "longitude": 138.623073003636,
    "is_shadow_confederation": false
  },
  {
    "rank": 17,
    "team_name": "東北大学",
    "team_short_name": "東北",
    "runner_name": "帯広",
    "total_distance_km": 101.0,
    "latitude": 35.18314392326731,
    "longitude": 139.02684681508626,
    "is_shadow_confederation": false
  },
  {
    "rank": 18,
    "team_name": "学連選抜",
    "team_short_name": "学連",
    "runner_name": "美幌",
    "total_distance_km": 34.9,
    "latitude": 35.44520723407738,
    "longitude": 139.58220835292929,
    "is_shadow_confederation": false
  },
  {
    "rank": null,
    "team_name": "区間記録連合",
    "team_short_name": "区間記録",
    "runner_name": "風屋",
    "total_distance_km": 393.6,
    "latitude": 34.9281626705989,
    "longitude": 136.58747013446356,
    "is_shadow_confederation": true
  }
]