[
  {
    "rank": 1,
    "team_name": "琉球大学",
    "team_short_name": "琉球",
    "runner_name": "大原",
    "total_distance_km": 892.2,
    "latitude": 34.27310518071499,
    "longitude": 132.25853369407355,
    "is_shadow_confederation": false
  },
  {
    "rank": 2,
    "team_name": "名古屋大学",
    "team_short_name": "名大",
    "runner_name": "揖斐川",
    "total_distance_km": 872.8,
    "latitude": 34.379586494843984,
    "longitude": 132.40528612597637,
    "is_shadow_confederation": false
  },
  {
    "rank": 3,
    "team_name": "鹿児島大学",
    "team_short_name": "鹿大",
    "runner_name": "さつま柏原",
    "total_distance_km": 868.7,
    "latitude": 34.3866291977354,
    "longitude": 132.44220568786108,
    "is_shadow_confederation": false
  },
  {
    "rank": 4,
    "team_name": "福岡大学",
    "team_short_name": "福岡",
    "runner_name": "佐賀（佐賀）",
    "total_distance_km": 867.9,
    "latitude": 34.38513176775651,
    "longitude": 132.45057469357482,
    "is_shadow_confederation": false
  },
  {
    "rank": 5,
    "team_name": "関西大学",
    "team_short_name": "関大",
    "runner_name": "郡家",
    "total_distance_km": 862.8,
    "latitude": 34.37144223221251,
    "longitude": 132.49859906498452,
    "is_shadow_confederation": false
  },
  {
    "rank": 6,
    "team_name": "熊本学園大学",
    "team_short_name": "熊学",
    "runner_name": "三角",
    "total_distance_km": 862.4,
    "latitude": 34.369837003966495,
    "longitude": 132.50162964426997,
    "is_shadow_confederation": false
  },
  {
    "rank": 7,
    "team_name": "四国大学",
    "team_short_name": "四国",
    "runner_name": "江川崎",
    "total_distance_km": 861.7,
    "latitude": 34.36924614003935,
    "longitude": 132.50920124971594,
    "is_shadow_confederation": false
  },
  {
    "rank": 8,
    "team_name": "広島経済大学",
    "team_short_name": "広経",
    "runner_name": "引田",
    "total_distance_km": 854.8,
    "latitude": 34.39432272728601,
    "longitude": 132.56831962713846,
    "is_shadow_confederation": false
  },
  {
    "rank": 9,
    "team_name": "立命館大学",
    "team_short_name": "立命",
    "runner_name": "京都",
    "total_distance_km": 853.0,
    "latitude": 34.40412696312069,
    "longitude": 132.58258871562694,
    "is_shadow_confederation": false
  },
  {
    "rank": 10,
    "team_name": "三重大学",
    "team_short_name": "三重",
    "runner_name": "和歌山",
    "total_distance_km": 846.2,
    "latitude": 34.43490114509016,
    "longitude": 132.63540185467204,
    "is_shadow_confederation": false
  },
  {
    "rank": 11,
    "team_name": "山梨学院大学",
    "team_short_name": "山学",
    "runner_name": "上田",
    "total_distance_km": 843.7,
    "latitude": 34.44255640637171,
    "longitude": 132.65134546173925,
    "is_shadow_confederation": false
  },
  {
    "rank": 12,
    "team_name": "日本大学",
    "team_short_name": "日大",
    "runner_name": "府中（東京）",
    "total_distance_km": 843.3,
    "latitude": 34.44425119780709,
    "longitude": 132.6549839285995,
    "is_shadow_confederation": false
  },
  {
    "rank": 13,
    "team_name": "鳥取大学",
    "team_short_name": "鳥取",
    "runner_name": "玖珂",
    "total_distance_km": 830.7,
    "latitude": 34.39843289371946,
    "longitude": 132.76918697375714,
    "is_shadow_confederation": false
  },
  {
    "rank": 14,
    "team_name": "上武大学",
    "team_short_name": "上武",
    "runner_name": "前橋",
    "total_distance_km": 829.4,
    "latitude": 34.40028048305025,
    "longitude": 132.78303899385347,
    "is_shadow_confederation": false
  },
  {
    "rank": 15,
    "team_name": "金沢大学",
    "team_short_name": "金沢",
    "runner_name": "小松",
    "total_distance_km": 818.7,
    "latitude": 34.39402579294719,
    "longitude": 132.88992903859733,
    "is_shadow_confederation": false
  },
  {
    "rank": 16,
    "team_name": "学連選抜",
    "team_short_name": "学連",
    "runner_name": "飯塚",
    "total_distance_km": 803.7,
    "latitude": 34.39824454274513,
    "longitude": 133.02496244320565,
    "is_shadow_confederation": false
  },
  {
    "rank": 17,
    "team_name": "福島大学",
    "team_short_name": "福島",
    "runner_name": "喜多方",
    "total_distance_km": 799.6,
    "latitude": 34.39227237340967,
    "longitude": 133.06424909429862,
    "is_shadow_confederation": false
  },
  {
    "rank": 18,
    "team_name": "東北大学",
    "team_short_name": "東北",
    "runner_name": "秋田",
    "total_distance_km": 737.4,
    "latitude": 34.53745294664033,
    "longitude": 133.634011249127,
    "is_shadow_confederation": false
  },
  {
    "rank": null,
    "team_name": "区間記録連合",
    "team_short_name": "区間記録",
    "runner_name": "豊中",
    "total_distance_km": 898.9,
    "latitude": 34.22754001485174,
    "longitude": 132.2209979816493,
    "is_shadow_confederation": true
  }
]