[
  {
    "rank": 1,
    "team_name": "琉球大学",
    "team_short_name": "琉球",
    "runner_name": "西表島",
    "total_distance_km": 849.3,
    "latitude": 34.422409054235956,
    "longitude": 132.6079565132723,
    "is_shadow_confederation": false
  },
  {
    "rank": 2,
    "team_name": "鹿児島大学",
    "team_short_name": "鹿大",
    "runner_name": "鹿児島",
    "total_distance_km": 691.4,
    "latitude": 34.705263483215305,
    "longitude": 134.0625495578953,
    "is_shadow_confederation": false
  },
  {
    "rank": 3,
    "team_name": "熊本学園大学",
    "team_short_name": "熊学",
    "runner_name": "犬飼",
    "total_distance_km": 661.2,
    "latitude": 34.84228033115553,
    "longitude": 134.32308862732006,
    "is_shadow_confederation": false
  },
  {
    "rank": 4,
    "team_name": "福岡大学",
    "team_short_name": "福岡",
    "runner_name": "博多",
    "total_distance_km": 639.7,
    "latitude": 34.82910488290815,
    "longitude": 134.54079800722837,
    "is_shadow_confederation": false
  },
  {
    "rank": 5,
    "team_name": "四国大学",
    "team_short_name": "四国",
    "runner_name": "徳島",
    "total_distance_km": 600.0,
    "latitude": 34.71216391450597,
    "longitude": 134.90088541165957,
    "is_shadow_confederation": false
  },
  {
    "rank": 6,
    "team_name": "名古屋大学",
    "team_short_name": "名大",
    "runner_name": "豊田（愛知）",
    "total_distance_km": 596.1,
    "latitude": 34.688218723458064,
    "longitude": 134.93118563474104,
    "is_shadow_confederation": false
  },
  {
    "rank": 7,
    "team_name": "日本大学",
    "team_short_name": "日大",
    "runner_name": "八王子",
    "total_distance_km": 589.5,
    "latitude": 34.648585057283405,
    "longitude": 134.9833905599015,
    "is_shadow_confederation": false
  },
  {
    "rank": 8,
    "team_name": "上武大学",
    "team_short_name": "上武",
    "runner_name": "伊勢崎",
    "total_distance_km": 584.3,
    "latitude": 34.6320750244338,
    "longitude": 135.03388438467215,
    "is_shadow_confederation": false
  },
  {
    "rank": 9,
    "team_name": "広島経済大学",
    "team_short_name": "広経",
    "runner_name": "高松（香川）",
    "total_distance_km": 579.6,
    "latitude": 34.633246807909266,
    "longitude": 135.08292374358592,
    "is_shadow_confederation": false
  },
  {
    "rank": 10,
    "team_name": "三重大学",
    "team_short_name": "三重",
    "runner_name": "新宮",
    "total_distance_km": 577.7,
    "latitude": 34.6382015389412,
    "longitude": 135.10257208887103,
    "is_shadow_confederation": false
  },
  {
    "rank": 11,
    "team_name": "鳥取大学",
    "team_short_name": "鳥取",
    "runner_name": "松江",
    "total_distance_km": 576.5,
    "latitude": 34.643340149921805,
    "longitude": 135.1135506874402,
    "is_shadow_confederation": false
  },
  {
    "rank": 12,
    "team_name": "関西大学",
    "team_short_name": "関大",
    "runner_name": "豊中",
    "total_distance_km": 570.0,
    "latitude": 34.67684381900152,
    "longitude": 135.17053402153252,
    "is_shadow_confederation": false
  },
  {
    "rank": 13,
    "team_name": "立命館大学",
    "team_short_name": "立命",
    "runner_name": "彦根",
    "total_distance_km": 543.4,
    "latitude": 34.719462873434686,
    "longitude": 135.43698764420338,
    "is_shadow_confederation": false
  },
  {
    "rank": 14,
    "team_name": "山梨学院大学",
    "team_short_name": "山学",
    "runner_name": "甲府",
    "total_distance_km": 539.4,
    "latitude": 34.69803213655951,
    "longitude": 135.46977837346472,
    "is_shadow_confederation": false
  },
  {
    "rank": 15,
    "team_name": "福島大学",
    "team_short_name": "福島",
    "runner_name": "福島",
    "total_distance_km": 510.3,
    "latitude": 34.838168251874954,
    "longitude": 135.69551117885345,
    "is_shadow_confederation": false
  },
  {
    "rank": 16,
    "team_name": "金沢大学",
    "team_short_name": "金沢",
    "runner_name": "福井",
    "total_distance_km": 471.5,
    "latitude": 34.978154001332584,
    "longitude": 135.90907000204322,
    "is_shadow_confederation": false
  },
  {
    "rank": 17,
    "team_name": "東北大学",
    "team_short_name": "東北",
    "runner_name": "大館",
    "total_distance_km": 405.5,
    "latitude": 34.87285060847247,
    "longitude": 136.49357549645984,
    "is_shadow_confederation": false
  },
  {
    "rank": 18,
    "team_name": "学連選抜",
    "team_short_name": "学連",
    "runner_name": "上",
    "total_distance_km": 338.5,
    "latitude": 35.04881254132588,
    "longitude": 137.00266133971886,
    "is_shadow_confederation": false
  },
  {
    "rank": null,
    "team_name": "区間記録連合",
    "team_short_name": "区間記録",
    "runner_name": "西脇",
    "total_distance_km": 849.3,
    "latitude": 34.422409054235956,
    "longitude": 132.6079565132723,
    "is_shadow_confederation": true
  }
]