[
  {
    "rank": 1,
    "team_name": "四国大学",
    "team_short_name": "四国",
    "runner_name": "穴吹",
    "total_distance_km": 109.8,
    "latitude": 35.14646972511846,
    "longitude": 138.97738190904712
  },
  {
    "rank": 2,
    "team_name": "名古屋大学",
    "team_short_name": "名大",
    "runner_name": "美濃加茂",
    "total_distance_km": 107.3,
    "latitude": 35.15727479961124,
    "longitude": 138.99572189290126
  },
  {
    "rank": 3,
    "team_name": "上武大学",
    "team_short_name": "上武",
    "runner_name": "佐野",
    "total_distance_km": 106.6,
    "latitude": 35.161852650032614,
    "longitude": 138.9991111063426
  },
  {
    "rank": 4,
    "team_name": "立命館大学",
    "team_short_name": "立命",
    "runner_name": "東近江",
    "total_distance_km": 106.1,
    "latitude": 35.16411731958755,
    "longitude": 139.0033980745819
  },
  {
    "rank": 5,
    "team_name": "日本大学",
    "team_short_name": "日大",
    "runner_name": "大子",
    "total_distance_km": 105.6,
    "latitude": 35.16640432299853,
    "longitude": 139.00578819521778
  },
  {
    "rank": 6,
    "team_name": "関西大学",
    "team_short_name": "関大",
    "runner_name": "福崎",
    "total_distance_km": 105.3,
    "latitude": 35.168168849826976,
    "longitude": 139.00812221212985
  },
  {
    "rank": 7,
    "team_name": "三重大学",
    "team_short_name": "三重",
    "runner_name": "粥見",
    "total_distance_km": 104.5,
    "latitude": 35.171860551402915,
    "longitude": 139.0101705747441
  },
  {
    "rank": 7,
    "team_name": "金沢大学",
    "team_short_name": "金沢",
    "runner_name": "秋ヶ島",
    "total_distance_km": 104.5,
    "latitude": 35.171860551402915,
    "longitude": 139.0101705747441
  },
  {
    "rank": 9,
    "team_name": "福島大学",
    "team_short_name": "福島",
    "runner_name": "梁川",
    "total_distance_km": 103.2,
    "latitude": 35.176090598834705,
    "longitude": 139.01456324023258
  },
  {
    "rank": 10,
    "team_name": "熊本学園大学",
    "team_short_name": "熊学",
    "runner_name": "甲佐",
    "total_distance_km": 101.6,
    "latitude": 35.18426333327235,
    "longitude": 139.02123628223072
  },
  {
    "rank": 11,
    "team_name": "福岡大学",
    "team_short_name": "福岡",
    "runner_name": "久留米",
    "total_distance_km": 100.7,
    "latitude": 35.184197071195825,
    "longitude": 139.02920288448163
  },
  {
    "rank": 12,
    "team_name": "広島経済大学",
    "team_short_name": "広経",
    "runner_name": "三次",
    "total_distance_km": 100.6,
    "latitude": 35.18477689182252,
    "longitude": 139.0299777634772
  },
  {
    "rank": 13,
    "team_name": "山梨学院大学",
    "team_short_name": "山学",
    "runner_name": "長野",
    "total_distance_km": 100.5,
    "latitude": 35.185000402244555,
    "longitude": 139.0310413815507
  },
  {
    "rank": 14,
    "team_name": "鳥取大学",
    "team_short_name": "鳥取",
    "runner_name": "川本",
    "total_distance_km": 98.1,
    "latitude": 35.19584097204872,
    "longitude": 139.0522372812557
  },
  {
    "rank": 15,
    "team_name": "鹿児島大学",
    "team_short_name": "鹿大",
    "runner_name": "東市来",
    "total_distance_km": 97.6,
    "latitude": 35.20016765772283,
    "longitude": 139.05357607236152
  },
  {
    "rank": 16,
    "team_name": "琉球大学",
    "team_short_name": "琉球",
    "runner_name": "北原",
    "total_distance_km": 97.5,
    "latitude": 35.20102030940545,
    "longitude": 139.0539321472523
  },
  {
    "rank": 17,
    "team_name": "東北大学",
    "team_short_name": "東北",
    "runner_name": "帯広",
    "total_distance_km": 75.3,
    "latitude": 35.289692238734865,
    "longitude": 139.2370837262056
  },
  {
    "rank": 18,
    "team_name": "学連選抜",
    "team_short_name": "学連",
    "runner_name": "美幌",
    "total_distance_km": 68.3,
    "latitude": 35.30793905962772,
    "longitude": 139.30898240048742
  }
]