[
  {
    "rank": 1,
    "team_name": "琉球大学",
    "team_short_name": "琉球",
    "runner_name": "波照間",
    "total_distance_km": 535.9,
    "latitude": 34.697733415524745,
    "longitude": 135.50470692585964,
    "is_shadow_confederation": false
  },
  {
    "rank": 2,
    "team_name": "鹿児島大学",
    "team_short_name": "鹿大",
    "runner_name": "西米良",
    "total_distance_km": 414.0,
    "latitude": 34.8560022584433,
    "longitude": 136.41690782577973,
    "is_shadow_confederation": false
  },
  {
    "rank": 3,
    "team_name": "熊本学園大学",
    "team_short_name": "熊学",
    "runner_name": "人吉",
    "total_distance_km": 405.4,
    "latitude": 34.87359549670754,
    "longitude": 136.49419142281474,
    "is_shadow_confederation": false
  },
  {
    "rank": 4,
    "team_name": "福岡大学",
    "team_short_name": "福岡",
    "runner_name": "朝倉",
    "total_distance_km": 384.4,
    "latitude": 34.993867304676144,
    "longitude": 136.64420318676372,
    "is_shadow_confederation": false
  },
  {
    "rank": 5,
    "team_name": "名古屋大学",
    "team_short_name": "名大",
    "runner_name": "愛西",
    "total_distance_km": 356.2,
    "latitude": 35.124158925170406,
    "longitude": 136.85337350730705,
    "is_shadow_confederation": false
  },
  {
    "rank": 6,
    "team_name": "四国大学",
    "team_short_name": "四国",
    "runner_name": "松山",
    "total_distance_km": 352.4,
    "latitude": 35.12391566030804,
    "longitude": 136.89480403609937,
    "is_shadow_confederation": false
  },
  {
    "rank": 7,
    "team_name": "上武大学",
    "team_short_name": "上武",
    "runner_name": "寄居",
    "total_distance_km": 343.2,
    "latitude": 35.07044059343548,
    "longitude": 136.95994760899137,
    "is_shadow_confederation": false
  },
  {
    "rank": 8,
    "team_name": "日本大学",
    "team_short_name": "日大",
    "runner_name": "小田原",
    "total_distance_km": 341.9,
    "latitude": 35.064373516820396,
    "longitude": 136.9720000996047,
    "is_shadow_confederation": false
  },
  {
    "rank": 9,
    "team_name": "広島経済大学",
    "team_short_name": "広経",
    "runner_name": "大竹",
    "total_distance_km": 339.0,
    "latitude": 35.05215254558904,
    "longitude": 136.99898168330537,
    "is_shadow_confederation": false
  },
  {
    "rank": 10,
    "team_name": "三重大学",
    "team_short_name": "三重",
    "runner_name": "風屋",
    "total_distance_km": 337.6,
    "latitude": 35.042178571039145,
    "longitude": 137.00828364905385,
    "is_shadow_confederation": false
  },
  {
    "rank": 11,
    "team_name": "鳥取大学",
    "team_short_name": "鳥取",
    "runner_name": "防府",
    "total_distance_km": 333.3,
    "latitude": 35.014088540886476,
    "longitude": 137.04028040848468,
    "is_shadow_confederation": false
  },
  {
    "rank": 12,
    "team_name": "関西大学",
    "team_short_name": "関大",
    "runner_name": "上郡",
    "total_distance_km": 326.6,
    "latitude": 34.98136682855411,
    "longitude": 137.10102935433636,
    "is_shadow_confederation": false
  },
  {
    "rank": 13,
    "team_name": "立命館大学",
    "team_short_name": "立命",
    "runner_name": "京田辺",
    "total_distance_km": 319.7,
    "latitude": 34.95580466380111,
    "longitude": 137.16839985949468,
    "is_shadow_confederation": false
  },
  {
    "rank": 14,
    "team_name": "山梨学院大学",
    "team_short_name": "山学",
    "runner_name": "大月",
    "total_distance_km": 291.3,
    "latitude": 34.78188600763533,
    "longitude": 137.38192271908156,
    "is_shadow_confederation": false
  },
  {
    "rank": 15,
    "team_name": "福島大学",
    "team_short_name": "福島",
    "runner_name": "津川",
    "total_distance_km": 288.6,
    "latitude": 34.76590618104708,
    "longitude": 137.39972234840502,
    "is_shadow_confederation": false
  },
  {
    "rank": 16,
    "team_name": "金沢大学",
    "team_short_name": "金沢",
    "runner_name": "七尾",
    "total_distance_km": 269.9,
    "latitude": 34.68292018651395,
    "longitude": 137.54429061557,
    "is_shadow_confederation": false
  },
  {
    "rank": 17,
    "team_name": "東北大学",
    "team_short_name": "東北",
    "runner_name": "山形（山形）",
    "total_distance_km": 211.6,
    "latitude": 34.82144492208463,
    "longitude": 138.09972937042417,
    "is_shadow_confederation": false
  },
  {
    "rank": 18,
    "team_name": "学連選抜",
    "team_short_name": "学連",
    "runner_name": "新潟",
    "total_distance_km": 115.0,
    "latitude": 35.123938612559456,
    "longitude": 138.93459713181795,
    "is_shadow_confederation": false
  },
  {
    "rank": null,
    "team_name": "区間記録連合",
    "team_short_name": "区間記録",
    "runner_name": "桐生",
    "total_distance_km": 535.9,
    "latitude": 34.697733415524745,
    "longitude": 135.50470692585964,
    "is_shadow_confederation": true
  }
]