[
  {
    "rank": 1,
    "team_name": "琉球大学",
    "team_short_name": "琉球",
    "runner_name": "名護",
    "total_distance_km": 407.5,
    "latitude": 34.857497562805776,
    "longitude": 136.48246786642935,
    "is_shadow_confederation": false
  },
  {
    "rank": 2,
    "team_name": "鹿児島大学",
    "team_short_name": "鹿大",
    "runner_name": "加久藤",
    "total_distance_km": 310.7,
    "latitude": 34.902190872449154,
    "longitude": 137.23648325035523,
    "is_shadow_confederation": false
  },
  {
    "rank": 3,
    "team_name": "熊本学園大学",
    "team_short_name": "熊学",
    "runner_name": "八代",
    "total_distance_km": 303.6,
    "latitude": 34.8661140899923,
    "longitude": 137.29729338311336,
    "is_shadow_confederation": false
  },
  {
    "rank": 4,
    "team_name": "福岡大学",
    "team_short_name": "福岡",
    "runner_name": "黒木",
    "total_distance_km": 286.7,
    "latitude": 34.75249412046862,
    "longitude": 137.4121325945101,
    "is_shadow_confederation": false
  },
  {
    "rank": 5,
    "team_name": "名古屋大学",
    "team_short_name": "名大",
    "runner_name": "大垣",
    "total_distance_km": 263.2,
    "latitude": 34.686621412308796,
    "longitude": 137.6107670115584,
    "is_shadow_confederation": false
  },
  {
    "rank": 6,
    "team_name": "四国大学",
    "team_short_name": "四国",
    "runner_name": "御荘",
    "total_distance_km": 256.0,
    "latitude": 34.688036375080266,
    "longitude": 137.68792579951042,
    "is_shadow_confederation": false
  },
  {
    "rank": 7,
    "team_name": "上武大学",
    "team_short_name": "上武",
    "runner_name": "熊谷",
    "total_distance_km": 254.0,
    "latitude": 34.688194449000235,
    "longitude": 137.70971781703557,
    "is_shadow_confederation": false
  },
  {
    "rank": 8,
    "team_name": "日本大学",
    "team_short_name": "日大",
    "runner_name": "下館",
    "total_distance_km": 253.8,
    "latitude": 34.688108425201655,
    "longitude": 137.7118979522477,
    "is_shadow_confederation": false
  },
  {
    "rank": 9,
    "team_name": "三重大学",
    "team_short_name": "三重",
    "runner_name": "小俣",
    "total_distance_km": 249.1,
    "latitude": 34.70858791386677,
    "longitude": 137.74669134618335,
    "is_shadow_confederation": false
  },
  {
    "rank": 10,
    "team_name": "広島経済大学",
    "team_short_name": "広経",
    "runner_name": "府中（広島）",
    "total_distance_km": 239.8,
    "latitude": 34.72558174224736,
    "longitude": 137.83887162669214,
    "is_shadow_confederation": false
  },
  {
    "rank": 11,
    "team_name": "鳥取大学",
    "team_short_name": "鳥取",
    "runner_name": "広瀬",
    "total_distance_km": 231.1,
    "latitude": 34.75151875927308,
    "longitude": 137.92523154453963,
    "is_shadow_confederation": false
  },
  {
    "rank": 12,
    "team_name": "関西大学",
    "team_short_name": "関大",
    "runner_name": "上郡",
    "total_distance_km": 230.5,
    "latitude": 34.754539859703584,
    "longitude": 137.93056538130074,
    "is_shadow_confederation": false
  },
  {
    "rank": 13,
    "team_name": "立命館大学",
    "team_short_name": "立命",
    "runner_name": "福知山",
    "total_distance_km": 220.8,
    "latitude": 34.7776241579083,
    "longitude": 138.02803655994705,
    "is_shadow_confederation": false
  },
  {
    "rank": 14,
    "team_name": "福島大学",
    "team_short_name": "福島",
    "runner_name": "石川",
    "total_distance_km": 209.6,
    "latitude": 34.82154816213629,
    "longitude": 138.11949614264398,
    "is_shadow_confederation": false
  },
  {
    "rank": 15,
    "team_name": "山梨学院大学",
    "team_short_name": "山学",
    "runner_name": "南信濃",
    "total_distance_km": 204.1,
    "latitude": 34.845217689054245,
    "longitude": 138.1549569672753,
    "is_shadow_confederation": false
  },
  {
    "rank": 16,
    "team_name": "金沢大学",
    "team_short_name": "金沢",
    "runner_name": "小浜",
    "total_distance_km": 189.3,
    "latitude": 34.907380996936865,
    "longitude": 138.28761876357336,
    "is_shadow_confederation": false
  },
  {
    "rank": 17,
    "team_name": "東北大学",
    "team_short_name": "東北",
    "runner_name": "山形（山形）",
    "total_distance_km": 138.4,
    "latitude": 35.143856239150104,
    "longitude": 138.69794566046426,
    "is_shadow_confederation": false
  },
  {
    "rank": 18,
    "team_name": "学連選抜",
    "team_short_name": "学連",
    "runner_name": "美幌",
    "total_distance_km": 59.6,
    "latitude": 35.31830884822803,
    "longitude": 139.3983821710066,
    "is_shadow_confederation": false
  },
  {
    "rank": null,
    "team_name": "区間記録連合",
    "team_short_name": "区間記録",
    "runner_name": "風屋",
    "total_distance_km": 407.5,
    "latitude": 34.857497562805776,
    "longitude": 136.48246786642935,
    "is_shadow_confederation": true
  }
]