[
  {
    "rank": 1,
    "team_name": "琉球大学",
    "team_short_name": "琉球",
    "runner_name": "那覇",
    "total_distance_km": 721.2,
    "latitude": 34.60892860093005,
    "longitude": 133.77789821408018,
    "is_shadow_confederation": false
  },
  {
    "rank": 2,
    "team_name": "熊本学園大学",
    "team_short_name": "熊学",
    "runner_name": "犬飼",
    "total_distance_km": 663.5,
    "latitude": 34.82988134511034,
    "longitude": 134.30796518009197,
    "is_shadow_confederation": false
  },
  {
    "rank": 3,
    "team_name": "福岡大学",
    "team_short_name": "福岡",
    "runner_name": "博多",
    "total_distance_km": 657.3,
    "latitude": 34.829021348210176,
    "longitude": 134.35985451542828,
    "is_shadow_confederation": false
  },
  {
    "rank": 4,
    "team_name": "鹿児島大学",
    "team_short_name": "鹿大",
    "runner_name": "笠利",
    "total_distance_km": 654.1,
    "latitude": 34.82893191459031,
    "longitude": 134.39291660106304,
    "is_shadow_confederation": false
  },
  {
    "rank": 5,
    "team_name": "名古屋大学",
    "team_short_name": "名大",
    "runner_name": "豊田（愛知）",
    "total_distance_km": 648.6,
    "latitude": 34.82678957982295,
    "longitude": 134.45016381331604,
    "is_shadow_confederation": false
  },
  {
    "rank": 6,
    "team_name": "関西大学",
    "team_short_name": "関大",
    "runner_name": "豊中",
    "total_distance_km": 645.8,
    "latitude": 34.81829036283201,
    "longitude": 134.47634998777988,
    "is_shadow_confederation": false
  },
  {
    "rank": 7,
    "team_name": "四国大学",
    "team_short_name": "四国",
    "runner_name": "徳島",
    "total_distance_km": 643.2,
    "latitude": 34.82243187167569,
    "longitude": 134.50388301266398,
    "is_shadow_confederation": false
  },
  {
    "rank": 8,
    "team_name": "広島経済大学",
    "team_short_name": "広経",
    "runner_name": "高松（香川）",
    "total_distance_km": 642.6,
    "latitude": 34.823749916820766,
    "longitude": 134.50982948125267,
    "is_shadow_confederation": false
  },
  {
    "rank": 9,
    "team_name": "鳥取大学",
    "team_short_name": "鳥取",
    "runner_name": "松江",
    "total_distance_km": 642.4,
    "latitude": 34.82437004908718,
    "longitude": 134.51184741930194,
    "is_shadow_confederation": false
  },
  {
    "rank": 10,
    "team_name": "立命館大学",
    "team_short_name": "立命",
    "runner_name": "彦根",
    "total_distance_km": 641.8,
    "latitude": 34.82543652775542,
    "longitude": 134.5182773058097,
    "is_shadow_confederation": false
  },
  {
    "rank": 11,
    "team_name": "山梨学院大学",
    "team_short_name": "山学",
    "runner_name": "静岡",
    "total_distance_km": 636.2,
    "latitude": 34.83380160342246,
    "longitude": 134.57810942660532,
    "is_shadow_confederation": false
  },
  {
    "rank": 12,
    "team_name": "三重大学",
    "team_short_name": "三重",
    "runner_name": "新宮",
    "total_distance_km": 633.1,
    "latitude": 34.82919911273051,
    "longitude": 134.61049120394924,
    "is_shadow_confederation": false
  },
  {
    "rank": 13,
    "team_name": "上武大学",
    "team_short_name": "上武",
    "runner_name": "伊勢崎",
    "total_distance_km": 631.6,
    "latitude": 34.83605585630288,
    "longitude": 134.62020977304797,
    "is_shadow_confederation": false
  },
  {
    "rank": 14,
    "team_name": "金沢大学",
    "team_short_name": "金沢",
    "runner_name": "富山",
    "total_distance_km": 624.0,
    "latitude": 34.83276482244944,
    "longitude": 134.69425883734388,
    "is_shadow_confederation": false
  },
  {
    "rank": 15,
    "team_name": "日本大学",
    "team_short_name": "日大",
    "runner_name": "八王子",
    "total_distance_km": 601.4,
    "latitude": 34.72144316989972,
    "longitude": 134.89063605282766,
    "is_shadow_confederation": false
  },
  {
    "rank": 16,
    "team_name": "福島大学",
    "team_short_name": "福島",
    "runner_name": "浪江",
    "total_distance_km": 573.3,
    "latitude": 34.66035517276154,
    "longitude": 135.14130709657684,
    "is_shadow_confederation": false
  },
  {
    "rank": 17,
    "team_name": "学連選抜",
    "team_short_name": "学連",
    "runner_name": "多度津",
    "total_distance_km": 572.4,
    "latitude": 34.66550045242419,
    "longitude": 135.14889862168323,
    "is_shadow_confederation": false
  },
  {
    "rank": 18,
    "team_name": "東北大学",
    "team_short_name": "東北",
    "runner_name": "丸森",
    "total_distance_km": 563.1,
    "latitude": 34.709268005553376,
    "longitude": 135.23174075028925,
    "is_shadow_confederation": false
  }
]