[
  {
    "rank": 1,
    "team_name": "琉球大学",
    "team_short_name": "琉球",
    "runner_name": "名護",
    "total_distance_km": 394.5,
    "latitude": 34.92174328187169,
    "longitude": 136.58193416343758,
    "is_shadow_confederation": false
  },
  {
    "rank": 2,
    "team_name": "熊本学園大学",
    "team_short_name": "熊学",
    "runner_name": "人吉",
    "total_distance_km": 360.0,
    "latitude": 35.12637084741946,
    "longitude": 136.81217453276867,
    "is_shadow_confederation": false
  },
  {
    "rank": 3,
    "team_name": "鹿児島大学",
    "team_short_name": "鹿大",
    "runner_name": "西米良",
    "total_distance_km": 346.1,
    "latitude": 35.08522088381256,
    "longitude": 136.93422742200534,
    "is_shadow_confederation": false
  },
  {
    "rank": 4,
    "team_name": "福岡大学",
    "team_short_name": "福岡",
    "runner_name": "朝倉",
    "total_distance_km": 340.2,
    "latitude": 35.05907363868262,
    "longitude": 136.98900907683588,
    "is_shadow_confederation": false
  },
  {
    "rank": 5,
    "team_name": "四国大学",
    "team_short_name": "四国",
    "runner_name": "御荘",
    "total_distance_km": 327.0,
    "latitude": 34.98292012672026,
    "longitude": 137.09707588159068,
    "is_shadow_confederation": false
  },
  {
    "rank": 6,
    "team_name": "広島経済大学",
    "team_short_name": "広経",
    "runner_name": "府中（広島）",
    "total_distance_km": 314.0,
    "latitude": 34.91910354027316,
    "longitude": 137.2080936919431,
    "is_shadow_confederation": false
  },
  {
    "rank": 7,
    "team_name": "鳥取大学",
    "team_short_name": "鳥取",
    "runner_name": "広瀬",
    "total_distance_km": 299.9,
    "latitude": 34.84179425389071,
    "longitude": 137.3237226046625,
    "is_shadow_confederation": false
  },
  {
    "rank": 8,
    "team_name": "立命館大学",
    "team_short_name": "立命",
    "runner_name": "京田辺",
    "total_distance_km": 299.5,
    "latitude": 34.83867759993051,
    "longitude": 137.32592103217058,
    "is_shadow_confederation": false
  },
  {
    "rank": 9,
    "team_name": "関西大学",
    "team_short_name": "関大",
    "runner_name": "上郡",
    "total_distance_km": 299.0,
    "latitude": 34.83469014151857,
    "longitude": 137.32846898035962,
    "is_shadow_confederation": false
  },
  {
    "rank": 10,
    "team_name": "名古屋大学",
    "team_short_name": "名大",
    "runner_name": "大垣",
    "total_distance_km": 296.6,
    "latitude": 34.819718104353306,
    "longitude": 137.34660919605238,
    "is_shadow_confederation": false
  },
  {
    "rank": 11,
    "team_name": "三重大学",
    "team_short_name": "三重",
    "runner_name": "小俣",
    "total_distance_km": 292.6,
    "latitude": 34.79105392219129,
    "longitude": 137.373076226555,
    "is_shadow_confederation": false
  },
  {
    "rank": 12,
    "team_name": "金沢大学",
    "team_short_name": "金沢",
    "runner_name": "七尾",
    "total_distance_km": 280.8,
    "latitude": 34.720379330477016,
    "longitude": 137.45351406002683,
    "is_shadow_confederation": false
  },
  {
    "rank": 13,
    "team_name": "上武大学",
    "team_short_name": "上武",
    "runner_name": "熊谷",
    "total_distance_km": 269.8,
    "latitude": 34.68324193859848,
    "longitude": 137.54530997811582,
    "is_shadow_confederation": false
  },
  {
    "rank": 14,
    "team_name": "日本大学",
    "team_short_name": "日大",
    "runner_name": "下館",
    "total_distance_km": 268.0,
    "latitude": 34.689761803439346,
    "longitude": 137.56291635476575,
    "is_shadow_confederation": false
  },
  {
    "rank": 15,
    "team_name": "山梨学院大学",
    "team_short_name": "山学",
    "runner_name": "大月",
    "total_distance_km": 250.4,
    "latitude": 34.708052,
    "longitude": 137.73259590794615,
    "is_shadow_confederation": false
  },
  {
    "rank": 16,
    "team_name": "福島大学",
    "team_short_name": "福島",
    "runner_name": "津川",
    "total_distance_km": 249.8,
    "latitude": 34.708052,
    "longitude": 137.7391453241176,
    "is_shadow_confederation": false
  },
  {
    "rank": 17,
    "team_name": "東北大学",
    "team_short_name": "東北",
    "runner_name": "山形（山形）",
    "total_distance_km": 199.3,
    "latitude": 34.855093590571066,
    "longitude": 138.20479187247673,
    "is_shadow_confederation": false
  },
  {
    "rank": 18,
    "team_name": "学連選抜",
    "team_short_name": "学連",
    "runner_name": "新潟",
    "total_distance_km": 196.1,
    "latitude": 34.872554200356724,
    "longitude": 138.22954453862505,
    "is_shadow_confederation": false
  }
]