[
  {
    "rank": 1,
    "team_name": "琉球大学",
    "team_short_name": "琉球",
    "runner_name": "波照間",
    "total_distance_km": 455.9,
    "latitude": 35.0194721796493,
    "longitude": 136.05410774177037,
    "is_shadow_confederation": false
  },
  {
    "rank": 2,
    "team_name": "鹿児島大学",
    "team_short_name": "鹿大",
    "runner_name": "西米良",
    "total_distance_km": 343.2,
    "latitude": 35.07044059343548,
    "longitude": 136.95994760899137,
    "is_shadow_confederation": false
  },
  {
    "rank": 3,
    "team_name": "熊本学園大学",
    "team_short_name": "熊学",
    "runner_name": "人吉",
    "total_distance_km": 340.4,
    "latitude": 35.06006186555765,
    "longitude": 136.98717540604358,
    "is_shadow_confederation": false
  },
  {
    "rank": 4,
    "team_name": "福岡大学",
    "team_short_name": "福岡",
    "runner_name": "黒木",
    "total_distance_km": 319.2,
    "latitude": 34.95435570152729,
    "longitude": 137.1735834190589,
    "is_shadow_confederation": false
  },
  {
    "rank": 5,
    "team_name": "名古屋大学",
    "team_short_name": "名大",
    "runner_name": "大垣",
    "total_distance_km": 295.5,
    "latitude": 34.81208803932756,
    "longitude": 137.35428769115214,
    "is_shadow_confederation": false
  },
  {
    "rank": 6,
    "team_name": "四国大学",
    "team_short_name": "四国",
    "runner_name": "御荘",
    "total_distance_km": 291.3,
    "latitude": 34.78188600763533,
    "longitude": 137.38192271908156,
    "is_shadow_confederation": false
  },
  {
    "rank": 7,
    "team_name": "日本大学",
    "team_short_name": "日大",
    "runner_name": "下館",
    "total_distance_km": 284.3,
    "latitude": 34.734521392213615,
    "longitude": 137.42441686465563,
    "is_shadow_confederation": false
  },
  {
    "rank": 8,
    "team_name": "上武大学",
    "team_short_name": "上武",
    "runner_name": "熊谷",
    "total_distance_km": 283.8,
    "latitude": 34.73003234071799,
    "longitude": 137.42484752112665,
    "is_shadow_confederation": false
  },
  {
    "rank": 9,
    "team_name": "三重大学",
    "team_short_name": "三重",
    "runner_name": "小俣",
    "total_distance_km": 278.6,
    "latitude": 34.71122516394074,
    "longitude": 137.4733454063936,
    "is_shadow_confederation": false
  },
  {
    "rank": 10,
    "team_name": "広島経済大学",
    "team_short_name": "広経",
    "runner_name": "府中（広島）",
    "total_distance_km": 272.7,
    "latitude": 34.679028534804544,
    "longitude": 137.51433974765058,
    "is_shadow_confederation": false
  },
  {
    "rank": 11,
    "team_name": "関西大学",
    "team_short_name": "関大",
    "runner_name": "上郡",
    "total_distance_km": 267.0,
    "latitude": 34.6940166642355,
    "longitude": 137.5713104241736,
    "is_shadow_confederation": false
  },
  {
    "rank": 12,
    "team_name": "鳥取大学",
    "team_short_name": "鳥取",
    "runner_name": "広瀬",
    "total_distance_km": 266.0,
    "latitude": 34.69404235068996,
    "longitude": 137.5822242317286,
    "is_shadow_confederation": false
  },
  {
    "rank": 13,
    "team_name": "立命館大学",
    "team_short_name": "立命",
    "runner_name": "京田辺",
    "total_distance_km": 255.2,
    "latitude": 34.688476605138725,
    "longitude": 137.69663937181522,
    "is_shadow_confederation": false
  },
  {
    "rank": 14,
    "team_name": "福島大学",
    "team_short_name": "福島",
    "runner_name": "津川",
    "total_distance_km": 238.5,
    "latitude": 34.723889403740245,
    "longitude": 137.85285488982447,
    "is_shadow_confederation": false
  },
  {
    "rank": 15,
    "team_name": "山梨学院大学",
    "team_short_name": "山学",
    "runner_name": "大月",
    "total_distance_km": 233.6,
    "latitude": 34.74261211449199,
    "longitude": 137.9002952394539,
    "is_shadow_confederation": false
  },
  {
    "rank": 16,
    "team_name": "金沢大学",
    "team_short_name": "金沢",
    "runner_name": "小浜",
    "total_distance_km": 217.5,
    "latitude": 34.7848427656755,
    "longitude": 138.06188013500523,
    "is_shadow_confederation": false
  },
  {
    "rank": 17,
    "team_name": "東北大学",
    "team_short_name": "東北",
    "runner_name": "山形（山形）",
    "total_distance_km": 166.0,
    "latitude": 35.02119741205687,
    "longitude": 138.47731391323694,
    "is_shadow_confederation": false
  },
  {
    "rank": 18,
    "team_name": "学連選抜",
    "team_short_name": "学連",
    "runner_name": "美幌",
    "total_distance_km": 74.8,
    "latitude": 35.29206750902739,
    "longitude": 139.2415544188552,
    "is_shadow_confederation": false
  },
  {
    "rank": null,
    "team_name": "区間記録連合",
    "team_short_name": "区間記録",
    "runner_name": "桐生",
    "total_distance_km": 486.4,
    "latitude": 35.009422088698,
    "longitude": 135.7834939483111,
    "is_shadow_confederation": true
  }
]