[
  {
    "rank": 1,
    "team_name": "琉球大学",
    "team_short_name": "琉球",
    "runner_name": "ゴール",
    "total_distance_km": 1057.8,
    "latitude": 33.950916,
    "longitude": 130.924104,
    "is_shadow_confederation": false
  },
  {
    "rank": 2,
    "team_name": "鹿児島大学",
    "team_short_name": "鹿大",
    "runner_name": "喜入",
    "total_distance_km": 952.4,
    "latitude": 34.05254471451927,
    "longitude": 131.81054808932055,
    "is_shadow_confederation": false
  },
  {
    "rank": 3,
    "team_name": "熊本学園大学",
    "team_short_name": "熊学",
    "runner_name": "菊池",
    "total_distance_km": 907.0,
    "latitude": 34.17061355736739,
    "longitude": 132.20734426571258,
    "is_shadow_confederation": false
  },
  {
    "rank": 4,
    "team_name": "福岡大学",
    "team_short_name": "福岡",
    "runner_name": "佐賀（佐賀）",
    "total_distance_km": 894.5,
    "latitude": 34.26137645198884,
    "longitude": 132.2386610222525,
    "is_shadow_confederation": false
  },
  {
    "rank": 5,
    "team_name": "四国大学",
    "team_short_name": "四国",
    "runner_name": "西条",
    "total_distance_km": 860.2,
    "latitude": 34.369103273256925,
    "longitude": 132.52466468704398,
    "is_shadow_confederation": false
  },
  {
    "rank": 6,
    "team_name": "広島経済大学",
    "team_short_name": "広経",
    "runner_name": "引田",
    "total_distance_km": 838.5,
    "latitude": 34.43439168367655,
    "longitude": 132.69906612700277,
    "is_shadow_confederation": false
  },
  {
    "rank": 7,
    "team_name": "関西大学",
    "team_short_name": "関大",
    "runner_name": "郡家",
    "total_distance_km": 825.3,
    "latitude": 34.40561603723825,
    "longitude": 132.82327195955426,
    "is_shadow_confederation": false
  },
  {
    "rank": 8,
    "team_name": "名古屋大学",
    "team_short_name": "名大",
    "runner_name": "大府",
    "total_distance_km": 819.9,
    "latitude": 34.3963172230958,
    "longitude": 132.87746024755126,
    "is_shadow_confederation": false
  },
  {
    "rank": 9,
    "team_name": "鳥取大学",
    "team_short_name": "鳥取",
    "runner_name": "玖珂",
    "total_distance_km": 819.6,
    "latitude": 34.395999314916935,
    "longitude": 132.8807001359107,
    "is_shadow_confederation": false
  },
  {
    "rank": 10,
    "team_name": "三重大学",
    "team_short_name": "三重",
    "runner_name": "和歌山",
    "total_distance_km": 811.2,
    "latitude": 34.401710854101935,
    "longitude": 132.95194677058194,
    "is_shadow_confederation": false
  },
  {
    "rank": 11,
    "team_name": "立命館大学",
    "team_short_name": "立命",
    "runner_name": "京都",
    "total_distance_km": 779.5,
    "latitude": 34.43448842220273,
    "longitude": 133.23009449170667,
    "is_shadow_confederation": false
  },
  {
    "rank": 12,
    "team_name": "上武大学",
    "team_short_name": "上武",
    "runner_name": "前橋",
    "total_distance_km": 775.2,
    "latitude": 34.45441449183329,
    "longitude": 133.26641651672057,
    "is_shadow_confederation": false
  },
  {
    "rank": 13,
    "team_name": "日本大学",
    "team_short_name": "日大",
    "runner_name": "府中（東京）",
    "total_distance_km": 771.5,
    "latitude": 34.470110327585246,
    "longitude": 133.30185236630498,
    "is_shadow_confederation": false
  },
  {
    "rank": 14,
    "team_name": "金沢大学",
    "team_short_name": "金沢",
    "runner_name": "小松",
    "total_distance_km": 766.6,
    "latitude": 34.48515062830653,
    "longitude": 133.3472262787793,
    "is_shadow_confederation": false
  },
  {
    "rank": 15,
    "team_name": "山梨学院大学",
    "team_short_name": "山学",
    "runner_name": "上田",
    "total_distance_km": 762.9,
    "latitude": 34.487744849030435,
    "longitude": 133.38676934266243,
    "is_shadow_confederation": false
  },
  {
    "rank": 16,
    "team_name": "学連選抜",
    "team_short_name": "学連",
    "runner_name": "加世田",
    "total_distance_km": 731.2,
    "latitude": 34.565986813971556,
    "longitude": 133.6890624780661,
    "is_shadow_confederation": false
  },
  {
    "rank": 17,
    "team_name": "福島大学",
    "team_short_name": "福島",
    "runner_name": "寺泊",
    "total_distance_km": 674.2,
    "latitude": 34.7663460099907,
    "longitude": 134.22676325924814,
    "is_shadow_confederation": false
  },
  {
    "rank": 18,
    "team_name": "東北大学",
    "team_short_name": "東北",
    "runner_name": "丸森",
    "total_distance_km": 583.2,
    "latitude": 34.62805430360776,
    "longitude": 135.0444719419752,
    "is_shadow_confederation": false
  }
]