[
  {
    "rank": 1,
    "team_name": "名古屋大学",
    "team_short_name": "名大",
    "runner_name": "美濃",
    "total_distance_km": 207.8,
    "latitude": 34.83681669473126,
    "longitude": 138.11741963200993,
    "is_shadow_confederation": false
  },
  {
    "rank": 2,
    "team_name": "四国大学",
    "team_short_name": "四国",
    "runner_name": "大三島",
    "total_distance_km": 205.1,
    "latitude": 34.842126855492346,
    "longitude": 138.14470490117307,
    "is_shadow_confederation": false
  },
  {
    "rank": 3,
    "team_name": "熊本学園大学",
    "team_short_name": "熊学",
    "runner_name": "岱明",
    "total_distance_km": 201.9,
    "latitude": 34.84857671361402,
    "longitude": 138.17817956248194,
    "is_shadow_confederation": false
  },
  {
    "rank": 4,
    "team_name": "福岡大学",
    "team_short_name": "福岡",
    "runner_name": "福岡",
    "total_distance_km": 200.8,
    "latitude": 34.85001356749499,
    "longitude": 138.18959652232292,
    "is_shadow_confederation": false
  },
  {
    "rank": 5,
    "team_name": "立命館大学",
    "team_short_name": "立命",
    "runner_name": "福知山",
    "total_distance_km": 200.1,
    "latitude": 34.85242181779566,
    "longitude": 138.1966665963508,
    "is_shadow_confederation": false
  },
  {
    "rank": 6,
    "team_name": "関西大学",
    "team_short_name": "関大",
    "runner_name": "和田山",
    "total_distance_km": 199.8,
    "latitude": 34.853423732586435,
    "longitude": 138.19971357489803,
    "is_shadow_confederation": false
  },
  {
    "rank": 7,
    "team_name": "金沢大学",
    "team_short_name": "金沢",
    "runner_name": "小浜",
    "total_distance_km": 199.7,
    "latitude": 34.85375770418336,
    "longitude": 138.20072923441376,
    "is_shadow_confederation": false
  },
  {
    "rank": 8,
    "team_name": "広島経済大学",
    "team_short_name": "広経",
    "runner_name": "加計",
    "total_distance_km": 199.5,
    "latitude": 34.85442564737721,
    "longitude": 138.20276055344524,
    "is_shadow_confederation": false
  },
  {
    "rank": 9,
    "team_name": "琉球大学",
    "team_short_name": "琉球",
    "runner_name": "仲筋",
    "total_distance_km": 199.4,
    "latitude": 34.85475961897414,
    "longitude": 138.203776212961,
    "is_shadow_confederation": false
  },
  {
    "rank": 10,
    "team_name": "鳥取大学",
    "team_short_name": "鳥取",
    "runner_name": "鳥取",
    "total_distance_km": 198.0,
    "latitude": 34.864698108983404,
    "longitude": 138.21223976592668,
    "is_shadow_confederation": false
  },
  {
    "rank": 11,
    "team_name": "上武大学",
    "team_short_name": "上武",
    "runner_name": "越谷",
    "total_distance_km": 196.7,
    "latitude": 34.86950186215921,
    "longitude": 138.2242894646782,
    "is_shadow_confederation": false
  },
  {
    "rank": 12,
    "team_name": "日本大学",
    "team_short_name": "日大",
    "runner_name": "古河",
    "total_distance_km": 196.0,
    "latitude": 34.873296549015805,
    "longitude": 138.2301649777746,
    "is_shadow_confederation": false
  },
  {
    "rank": 13,
    "team_name": "鹿児島大学",
    "team_short_name": "鹿大",
    "runner_name": "川内（鹿児島）",
    "total_distance_km": 195.7,
    "latitude": 34.875523594993055,
    "longitude": 138.23202629522328,
    "is_shadow_confederation": false
  },
  {
    "rank": 14,
    "team_name": "三重大学",
    "team_short_name": "三重",
    "runner_name": "五條",
    "total_distance_km": 194.9,
    "latitude": 34.88078811537418,
    "longitude": 138.23781705325726,
    "is_shadow_confederation": false
  },
  {
    "rank": 15,
    "team_name": "山梨学院大学",
    "team_short_name": "山学",
    "runner_name": "南信濃",
    "total_distance_km": 190.7,
    "latitude": 34.89794885035018,
    "longitude": 138.27821591417538,
    "is_shadow_confederation": false
  },
  {
    "rank": 16,
    "team_name": "福島大学",
    "team_short_name": "福島",
    "runner_name": "石川",
    "total_distance_km": 189.7,
    "latitude": 34.90392159451466,
    "longitude": 138.28640181695005,
    "is_shadow_confederation": false
  },
  {
    "rank": 17,
    "team_name": "東北大学",
    "team_short_name": "東北",
    "runner_name": "山形（山形）",
    "total_distance_km": 161.3,
    "latitude": 35.04661951525662,
    "longitude": 138.5103643909131,
    "is_shadow_confederation": false
  },
  {
    "rank": 18,
    "team_name": "学連選抜",
    "team_short_name": "学連",
    "runner_name": "新潟",
    "total_distance_km": 155.5,
    "latitude": 35.08435507586956,
    "longitude": 138.54781859372216,
    "is_shadow_confederation": false
  },
  {
    "rank": null,
    "team_name": "区間記録連合",
    "team_short_name": "区間記録",
    "runner_name": "佐野",
    "total_distance_km": 228.7,
    "latitude": 34.760721880038666,
    "longitude": 137.94845527579187,
    "is_shadow_confederation": true
  }
]