[
  {
    "rank": 1,
    "team_name": "琉球大学",
    "team_short_name": "琉球",
    "runner_name": "ゴール",
    "total_distance_km": 1057.8,
    "latitude": 33.950916,
    "longitude": 130.924104,
    "is_shadow_confederation": false
  },
  {
    "rank": 2,
    "team_name": "鹿児島大学",
    "team_short_name": "鹿大",
    "runner_name": "ゴール",
    "total_distance_km": 1056.2,
    "latitude": 33.95222710186592,
    "longitude": 130.9325647285639,
    "is_shadow_confederation": false
  },
  {
    "rank": 3,
    "team_name": "熊本学園大学",
    "team_short_name": "熊学",
    "runner_name": "日田",
    "total_distance_km": 1062.3,
    "latitude": 33.950916,
    "longitude": 130.924104,
    "is_shadow_confederation": false
  },
  {
    "rank": 4,
    "team_name": "福岡大学",
    "team_short_name": "福岡",
    "runner_name": "太宰府",
    "total_distance_km": 1049.3,
    "latitude": 33.9871961595434,
    "longitude": 130.98967624655074,
    "is_shadow_confederation": false
  },
  {
    "rank": 5,
    "team_name": "四国大学",
    "team_short_name": "四国",
    "runner_name": "中村",
    "total_distance_km": 1019.1,
    "latitude": 34.04506007010068,
    "longitude": 131.21703927587896,
    "is_shadow_confederation": false
  },
  {
    "rank": 6,
    "team_name": "広島経済大学",
    "team_short_name": "広経",
    "runner_name": "財田",
    "total_distance_km": 989.3,
    "latitude": 34.06693418815933,
    "longitude": 131.47437014149867,
    "is_shadow_confederation": false
  },
  {
    "rank": 7,
    "team_name": "鳥取大学",
    "team_short_name": "鳥取",
    "runner_name": "山口（山口）",
    "total_distance_km": 969.1,
    "latitude": 34.06307719129635,
    "longitude": 131.6600838540252,
    "is_shadow_confederation": false
  },
  {
    "rank": 8,
    "team_name": "関西大学",
    "team_short_name": "関大",
    "runner_name": "大阪",
    "total_distance_km": 967.3,
    "latitude": 34.07207310114586,
    "longitude": 131.67588993961337,
    "is_shadow_confederation": false
  },
  {
    "rank": 9,
    "team_name": "名古屋大学",
    "team_short_name": "名大",
    "runner_name": "岐阜",
    "total_distance_km": 963.8,
    "latitude": 34.07443502667971,
    "longitude": 131.70503675212655,
    "is_shadow_confederation": false
  },
  {
    "rank": 10,
    "team_name": "三重大学",
    "team_short_name": "三重",
    "runner_name": "桑名",
    "total_distance_km": 956.6,
    "latitude": 34.070496323458244,
    "longitude": 131.77552111164047,
    "is_shadow_confederation": false
  },
  {
    "rank": 11,
    "team_name": "日本大学",
    "team_short_name": "日大",
    "runner_name": "海老名",
    "total_distance_km": 923.0,
    "latitude": 34.09580582263266,
    "longitude": 132.07550624058499,
    "is_shadow_confederation": false
  },
  {
    "rank": 12,
    "team_name": "上武大学",
    "team_short_name": "上武",
    "runner_name": "館林",
    "total_distance_km": 916.8,
    "latitude": 34.12371833491461,
    "longitude": 132.1318126913635,
    "is_shadow_confederation": false
  },
  {
    "rank": 13,
    "team_name": "立命館大学",
    "team_short_name": "立命",
    "runner_name": "園部",
    "total_distance_km": 914.3,
    "latitude": 34.13636999365058,
    "longitude": 132.15252441764883,
    "is_shadow_confederation": false
  },
  {
    "rank": 14,
    "team_name": "金沢大学",
    "team_short_name": "金沢",
    "runner_name": "大野（福井）",
    "total_distance_km": 905.7,
    "latitude": 34.173820232112995,
    "longitude": 132.2203331793288,
    "is_shadow_confederation": false
  },
  {
    "rank": 15,
    "team_name": "山梨学院大学",
    "team_short_name": "山学",
    "runner_name": "佐久間",
    "total_distance_km": 885.2,
    "latitude": 34.31712847440328,
    "longitude": 132.30835557672015,
    "is_shadow_confederation": false
  },
  {
    "rank": 16,
    "team_name": "学連選抜",
    "team_short_name": "学連",
    "runner_name": "恵那",
    "total_distance_km": 873.4,
    "latitude": 34.37777029974892,
    "longitude": 132.39920480780768,
    "is_shadow_confederation": false
  },
  {
    "rank": 17,
    "team_name": "福島大学",
    "team_short_name": "福島",
    "runner_name": "喜多方",
    "total_distance_km": 789.9,
    "latitude": 34.394691522017744,
    "longitude": 133.15403436779178,
    "is_shadow_confederation": false
  },
  {
    "rank": 18,
    "team_name": "東北大学",
    "team_short_name": "東北",
    "runner_name": "秋田",
    "total_distance_km": 707.1,
    "latitude": 34.65613839773324,
    "longitude": 133.91212999082862,
    "is_shadow_confederation": false
  }
]