[
  {
    "rank": 1,
    "team_name": "琉球大学",
    "team_short_name": "琉球",
    "runner_name": "西表島",
    "total_distance_km": 808.7,
    "latitude": 34.40449265827847,
    "longitude": 132.97694891580463,
    "is_shadow_confederation": false
  },
  {
    "rank": 2,
    "team_name": "鹿児島大学",
    "team_short_name": "鹿大",
    "runner_name": "鹿児島",
    "total_distance_km": 701.4,
    "latitude": 34.67354880536315,
    "longitude": 133.96430219412622,
    "is_shadow_confederation": false
  },
  {
    "rank": 3,
    "team_name": "熊本学園大学",
    "team_short_name": "熊学",
    "runner_name": "犬飼",
    "total_distance_km": 677.7,
    "latitude": 34.74883564038832,
    "longitude": 134.19614397276953,
    "is_shadow_confederation": false
  },
  {
    "rank": 4,
    "team_name": "福岡大学",
    "team_short_name": "福岡",
    "runner_name": "博多",
    "total_distance_km": 657.1,
    "latitude": 34.828094696355734,
    "longitude": 134.36172997802484,
    "is_shadow_confederation": false
  },
  {
    "rank": 5,
    "team_name": "四国大学",
    "team_short_name": "四国",
    "runner_name": "徳島",
    "total_distance_km": 623.7,
    "latitude": 34.832211697619414,
    "longitude": 134.69746807206766,
    "is_shadow_confederation": false
  },
  {
    "rank": 6,
    "team_name": "広島経済大学",
    "team_short_name": "広経",
    "runner_name": "高松（香川）",
    "total_distance_km": 604.6,
    "latitude": 34.74239848319714,
    "longitude": 134.86770799748336,
    "is_shadow_confederation": false
  },
  {
    "rank": 7,
    "team_name": "名古屋大学",
    "team_short_name": "名大",
    "runner_name": "豊田（愛知）",
    "total_distance_km": 591.3,
    "latitude": 34.65961361177671,
    "longitude": 134.9697466367802,
    "is_shadow_confederation": false
  },
  {
    "rank": 8,
    "team_name": "関西大学",
    "team_short_name": "関大",
    "runner_name": "豊中",
    "total_distance_km": 587.6,
    "latitude": 34.64653776348232,
    "longitude": 135.00386435498473,
    "is_shadow_confederation": false
  },
  {
    "rank": 9,
    "team_name": "鳥取大学",
    "team_short_name": "鳥取",
    "runner_name": "松江",
    "total_distance_km": 586.0,
    "latitude": 34.64213455315641,
    "longitude": 135.02029885103764,
    "is_shadow_confederation": false
  },
  {
    "rank": 10,
    "team_name": "三重大学",
    "team_short_name": "三重",
    "runner_name": "新宮",
    "total_distance_km": 576.2,
    "latitude": 34.64494375247727,
    "longitude": 135.11593070673072,
    "is_shadow_confederation": false
  },
  {
    "rank": 11,
    "team_name": "立命館大学",
    "team_short_name": "立命",
    "runner_name": "彦根",
    "total_distance_km": 574.0,
    "latitude": 34.656485001052054,
    "longitude": 135.13527782120622,
    "is_shadow_confederation": false
  },
  {
    "rank": 12,
    "team_name": "金沢大学",
    "team_short_name": "金沢",
    "runner_name": "富山",
    "total_distance_km": 554.2,
    "latitude": 34.73604027018434,
    "longitude": 135.32301063148284,
    "is_shadow_confederation": false
  },
  {
    "rank": 13,
    "team_name": "日本大学",
    "team_short_name": "日大",
    "runner_name": "八王子",
    "total_distance_km": 553.0,
    "latitude": 34.73849674905596,
    "longitude": 135.33566933398583,
    "is_shadow_confederation": false
  },
  {
    "rank": 14,
    "team_name": "上武大学",
    "team_short_name": "上武",
    "runner_name": "伊勢崎",
    "total_distance_km": 550.4,
    "latitude": 34.73495204679745,
    "longitude": 135.3636556179074,
    "is_shadow_confederation": false
  },
  {
    "rank": 15,
    "team_name": "山梨学院大学",
    "team_short_name": "山学",
    "runner_name": "甲府",
    "total_distance_km": 526.5,
    "latitude": 34.743074584939556,
    "longitude": 135.56981610839927,
    "is_shadow_confederation": false
  },
  {
    "rank": 16,
    "team_name": "学連選抜",
    "team_short_name": "学連",
    "runner_name": "久世",
    "total_distance_km": 490.6,
    "latitude": 34.994791660857004,
    "longitude": 135.75256977593602,
    "is_shadow_confederation": false
  },
  {
    "rank": 17,
    "team_name": "福島大学",
    "team_short_name": "福島",
    "runner_name": "福島",
    "total_distance_km": 481.8,
    "latitude": 34.98971116368628,
    "longitude": 135.82069173629762,
    "is_shadow_confederation": false
  },
  {
    "rank": 18,
    "team_name": "東北大学",
    "team_short_name": "東北",
    "runner_name": "大館",
    "total_distance_km": 403.7,
    "latitude": 34.877532522079385,
    "longitude": 136.5109998921177,
    "is_shadow_confederation": false
  }
]