[
  {
    "rank": 1,
    "team_name": "琉球大学",
    "team_short_name": "琉球",
    "runner_name": "那覇",
    "total_distance_km": 671.1,
    "latitude": 34.78134067577084,
    "longitude": 134.25454714382593,
    "is_shadow_confederation": false
  },
  {
    "rank": 2,
    "team_name": "熊本学園大学",
    "team_short_name": "熊学",
    "runner_name": "大分",
    "total_distance_km": 616.4,
    "latitude": 34.7993163472405,
    "longitude": 134.76448824886782,
    "is_shadow_confederation": false
  },
  {
    "rank": 3,
    "team_name": "鹿児島大学",
    "team_short_name": "鹿大",
    "runner_name": "笠利",
    "total_distance_km": 607.4,
    "latitude": 34.759493356760196,
    "longitude": 134.84527000617516,
    "is_shadow_confederation": false
  },
  {
    "rank": 4,
    "team_name": "福岡大学",
    "team_short_name": "福岡",
    "runner_name": "博多",
    "total_distance_km": 604.7,
    "latitude": 34.74303446262772,
    "longitude": 134.86693410398297,
    "is_shadow_confederation": false
  },
  {
    "rank": 5,
    "team_name": "立命館大学",
    "team_short_name": "立命",
    "runner_name": "彦根",
    "total_distance_km": 595.1,
    "latitude": 34.683317808832896,
    "longitude": 134.94034393076464,
    "is_shadow_confederation": false
  },
  {
    "rank": 6,
    "team_name": "関西大学",
    "team_short_name": "関大",
    "runner_name": "豊中",
    "total_distance_km": 592.3,
    "latitude": 34.66613883733489,
    "longitude": 134.96224998780576,
    "is_shadow_confederation": false
  },
  {
    "rank": 7,
    "team_name": "名古屋大学",
    "team_short_name": "名大",
    "runner_name": "豊田（愛知）",
    "total_distance_km": 592.0,
    "latitude": 34.66407490664796,
    "longitude": 134.96436486943236,
    "is_shadow_confederation": false
  },
  {
    "rank": 8,
    "team_name": "鳥取大学",
    "team_short_name": "鳥取",
    "runner_name": "松江",
    "total_distance_km": 590.8,
    "latitude": 34.655948775809115,
    "longitude": 134.97260831634551,
    "is_shadow_confederation": false
  },
  {
    "rank": 9,
    "team_name": "四国大学",
    "team_short_name": "四国",
    "runner_name": "徳島",
    "total_distance_km": 590.5,
    "latitude": 34.65378619616742,
    "longitude": 134.97448120989552,
    "is_shadow_confederation": false
  },
  {
    "rank": 10,
    "team_name": "広島経済大学",
    "team_short_name": "広経",
    "runner_name": "高松（香川）",
    "total_distance_km": 587.5,
    "latitude": 34.64644691104805,
    "longitude": 135.00494957195934,
    "is_shadow_confederation": false
  },
  {
    "rank": 11,
    "team_name": "山梨学院大学",
    "team_short_name": "山学",
    "runner_name": "静岡",
    "total_distance_km": 586.0,
    "latitude": 34.64213455315641,
    "longitude": 135.02029885103764,
    "is_shadow_confederation": false
  },
  {
    "rank": 12,
    "team_name": "三重大学",
    "team_short_name": "三重",
    "runner_name": "新宮",
    "total_distance_km": 582.4,
    "latitude": 34.628193006137266,
    "longitude": 135.05319449916055,
    "is_shadow_confederation": false
  },
  {
    "rank": 13,
    "team_name": "上武大学",
    "team_short_name": "上武",
    "runner_name": "伊勢崎",
    "total_distance_km": 581.0,
    "latitude": 34.629600614738806,
    "longitude": 135.06832293797825,
    "is_shadow_confederation": false
  },
  {
    "rank": 14,
    "team_name": "金沢大学",
    "team_short_name": "金沢",
    "runner_name": "富山",
    "total_distance_km": 576.5,
    "latitude": 34.643340149921805,
    "longitude": 135.1135506874402,
    "is_shadow_confederation": false
  },
  {
    "rank": 15,
    "team_name": "日本大学",
    "team_short_name": "日大",
    "runner_name": "八王子",
    "total_distance_km": 556.9,
    "latitude": 34.72913157467741,
    "longitude": 135.29478800503378,
    "is_shadow_confederation": false
  },
  {
    "rank": 16,
    "team_name": "福島大学",
    "team_short_name": "福島",
    "runner_name": "福島",
    "total_distance_km": 526.3,
    "latitude": 34.744308996164776,
    "longitude": 135.57140788354224,
    "is_shadow_confederation": false
  },
  {
    "rank": 17,
    "team_name": "東北大学",
    "team_short_name": "東北",
    "runner_name": "一関",
    "total_distance_km": 517.0,
    "latitude": 34.80257921919166,
    "longitude": 135.6389656766784,
    "is_shadow_confederation": false
  },
  {
    "rank": 18,
    "team_name": "学連選抜",
    "team_short_name": "学連",
    "runner_name": "久世",
    "total_distance_km": 516.9,
    "latitude": 34.80249027466872,
    "longitude": 135.64005315742392,
    "is_shadow_confederation": false
  }
]