[
  {
    "rank": 1,
    "team_name": "琉球大学",
    "team_short_name": "琉球",
    "runner_name": "石垣島",
    "total_distance_km": 1002.6,
    "latitude": 34.062141769243695,
    "longitude": 131.36395829828638,
    "is_shadow_confederation": false
  },
  {
    "rank": 2,
    "team_name": "鹿児島大学",
    "team_short_name": "鹿大",
    "runner_name": "さつま柏原",
    "total_distance_km": 829.3,
    "latitude": 34.40016331058051,
    "longitude": 132.78411732375804,
    "is_shadow_confederation": false
  },
  {
    "rank": 3,
    "team_name": "熊本学園大学",
    "team_short_name": "熊学",
    "runner_name": "三角",
    "total_distance_km": 804.9,
    "latitude": 34.403807957754495,
    "longitude": 133.01436642677533,
    "is_shadow_confederation": false
  },
  {
    "rank": 4,
    "team_name": "福岡大学",
    "team_short_name": "福岡",
    "runner_name": "大牟田",
    "total_distance_km": 791.1,
    "latitude": 34.391171681380015,
    "longitude": 133.14188898487603,
    "is_shadow_confederation": false
  },
  {
    "rank": 5,
    "team_name": "四国大学",
    "team_short_name": "四国",
    "runner_name": "江川崎",
    "total_distance_km": 747.2,
    "latitude": 34.50049696840857,
    "longitude": 133.54060262699113,
    "is_shadow_confederation": false
  },
  {
    "rank": 6,
    "team_name": "広島経済大学",
    "team_short_name": "広経",
    "runner_name": "福山",
    "total_distance_km": 732.3,
    "latitude": 34.55941277328971,
    "longitude": 133.6801032674996,
    "is_shadow_confederation": false
  },
  {
    "rank": 7,
    "team_name": "鳥取大学",
    "team_short_name": "鳥取",
    "runner_name": "米子",
    "total_distance_km": 716.3,
    "latitude": 34.636884729661304,
    "longitude": 133.81761602933213,
    "is_shadow_confederation": false
  },
  {
    "rank": 8,
    "team_name": "関西大学",
    "team_short_name": "関大",
    "runner_name": "八尾（大阪）",
    "total_distance_km": 714.5,
    "latitude": 34.642722139526285,
    "longitude": 133.8359340047228,
    "is_shadow_confederation": false
  },
  {
    "rank": 9,
    "team_name": "名古屋大学",
    "team_short_name": "名大",
    "runner_name": "名古屋",
    "total_distance_km": 714.0,
    "latitude": 34.644343642266556,
    "longitude": 133.84102233122022,
    "is_shadow_confederation": false
  },
  {
    "rank": 10,
    "team_name": "三重大学",
    "team_short_name": "三重",
    "runner_name": "津",
    "total_distance_km": 705.2,
    "latitude": 34.65609106905875,
    "longitude": 133.93285494378773,
    "is_shadow_confederation": false
  },
  {
    "rank": 11,
    "team_name": "立命館大学",
    "team_short_name": "立命",
    "runner_name": "長浜（滋賀）",
    "total_distance_km": 686.8,
    "latitude": 34.72292607632252,
    "longitude": 134.10278190061615,
    "is_shadow_confederation": false
  },
  {
    "rank": 12,
    "team_name": "上武大学",
    "team_short_name": "上武",
    "runner_name": "小山",
    "total_distance_km": 669.6,
    "latitude": 34.79256439848316,
    "longitude": 134.2620545485888,
    "is_shadow_confederation": false
  },
  {
    "rank": 13,
    "team_name": "日本大学",
    "team_short_name": "日大",
    "runner_name": "練馬",
    "total_distance_km": 665.9,
    "latitude": 34.8162779352501,
    "longitude": 134.28869549540966,
    "is_shadow_confederation": false
  },
  {
    "rank": 14,
    "team_name": "金沢大学",
    "team_short_name": "金沢",
    "runner_name": "敦賀",
    "total_distance_km": 665.3,
    "latitude": 34.820476558599715,
    "longitude": 134.29280661983984,
    "is_shadow_confederation": false
  },
  {
    "rank": 15,
    "team_name": "山梨学院大学",
    "team_short_name": "山学",
    "runner_name": "三島",
    "total_distance_km": 656.2,
    "latitude": 34.8253335588588,
    "longitude": 134.3707722209921,
    "is_shadow_confederation": false
  },
  {
    "rank": 16,
    "team_name": "学連選抜",
    "team_short_name": "学連",
    "runner_name": "多度津",
    "total_distance_km": 617.1,
    "latitude": 34.80345632947759,
    "longitude": 134.7587153652703,
    "is_shadow_confederation": false
  },
  {
    "rank": 17,
    "team_name": "福島大学",
    "team_short_name": "福島",
    "runner_name": "浪江",
    "total_distance_km": 589.9,
    "latitude": 34.65066551283701,
    "longitude": 134.9798268198991,
    "is_shadow_confederation": false
  },
  {
    "rank": 18,
    "team_name": "東北大学",
    "team_short_name": "東北",
    "runner_name": "一関",
    "total_distance_km": 499.7,
    "latitude": 34.91894876169723,
    "longitude": 135.74458284325007,
    "is_shadow_confederation": false
  }
]