[
  {
    "rank": 1,
    "team_name": "琉球大学",
    "team_short_name": "琉球",
    "runner_name": "波照間",
    "total_distance_km": 481.4,
    "latitude": 34.98965154860577,
    "longitude": 135.82507231990252,
    "is_shadow_confederation": false
  },
  {
    "rank": 2,
    "team_name": "鹿児島大学",
    "team_short_name": "鹿大",
    "runner_name": "西米良",
    "total_distance_km": 365.9,
    "latitude": 35.11709715086644,
    "longitude": 136.74869720060713,
    "is_shadow_confederation": false
  },
  {
    "rank": 3,
    "team_name": "熊本学園大学",
    "team_short_name": "熊学",
    "runner_name": "人吉",
    "total_distance_km": 357.5,
    "latitude": 35.124181148783585,
    "longitude": 136.83911133518788,
    "is_shadow_confederation": false
  },
  {
    "rank": 4,
    "team_name": "福岡大学",
    "team_short_name": "福岡",
    "runner_name": "朝倉",
    "total_distance_km": 337.8,
    "latitude": 35.043656933596395,
    "longitude": 137.00703897995592,
    "is_shadow_confederation": false
  },
  {
    "rank": 5,
    "team_name": "名古屋大学",
    "team_short_name": "名大",
    "runner_name": "大垣",
    "total_distance_km": 313.3,
    "latitude": 34.91596718268987,
    "longitude": 137.2146742414103,
    "is_shadow_confederation": false
  },
  {
    "rank": 6,
    "team_name": "四国大学",
    "team_short_name": "四国",
    "runner_name": "御荘",
    "total_distance_km": 311.3,
    "latitude": 34.906350590281654,
    "longitude": 137.23248687485892,
    "is_shadow_confederation": false
  },
  {
    "rank": 7,
    "team_name": "日本大学",
    "team_short_name": "日大",
    "runner_name": "下館",
    "total_distance_km": 301.9,
    "latitude": 34.85667771858161,
    "longitude": 137.31152206202924,
    "is_shadow_confederation": false
  },
  {
    "rank": 8,
    "team_name": "上武大学",
    "team_short_name": "上武",
    "runner_name": "熊谷",
    "total_distance_km": 301.6,
    "latitude": 34.8546219706022,
    "longitude": 137.3136534293913,
    "is_shadow_confederation": false
  },
  {
    "rank": 9,
    "team_name": "三重大学",
    "team_short_name": "三重",
    "runner_name": "小俣",
    "total_distance_km": 299.2,
    "latitude": 34.83628512488335,
    "longitude": 137.327449801084,
    "is_shadow_confederation": false
  },
  {
    "rank": 10,
    "team_name": "広島経済大学",
    "team_short_name": "広経",
    "runner_name": "府中（広島）",
    "total_distance_km": 291.5,
    "latitude": 34.78329645602855,
    "longitude": 137.38056172023133,
    "is_shadow_confederation": false
  },
  {
    "rank": 11,
    "team_name": "鳥取大学",
    "team_short_name": "鳥取",
    "runner_name": "広瀬",
    "total_distance_km": 285.0,
    "latitude": 34.739763012239706,
    "longitude": 137.42118502314696,
    "is_shadow_confederation": false
  },
  {
    "rank": 12,
    "team_name": "関西大学",
    "team_short_name": "関大",
    "runner_name": "上郡",
    "total_distance_km": 282.0,
    "latitude": 34.72217824853982,
    "longitude": 137.44083221936145,
    "is_shadow_confederation": false
  },
  {
    "rank": 13,
    "team_name": "立命館大学",
    "team_short_name": "立命",
    "runner_name": "京田辺",
    "total_distance_km": 271.8,
    "latitude": 34.67965862870543,
    "longitude": 137.52401789780063,
    "is_shadow_confederation": false
  },
  {
    "rank": 14,
    "team_name": "福島大学",
    "team_short_name": "福島",
    "runner_name": "津川",
    "total_distance_km": 251.8,
    "latitude": 34.70014078220614,
    "longitude": 137.72705653921898,
    "is_shadow_confederation": false
  },
  {
    "rank": 15,
    "team_name": "山梨学院大学",
    "team_short_name": "山学",
    "runner_name": "大月",
    "total_distance_km": 249.9,
    "latitude": 34.708052,
    "longitude": 137.7380537547557,
    "is_shadow_confederation": false
  },
  {
    "rank": 16,
    "team_name": "金沢大学",
    "team_short_name": "金沢",
    "runner_name": "七尾",
    "total_distance_km": 230.1,
    "latitude": 34.7568143400258,
    "longitude": 137.93394920260315,
    "is_shadow_confederation": false
  },
  {
    "rank": 17,
    "team_name": "東北大学",
    "team_short_name": "東北",
    "runner_name": "山形（山形）",
    "total_distance_km": 174.9,
    "latitude": 34.97723982911397,
    "longitude": 138.39849631080227,
    "is_shadow_confederation": false
  },
  {
    "rank": 18,
    "team_name": "学連選抜",
    "team_short_name": "学連",
    "runner_name": "美幌",
    "total_distance_km": 88.4,
    "latitude": 35.237286247578865,
    "longitude": 139.11634123572298,
    "is_shadow_confederation": false
  },
  {
    "rank": null,
    "team_name": "区間記録連合",
    "team_short_name": "区間記録",
    "runner_name": "桐生",
    "total_distance_km": 525.8,
    "latitude": 34.747395024227814,
    "longitude": 135.57538732139972,
    "is_shadow_confederation": true
  }
]