[
  {
    "rank": 1,
    "team_name": "名古屋大学",
    "team_short_name": "名大",
    "runner_name": "名古屋",
    "total_distance_km": 666.8,
    "latitude": 34.810326454755725,
    "longitude": 134.2823888205214,
    "is_shadow_confederation": false
  },
  {
    "rank": 2,
    "team_name": "琉球大学",
    "team_short_name": "琉球",
    "runner_name": "久米島",
    "total_distance_km": 664.3,
    "latitude": 34.82724722957181,
    "longitude": 134.30000645827965,
    "is_shadow_confederation": false
  },
  {
    "rank": 3,
    "team_name": "四国大学",
    "team_short_name": "四国",
    "runner_name": "徳島",
    "total_distance_km": 660.5,
    "latitude": 34.84286681763849,
    "longitude": 134.3301412765306,
    "is_shadow_confederation": false
  },
  {
    "rank": 4,
    "team_name": "立命館大学",
    "team_short_name": "立命",
    "runner_name": "彦根",
    "total_distance_km": 656.5,
    "latitude": 34.825707473261325,
    "longitude": 134.36752437074855,
    "is_shadow_confederation": false
  },
  {
    "rank": 5,
    "team_name": "熊本学園大学",
    "team_short_name": "熊学",
    "runner_name": "大分",
    "total_distance_km": 656.2,
    "latitude": 34.8253335588588,
    "longitude": 134.3707722209921,
    "is_shadow_confederation": false
  },
  {
    "rank": 6,
    "team_name": "関西大学",
    "team_short_name": "関大",
    "runner_name": "豊中",
    "total_distance_km": 655.7,
    "latitude": 34.82616657941241,
    "longitude": 134.3760021341805,
    "is_shadow_confederation": false
  },
  {
    "rank": 7,
    "team_name": "福岡大学",
    "team_short_name": "福岡",
    "runner_name": "博多",
    "total_distance_km": 655.2,
    "latitude": 34.82790766577671,
    "longitude": 134.38104350839964,
    "is_shadow_confederation": false
  },
  {
    "rank": 8,
    "team_name": "広島経済大学",
    "team_short_name": "広経",
    "runner_name": "高松（香川）",
    "total_distance_km": 652.0,
    "latitude": 34.832624722271504,
    "longitude": 134.4149380789515,
    "is_shadow_confederation": false
  },
  {
    "rank": 9,
    "team_name": "鹿児島大学",
    "team_short_name": "鹿大",
    "runner_name": "笠利",
    "total_distance_km": 648.4,
    "latitude": 34.82659608552028,
    "longitude": 134.4523291850026,
    "is_shadow_confederation": false
  },
  {
    "rank": 10,
    "team_name": "三重大学",
    "team_short_name": "三重",
    "runner_name": "新宮",
    "total_distance_km": 647.6,
    "latitude": 34.82565376423118,
    "longitude": 134.46059663988515,
    "is_shadow_confederation": false
  },
  {
    "rank": 11,
    "team_name": "山梨学院大学",
    "team_short_name": "山学",
    "runner_name": "静岡",
    "total_distance_km": 640.9,
    "latitude": 34.82702039622612,
    "longitude": 134.5279260905685,
    "is_shadow_confederation": false
  },
  {
    "rank": 12,
    "team_name": "日本大学",
    "team_short_name": "日大",
    "runner_name": "八王子",
    "total_distance_km": 637.4,
    "latitude": 34.83337273527683,
    "longitude": 134.56500114693782,
    "is_shadow_confederation": false
  },
  {
    "rank": 13,
    "team_name": "鳥取大学",
    "team_short_name": "鳥取",
    "runner_name": "松江",
    "total_distance_km": 634.3,
    "latitude": 34.83217381941701,
    "longitude": 134.598488464533,
    "is_shadow_confederation": false
  },
  {
    "rank": 14,
    "team_name": "上武大学",
    "team_short_name": "上武",
    "runner_name": "伊勢崎",
    "total_distance_km": 629.8,
    "latitude": 34.84491251203356,
    "longitude": 134.63358365616105,
    "is_shadow_confederation": false
  },
  {
    "rank": 15,
    "team_name": "金沢大学",
    "team_short_name": "金沢",
    "runner_name": "富山",
    "total_distance_km": 622.9,
    "latitude": 34.830092341152,
    "longitude": 134.70575651588203,
    "is_shadow_confederation": false
  },
  {
    "rank": 16,
    "team_name": "福島大学",
    "team_short_name": "福島",
    "runner_name": "浪江",
    "total_distance_km": 608.1,
    "latitude": 34.76305398989315,
    "longitude": 134.83904207117718,
    "is_shadow_confederation": false
  },
  {
    "rank": 17,
    "team_name": "学連選抜",
    "team_short_name": "学連",
    "runner_name": "多度津",
    "total_distance_km": 598.0,
    "latitude": 34.698072495633916,
    "longitude": 134.91425763133924,
    "is_shadow_confederation": false
  },
  {
    "rank": 18,
    "team_name": "東北大学",
    "team_short_name": "東北",
    "runner_name": "丸森",
    "total_distance_km": 555.1,
    "latitude": 34.73368308445955,
    "longitude": 135.31360906389716,
    "is_shadow_confederation": false
  },
  {
    "rank": null,
    "team_name": "区間記録連合",
    "team_short_name": "区間記録",
    "runner_name": "新居浜",
    "total_distance_km": 679.6,
    "latitude": 34.74303440611091,
    "longitude": 134.17666163716245,
    "is_shadow_confederation": true
  }
]