[
  {
    "rank": 1,
    "team_name": "琉球大学",
    "team_short_name": "琉球",
    "runner_name": "久米島",
    "total_distance_km": 642.4,
    "latitude": 34.82437004908718,
    "longitude": 134.51184741930194,
    "is_shadow_confederation": false
  },
  {
    "rank": 2,
    "team_name": "熊本学園大学",
    "team_short_name": "熊学",
    "runner_name": "大分",
    "total_distance_km": 597.2,
    "latitude": 34.693582913943175,
    "longitude": 134.9210894408341,
    "is_shadow_confederation": false
  },
  {
    "rank": 3,
    "team_name": "福岡大学",
    "team_short_name": "福岡",
    "runner_name": "博多",
    "total_distance_km": 585.4,
    "latitude": 34.639356910201585,
    "longitude": 135.02591408192905,
    "is_shadow_confederation": false
  },
  {
    "rank": 4,
    "team_name": "鹿児島大学",
    "team_short_name": "鹿大",
    "runner_name": "笠利",
    "total_distance_km": 581.2,
    "latitude": 34.62920476642964,
    "longitude": 135.06619508351196,
    "is_shadow_confederation": false
  },
  {
    "rank": 5,
    "team_name": "立命館大学",
    "team_short_name": "立命",
    "runner_name": "彦根",
    "total_distance_km": 574.8,
    "latitude": 34.6521554321717,
    "longitude": 135.12829867383147,
    "is_shadow_confederation": false
  },
  {
    "rank": 6,
    "team_name": "関西大学",
    "team_short_name": "関大",
    "runner_name": "豊中",
    "total_distance_km": 573.1,
    "latitude": 34.66149856824213,
    "longitude": 135.14299410215602,
    "is_shadow_confederation": false
  },
  {
    "rank": 7,
    "team_name": "四国大学",
    "team_short_name": "四国",
    "runner_name": "徳島",
    "total_distance_km": 571.4,
    "latitude": 34.66908749766901,
    "longitude": 135.15848383661572,
    "is_shadow_confederation": false
  },
  {
    "rank": 8,
    "team_name": "鳥取大学",
    "team_short_name": "鳥取",
    "runner_name": "松江",
    "total_distance_km": 570.1,
    "latitude": 34.6762897960492,
    "longitude": 135.16967329403846,
    "is_shadow_confederation": false
  },
  {
    "rank": 9,
    "team_name": "名古屋大学",
    "team_short_name": "名大",
    "runner_name": "豊田（愛知）",
    "total_distance_km": 569.9,
    "latitude": 34.67739784195384,
    "longitude": 135.1713947490266,
    "is_shadow_confederation": false
  },
  {
    "rank": 10,
    "team_name": "広島経済大学",
    "team_short_name": "広経",
    "runner_name": "高松（香川）",
    "total_distance_km": 568.5,
    "latitude": 34.68625139686474,
    "longitude": 135.18172672422787,
    "is_shadow_confederation": false
  },
  {
    "rank": 11,
    "team_name": "山梨学院大学",
    "team_short_name": "山学",
    "runner_name": "静岡",
    "total_distance_km": 563.1,
    "latitude": 34.709268005553376,
    "longitude": 135.23174075028925,
    "is_shadow_confederation": false
  },
  {
    "rank": 12,
    "team_name": "上武大学",
    "team_short_name": "上武",
    "runner_name": "伊勢崎",
    "total_distance_km": 558.7,
    "latitude": 34.72337805943743,
    "longitude": 135.2764124910523,
    "is_shadow_confederation": false
  },
  {
    "rank": 12,
    "team_name": "三重大学",
    "team_short_name": "三重",
    "runner_name": "新宮",
    "total_distance_km": 558.7,
    "latitude": 34.72337805943743,
    "longitude": 135.2764124910523,
    "is_shadow_confederation": false
  },
  {
    "rank": 14,
    "team_name": "金沢大学",
    "team_short_name": "金沢",
    "runner_name": "富山",
    "total_distance_km": 557.8,
    "latitude": 34.72625481705742,
    "longitude": 135.28560024804304,
    "is_shadow_confederation": false
  },
  {
    "rank": 15,
    "team_name": "日本大学",
    "team_short_name": "日大",
    "runner_name": "牛久",
    "total_distance_km": 534.7,
    "latitude": 34.69697713884236,
    "longitude": 135.51775020867515,
    "is_shadow_confederation": false
  },
  {
    "rank": 16,
    "team_name": "福島大学",
    "team_short_name": "福島",
    "runner_name": "福島",
    "total_distance_km": 507.6,
    "latitude": 34.85775082743877,
    "longitude": 135.71188567641695,
    "is_shadow_confederation": false
  },
  {
    "rank": 17,
    "team_name": "東北大学",
    "team_short_name": "東北",
    "runner_name": "一関",
    "total_distance_km": 498.7,
    "latitude": 34.92796025573952,
    "longitude": 135.74483912152562,
    "is_shadow_confederation": false
  },
  {
    "rank": 18,
    "team_name": "学連選抜",
    "team_short_name": "学連",
    "runner_name": "久世",
    "total_distance_km": 498.1,
    "latitude": 34.93336711613481,
    "longitude": 135.74499444220015,
    "is_shadow_confederation": false
  }
]