[
  {
    "rank": 1,
    "team_name": "琉球大学",
    "team_short_name": "琉球",
    "runner_name": "名護",
    "total_distance_km": 358.2,
    "latitude": 35.12481253494158,
    "longitude": 136.8315808237075,
    "is_shadow_confederation": false
  },
  {
    "rank": 2,
    "team_name": "熊本学園大学",
    "team_short_name": "熊学",
    "runner_name": "人吉",
    "total_distance_km": 345.5,
    "latitude": 35.081452412761195,
    "longitude": 136.9388515818839,
    "is_shadow_confederation": false
  },
  {
    "rank": 3,
    "team_name": "福岡大学",
    "team_short_name": "福岡",
    "runner_name": "朝倉",
    "total_distance_km": 334.7,
    "latitude": 35.02264024875423,
    "longitude": 137.02916560871688,
    "is_shadow_confederation": false
  },
  {
    "rank": 4,
    "team_name": "立命館大学",
    "team_short_name": "立命",
    "runner_name": "米原",
    "total_distance_km": 333.6,
    "latitude": 35.01558993045831,
    "longitude": 137.0375467487103,
    "is_shadow_confederation": false
  },
  {
    "rank": 5,
    "team_name": "四国大学",
    "team_short_name": "四国",
    "runner_name": "御荘",
    "total_distance_km": 330.2,
    "latitude": 34.997530402933386,
    "longitude": 137.06705248584228,
    "is_shadow_confederation": false
  },
  {
    "rank": 6,
    "team_name": "鹿児島大学",
    "team_short_name": "鹿大",
    "runner_name": "加久藤",
    "total_distance_km": 328.0,
    "latitude": 34.98706632135496,
    "longitude": 137.08739052497103,
    "is_shadow_confederation": false
  },
  {
    "rank": 7,
    "team_name": "広島経済大学",
    "team_short_name": "広経",
    "runner_name": "府中（広島）",
    "total_distance_km": 325.0,
    "latitude": 34.975610206961385,
    "longitude": 137.1170462920048,
    "is_shadow_confederation": false
  },
  {
    "rank": 8,
    "team_name": "名古屋大学",
    "team_short_name": "名大",
    "runner_name": "大垣",
    "total_distance_km": 324.8,
    "latitude": 34.97448643273438,
    "longitude": 137.11872709060603,
    "is_shadow_confederation": false
  },
  {
    "rank": 9,
    "team_name": "三重大学",
    "team_short_name": "三重",
    "runner_name": "小俣",
    "total_distance_km": 324.1,
    "latitude": 34.97093327144133,
    "longitude": 137.12486255093086,
    "is_shadow_confederation": false
  },
  {
    "rank": 10,
    "team_name": "鳥取大学",
    "team_short_name": "鳥取",
    "runner_name": "広瀬",
    "total_distance_km": 323.5,
    "latitude": 34.96843454437815,
    "longitude": 137.1305723942558,
    "is_shadow_confederation": false
  },
  {
    "rank": 11,
    "team_name": "関西大学",
    "team_short_name": "関大",
    "runner_name": "上郡",
    "total_distance_km": 323.4,
    "latitude": 34.9680006024614,
    "longitude": 137.13149844432417,
    "is_shadow_confederation": false
  },
  {
    "rank": 12,
    "team_name": "山梨学院大学",
    "team_short_name": "山学",
    "runner_name": "大月",
    "total_distance_km": 319.2,
    "latitude": 34.95435570152729,
    "longitude": 137.1735834190589,
    "is_shadow_confederation": false
  },
  {
    "rank": 13,
    "team_name": "金沢大学",
    "team_short_name": "金沢",
    "runner_name": "七尾",
    "total_distance_km": 318.5,
    "latitude": 34.95091367396167,
    "longitude": 137.17994083660764,
    "is_shadow_confederation": false
  },
  {
    "rank": 14,
    "team_name": "上武大学",
    "team_short_name": "上武",
    "runner_name": "熊谷",
    "total_distance_km": 314.0,
    "latitude": 34.91910354027316,
    "longitude": 137.2080936919431,
    "is_shadow_confederation": false
  },
  {
    "rank": 15,
    "team_name": "日本大学",
    "team_short_name": "日大",
    "runner_name": "下館",
    "total_distance_km": 310.0,
    "latitude": 34.89881207418924,
    "longitude": 137.2428895685321,
    "is_shadow_confederation": false
  },
  {
    "rank": 16,
    "team_name": "福島大学",
    "team_short_name": "福島",
    "runner_name": "津川",
    "total_distance_km": 283.7,
    "latitude": 34.72918560272867,
    "longitude": 137.42522202935405,
    "is_shadow_confederation": false
  },
  {
    "rank": 17,
    "team_name": "東北大学",
    "team_short_name": "東北",
    "runner_name": "高畠",
    "total_distance_km": 273.0,
    "latitude": 34.67982703214356,
    "longitude": 137.5112121227675,
    "is_shadow_confederation": false
  },
  {
    "rank": 18,
    "team_name": "学連選抜",
    "team_short_name": "学連",
    "runner_name": "大村",
    "total_distance_km": 263.4,
    "latitude": 34.687444214474894,
    "longitude": 137.60882495500223,
    "is_shadow_confederation": false
  }
]