[
  {
    "rank": 1,
    "team_name": "琉球大学",
    "team_short_name": "琉球",
    "runner_name": "那覇",
    "total_distance_km": 750.2,
    "latitude": 34.5007671318079,
    "longitude": 133.50852576592405,
    "is_shadow_confederation": false
  },
  {
    "rank": 2,
    "team_name": "熊本学園大学",
    "team_short_name": "熊学",
    "runner_name": "犬飼",
    "total_distance_km": 706.5,
    "latitude": 34.65619556424264,
    "longitude": 133.91867495650604,
    "is_shadow_confederation": false
  },
  {
    "rank": 3,
    "team_name": "福岡大学",
    "team_short_name": "福岡",
    "runner_name": "口之津",
    "total_distance_km": 689.7,
    "latitude": 34.708956497395924,
    "longitude": 134.08029391520483,
    "is_shadow_confederation": false
  },
  {
    "rank": 4,
    "team_name": "鹿児島大学",
    "team_short_name": "鹿大",
    "runner_name": "鹿児島",
    "total_distance_km": 688.0,
    "latitude": 34.7137306744777,
    "longitude": 134.09588557510673,
    "is_shadow_confederation": false
  },
  {
    "rank": 5,
    "team_name": "名古屋大学",
    "team_short_name": "名大",
    "runner_name": "名古屋",
    "total_distance_km": 685.9,
    "latitude": 34.72678390286541,
    "longitude": 134.1110215279729,
    "is_shadow_confederation": false
  },
  {
    "rank": 6,
    "team_name": "関西大学",
    "team_short_name": "関大",
    "runner_name": "八尾（大阪）",
    "total_distance_km": 682.9,
    "latitude": 34.735292890066155,
    "longitude": 134.14204931529054,
    "is_shadow_confederation": false
  },
  {
    "rank": 7,
    "team_name": "立命館大学",
    "team_short_name": "立命",
    "runner_name": "長浜（滋賀）",
    "total_distance_km": 678.6,
    "latitude": 34.746082535337095,
    "longitude": 134.1869214323266,
    "is_shadow_confederation": false
  },
  {
    "rank": 8,
    "team_name": "鳥取大学",
    "team_short_name": "鳥取",
    "runner_name": "米子",
    "total_distance_km": 677.8,
    "latitude": 34.74846788547753,
    "longitude": 134.19514688457502,
    "is_shadow_confederation": false
  },
  {
    "rank": 9,
    "team_name": "広島経済大学",
    "team_short_name": "広経",
    "runner_name": "福山",
    "total_distance_km": 677.7,
    "latitude": 34.74883564038832,
    "longitude": 134.19614397276953,
    "is_shadow_confederation": false
  },
  {
    "rank": 9,
    "team_name": "四国大学",
    "team_short_name": "四国",
    "runner_name": "新居浜",
    "total_distance_km": 677.7,
    "latitude": 34.74883564038832,
    "longitude": 134.19614397276953,
    "is_shadow_confederation": false
  },
  {
    "rank": 11,
    "team_name": "上武大学",
    "team_short_name": "上武",
    "runner_name": "伊勢崎",
    "total_distance_km": 665.1,
    "latitude": 34.82186037417665,
    "longitude": 134.29420780987363,
    "is_shadow_confederation": false
  },
  {
    "rank": 12,
    "team_name": "山梨学院大学",
    "team_short_name": "山学",
    "runner_name": "静岡",
    "total_distance_km": 663.9,
    "latitude": 34.82905383706697,
    "longitude": 134.30370919500723,
    "is_shadow_confederation": false
  },
  {
    "rank": 13,
    "team_name": "三重大学",
    "team_short_name": "三重",
    "runner_name": "新宮",
    "total_distance_km": 661.3,
    "latitude": 34.84253824398246,
    "longitude": 134.32204099518313,
    "is_shadow_confederation": false
  },
  {
    "rank": 14,
    "team_name": "金沢大学",
    "team_short_name": "金沢",
    "runner_name": "富山",
    "total_distance_km": 657.6,
    "latitude": 34.830411325991854,
    "longitude": 134.35704132153344,
    "is_shadow_confederation": false
  },
  {
    "rank": 15,
    "team_name": "日本大学",
    "team_short_name": "日大",
    "runner_name": "八王子",
    "total_distance_km": 634.4,
    "latitude": 34.83255527751569,
    "longitude": 134.597497994802,
    "is_shadow_confederation": false
  },
  {
    "rank": 16,
    "team_name": "学連選抜",
    "team_short_name": "学連",
    "runner_name": "多度津",
    "total_distance_km": 607.5,
    "latitude": 34.76015218777891,
    "longitude": 134.84452455818845,
    "is_shadow_confederation": false
  },
  {
    "rank": 17,
    "team_name": "福島大学",
    "team_short_name": "福島",
    "runner_name": "浪江",
    "total_distance_km": 597.3,
    "latitude": 34.694134145968135,
    "longitude": 134.92022681126005,
    "is_shadow_confederation": false
  },
  {
    "rank": 18,
    "team_name": "東北大学",
    "team_short_name": "東北",
    "runner_name": "丸森",
    "total_distance_km": 592.1,
    "latitude": 34.6647628835436,
    "longitude": 134.96365990889015,
    "is_shadow_confederation": false
  }
]