[
  {
    "rank": 1,
    "team_name": "琉球大学",
    "team_short_name": "琉球",
    "runner_name": "那覇",
    "total_distance_km": 748.9,
    "latitude": 34.49844314406468,
    "longitude": 133.52232053480216,
    "is_shadow_confederation": false
  },
  {
    "rank": 2,
    "team_name": "鹿児島大学",
    "team_short_name": "鹿大",
    "runner_name": "笠利",
    "total_distance_km": 652.0,
    "latitude": 34.832624722271504,
    "longitude": 134.4149380789515,
    "is_shadow_confederation": false
  },
  {
    "rank": 3,
    "team_name": "熊本学園大学",
    "team_short_name": "熊学",
    "runner_name": "大分",
    "total_distance_km": 634.6,
    "latitude": 34.833078991458834,
    "longitude": 134.59541831610505,
    "is_shadow_confederation": false
  },
  {
    "rank": 4,
    "team_name": "福岡大学",
    "team_short_name": "福岡",
    "runner_name": "博多",
    "total_distance_km": 607.9,
    "latitude": 34.7621569267352,
    "longitude": 134.840937007135,
    "is_shadow_confederation": false
  },
  {
    "rank": 5,
    "team_name": "四国大学",
    "team_short_name": "四国",
    "runner_name": "徳島",
    "total_distance_km": 583.9,
    "latitude": 34.62988892111882,
    "longitude": 135.03727842445682,
    "is_shadow_confederation": false
  },
  {
    "rank": 6,
    "team_name": "広島経済大学",
    "team_short_name": "広経",
    "runner_name": "高松（香川）",
    "total_distance_km": 565.3,
    "latitude": 34.70064362652562,
    "longitude": 135.2118139556965,
    "is_shadow_confederation": false
  },
  {
    "rank": 7,
    "team_name": "名古屋大学",
    "team_short_name": "名大",
    "runner_name": "豊田（愛知）",
    "total_distance_km": 551.2,
    "latitude": 34.73659317124373,
    "longitude": 135.35514944090824,
    "is_shadow_confederation": false
  },
  {
    "rank": 8,
    "team_name": "鳥取大学",
    "team_short_name": "鳥取",
    "runner_name": "松江",
    "total_distance_km": 548.8,
    "latitude": 34.731355291540325,
    "longitude": 135.3805691985439,
    "is_shadow_confederation": false
  },
  {
    "rank": 9,
    "team_name": "関西大学",
    "team_short_name": "関大",
    "runner_name": "豊中",
    "total_distance_km": 548.4,
    "latitude": 34.73037284768217,
    "longitude": 135.38477144675818,
    "is_shadow_confederation": false
  },
  {
    "rank": 10,
    "team_name": "立命館大学",
    "team_short_name": "立命",
    "runner_name": "舞鶴",
    "total_distance_km": 539.6,
    "latitude": 34.69945929747116,
    "longitude": 135.46844451707352,
    "is_shadow_confederation": false
  },
  {
    "rank": 11,
    "team_name": "三重大学",
    "team_short_name": "三重",
    "runner_name": "奈良",
    "total_distance_km": 531.2,
    "latitude": 34.70798440420393,
    "longitude": 135.5462531022594,
    "is_shadow_confederation": false
  },
  {
    "rank": 12,
    "team_name": "日本大学",
    "team_short_name": "日大",
    "runner_name": "牛久",
    "total_distance_km": 520.1,
    "latitude": 34.78255745352609,
    "longitude": 135.62018749017867,
    "is_shadow_confederation": false
  },
  {
    "rank": 13,
    "team_name": "上武大学",
    "team_short_name": "上武",
    "runner_name": "桐生",
    "total_distance_km": 518.7,
    "latitude": 34.79401815463746,
    "longitude": 135.62634143860774,
    "is_shadow_confederation": false
  },
  {
    "rank": 14,
    "team_name": "金沢大学",
    "team_short_name": "金沢",
    "runner_name": "福井",
    "total_distance_km": 518.6,
    "latitude": 34.79487464290014,
    "longitude": 135.62668191867442,
    "is_shadow_confederation": false
  },
  {
    "rank": 15,
    "team_name": "山梨学院大学",
    "team_short_name": "山学",
    "runner_name": "甲府",
    "total_distance_km": 489.1,
    "latitude": 34.99667104536787,
    "longitude": 135.76658221287587,
    "is_shadow_confederation": false
  },
  {
    "rank": 16,
    "team_name": "福島大学",
    "team_short_name": "福島",
    "runner_name": "福島",
    "total_distance_km": 455.9,
    "latitude": 35.0194721796493,
    "longitude": 136.05410774177037,
    "is_shadow_confederation": false
  },
  {
    "rank": 17,
    "team_name": "学連選抜",
    "team_short_name": "学連",
    "runner_name": "久世",
    "total_distance_km": 449.7,
    "latitude": 34.98727193149172,
    "longitude": 136.10954927407576,
    "is_shadow_confederation": false
  },
  {
    "rank": 18,
    "team_name": "東北大学",
    "team_short_name": "東北",
    "runner_name": "大館",
    "total_distance_km": 386.6,
    "latitude": 34.97939028521196,
    "longitude": 136.6279881141886,
    "is_shadow_confederation": false
  }
]