[
  {
    "rank": 1,
    "team_name": "名古屋大学",
    "team_short_name": "名大",
    "runner_name": "愛西",
    "total_distance_km": 409.6,
    "latitude": 34.850309559386375,
    "longitude": 136.46156649701538,
    "is_shadow_confederation": false
  },
  {
    "rank": 2,
    "team_name": "四国大学",
    "team_short_name": "四国",
    "runner_name": "松山",
    "total_distance_km": 401.3,
    "latitude": 34.888552853332996,
    "longitude": 136.53136663451912,
    "is_shadow_confederation": false
  },
  {
    "rank": 3,
    "team_name": "立命館大学",
    "team_short_name": "立命",
    "runner_name": "米原",
    "total_distance_km": 401.2,
    "latitude": 34.8891024478055,
    "longitude": 136.5322337265503,
    "is_shadow_confederation": false
  },
  {
    "rank": 4,
    "team_name": "福岡大学",
    "team_short_name": "福岡",
    "runner_name": "朝倉",
    "total_distance_km": 399.2,
    "latitude": 34.89886712589413,
    "longitude": 136.5481776038702,
    "is_shadow_confederation": false
  },
  {
    "rank": 5,
    "team_name": "熊本学園大学",
    "team_short_name": "熊学",
    "runner_name": "人吉",
    "total_distance_km": 398.1,
    "latitude": 34.90843835471436,
    "longitude": 136.55055030368132,
    "is_shadow_confederation": false
  },
  {
    "rank": 6,
    "team_name": "関西大学",
    "team_short_name": "関大",
    "runner_name": "柏原",
    "total_distance_km": 397.2,
    "latitude": 34.91439830451233,
    "longitude": 136.5564627866224,
    "is_shadow_confederation": false
  },
  {
    "rank": 7,
    "team_name": "琉球大学",
    "team_short_name": "琉球",
    "runner_name": "名護",
    "total_distance_km": 396.3,
    "latitude": 34.9144212370785,
    "longitude": 136.5662319441798,
    "is_shadow_confederation": false
  },
  {
    "rank": 8,
    "team_name": "日本大学",
    "team_short_name": "日大",
    "runner_name": "小田原",
    "total_distance_km": 395.4,
    "latitude": 34.91578882978849,
    "longitude": 136.57573543200007,
    "is_shadow_confederation": false
  },
  {
    "rank": 9,
    "team_name": "広島経済大学",
    "team_short_name": "広経",
    "runner_name": "大竹",
    "total_distance_km": 394.8,
    "latitude": 34.91970855530967,
    "longitude": 136.57977259717444,
    "is_shadow_confederation": false
  },
  {
    "rank": 10,
    "team_name": "鳥取大学",
    "team_short_name": "鳥取",
    "runner_name": "防府",
    "total_distance_km": 394.0,
    "latitude": 34.92480510886634,
    "longitude": 136.5859433272045,
    "is_shadow_confederation": false
  },
  {
    "rank": 11,
    "team_name": "三重大学",
    "team_short_name": "三重",
    "runner_name": "風屋",
    "total_distance_km": 392.1,
    "latitude": 34.937137256229185,
    "longitude": 136.59870167578356,
    "is_shadow_confederation": false
  },
  {
    "rank": 12,
    "team_name": "山梨学院大学",
    "team_short_name": "山学",
    "runner_name": "浜松",
    "total_distance_km": 391.8,
    "latitude": 34.93944438142027,
    "longitude": 136.60041475249542,
    "is_shadow_confederation": false
  },
  {
    "rank": 13,
    "team_name": "上武大学",
    "team_short_name": "上武",
    "runner_name": "寄居",
    "total_distance_km": 390.8,
    "latitude": 34.94713479872391,
    "longitude": 136.60612500820167,
    "is_shadow_confederation": false
  },
  {
    "rank": 14,
    "team_name": "鹿児島大学",
    "team_short_name": "鹿大",
    "runner_name": "西米良",
    "total_distance_km": 385.0,
    "latitude": 34.989924256623446,
    "longitude": 136.6397488647432,
    "is_shadow_confederation": false
  },
  {
    "rank": 15,
    "team_name": "金沢大学",
    "team_short_name": "金沢",
    "runner_name": "志賀",
    "total_distance_km": 382.4,
    "latitude": 35.00778732561435,
    "longitude": 136.654226,
    "is_shadow_confederation": false
  },
  {
    "rank": 16,
    "team_name": "福島大学",
    "team_short_name": "福島",
    "runner_name": "長岡",
    "total_distance_km": 372.9,
    "latitude": 35.0816510612441,
    "longitude": 136.69218143988553,
    "is_shadow_confederation": false
  },
  {
    "rank": 17,
    "team_name": "学連選抜",
    "team_short_name": "学連",
    "runner_name": "上",
    "total_distance_km": 340.9,
    "latitude": 35.060866525407285,
    "longitude": 136.98198632166165,
    "is_shadow_confederation": false
  },
  {
    "rank": 18,
    "team_name": "東北大学",
    "team_short_name": "東北",
    "runner_name": "大館",
    "total_distance_km": 336.5,
    "latitude": 35.03430905951185,
    "longitude": 137.01558781923288,
    "is_shadow_confederation": false
  },
  {
    "rank": null,
    "team_name": "区間記録連合",
    "team_short_name": "区間記録",
    "runner_name": "風屋",
    "total_distance_km": 409.6,
    "latitude": 34.850309559386375,
    "longitude": 136.46156649701538,
    "is_shadow_confederation": true
  }
]