[
  {
    "rank": 1,
    "team_name": "琉球大学",
    "team_short_name": "琉球",
    "runner_name": "仲筋",
    "total_distance_km": 160.7,
    "latitude": 35.04793425133778,
    "longitude": 138.51638960104287,
    "is_shadow_confederation": false
  },
  {
    "rank": 2,
    "team_name": "鹿児島大学",
    "team_short_name": "鹿大",
    "runner_name": "川内（鹿児島）",
    "total_distance_km": 111.8,
    "latitude": 35.136027773859084,
    "longitude": 138.96098484191117,
    "is_shadow_confederation": false
  },
  {
    "rank": 3,
    "team_name": "熊本学園大学",
    "team_short_name": "熊学",
    "runner_name": "甲佐",
    "total_distance_km": 105.3,
    "latitude": 35.168168849826976,
    "longitude": 139.00812221212985,
    "is_shadow_confederation": false
  },
  {
    "rank": 4,
    "team_name": "福岡大学",
    "team_short_name": "福岡",
    "runner_name": "久留米",
    "total_distance_km": 101.8,
    "latitude": 35.18391428106533,
    "longitude": 139.0191166670087,
    "is_shadow_confederation": false
  },
  {
    "rank": 5,
    "team_name": "三重大学",
    "team_short_name": "三重",
    "runner_name": "粥見",
    "total_distance_km": 86.3,
    "latitude": 35.246455526097584,
    "longitude": 139.13545481046876,
    "is_shadow_confederation": false
  },
  {
    "rank": 6,
    "team_name": "名古屋大学",
    "team_short_name": "名大",
    "runner_name": "美濃加茂",
    "total_distance_km": 86.0,
    "latitude": 35.246745640397904,
    "longitude": 139.13871910550623,
    "is_shadow_confederation": false
  },
  {
    "rank": 7,
    "team_name": "四国大学",
    "team_short_name": "四国",
    "runner_name": "穴吹",
    "total_distance_km": 85.7,
    "latitude": 35.24646084918023,
    "longitude": 139.14186749438684,
    "is_shadow_confederation": false
  },
  {
    "rank": 8,
    "team_name": "上武大学",
    "team_short_name": "上武",
    "runner_name": "佐野",
    "total_distance_km": 81.7,
    "latitude": 35.26072584589144,
    "longitude": 139.1787130065588,
    "is_shadow_confederation": false
  },
  {
    "rank": 9,
    "team_name": "日本大学",
    "team_short_name": "日大",
    "runner_name": "大子",
    "total_distance_km": 80.7,
    "latitude": 35.26605991084717,
    "longitude": 139.187213543594,
    "is_shadow_confederation": false
  },
  {
    "rank": 10,
    "team_name": "関西大学",
    "team_short_name": "関大",
    "runner_name": "福崎",
    "total_distance_km": 79.2,
    "latitude": 35.27346964528228,
    "longitude": 139.20081685863028,
    "is_shadow_confederation": false
  },
  {
    "rank": 11,
    "team_name": "鳥取大学",
    "team_short_name": "鳥取",
    "runner_name": "川本",
    "total_distance_km": 73.3,
    "latitude": 35.29739667670196,
    "longitude": 139.25669425462652,
    "is_shadow_confederation": false
  },
  {
    "rank": 12,
    "team_name": "立命館大学",
    "team_short_name": "立命",
    "runner_name": "東近江",
    "total_distance_km": 72.9,
    "latitude": 35.29871498475715,
    "longitude": 139.26078738200246,
    "is_shadow_confederation": false
  },
  {
    "rank": 13,
    "team_name": "広島経済大学",
    "team_short_name": "広経",
    "runner_name": "三次",
    "total_distance_km": 72.2,
    "latitude": 35.30160217461257,
    "longitude": 139.26762107085744,
    "is_shadow_confederation": false
  },
  {
    "rank": 14,
    "team_name": "福島大学",
    "team_short_name": "福島",
    "runner_name": "梁川",
    "total_distance_km": 70.2,
    "latitude": 35.304006490395516,
    "longitude": 139.28889632760158,
    "is_shadow_confederation": false
  },
  {
    "rank": 15,
    "team_name": "金沢大学",
    "team_short_name": "金沢",
    "runner_name": "秋ヶ島",
    "total_distance_km": 56.0,
    "latitude": 35.322811682254404,
    "longitude": 139.4360055939863,
    "is_shadow_confederation": false
  },
  {
    "rank": 16,
    "team_name": "山梨学院大学",
    "team_short_name": "山学",
    "runner_name": "長野",
    "total_distance_km": 48.0,
    "latitude": 35.36554952474171,
    "longitude": 139.49823650073682,
    "is_shadow_confederation": false
  },
  {
    "rank": 17,
    "team_name": "東北大学",
    "team_short_name": "東北",
    "runner_name": "帯広",
    "total_distance_km": 39.1,
    "latitude": 35.42112494471507,
    "longitude": 139.5570327659229,
    "is_shadow_confederation": false
  },
  {
    "rank": 18,
    "team_name": "学連選抜",
    "team_short_name": "学連",
    "runner_name": "美幌",
    "total_distance_km": 2.5,
    "latitude": 35.668938941785406,
    "longitude": 139.75118865834887,
    "is_shadow_confederation": false
  },
  {
    "rank": null,
    "team_name": "区間記録連合",
    "team_short_name": "区間記録",
    "runner_name": "佐野",
    "total_distance_km": 221.2,
    "latitude": 34.77820797323534,
    "longitude": 138.0237578334833,
    "is_shadow_confederation": true
  }
]