[
  {
    "rank": 1,
    "team_name": "鳥取大学",
    "team_short_name": "鳥取",
    "runner_name": "川本",
    "total_distance_km": 31.6,
    "latitude": 35.454637756013256,
    "longitude": 139.61332408772955,
    "is_shadow_confederation": false
  },
  {
    "rank": 2,
    "team_name": "名古屋大学",
    "team_short_name": "名大",
    "runner_name": "美濃加茂",
    "total_distance_km": 31.4,
    "latitude": 35.455503514124416,
    "longitude": 139.615256491393,
    "is_shadow_confederation": false
  },
  {
    "rank": 2,
    "team_name": "関西大学",
    "team_short_name": "関大",
    "runner_name": "福崎",
    "total_distance_km": 31.4,
    "latitude": 35.455503514124416,
    "longitude": 139.615256491393,
    "is_shadow_confederation": false
  },
  {
    "rank": 4,
    "team_name": "広島経済大学",
    "team_short_name": "広経",
    "runner_name": "三次",
    "total_distance_km": 31.3,
    "latitude": 35.45593639317999,
    "longitude": 139.61622269322473,
    "is_shadow_confederation": false
  },
  {
    "rank": 4,
    "team_name": "福岡大学",
    "team_short_name": "福岡",
    "runner_name": "久留米",
    "total_distance_km": 31.3,
    "latitude": 35.45593639317999,
    "longitude": 139.61622269322473,
    "is_shadow_confederation": false
  },
  {
    "rank": 6,
    "team_name": "金沢大学",
    "team_short_name": "金沢",
    "runner_name": "秋ヶ島",
    "total_distance_km": 31.1,
    "latitude": 35.45674995190914,
    "longitude": 139.61818731709226,
    "is_shadow_confederation": false
  },
  {
    "rank": 7,
    "team_name": "山梨学院大学",
    "team_short_name": "山学",
    "runner_name": "長野",
    "total_distance_km": 30.6,
    "latitude": 35.45876160736623,
    "longitude": 139.62304665285848,
    "is_shadow_confederation": false
  },
  {
    "rank": 7,
    "team_name": "四国大学",
    "team_short_name": "四国",
    "runner_name": "穴吹",
    "total_distance_km": 30.6,
    "latitude": 35.45876160736623,
    "longitude": 139.62304665285848,
    "is_shadow_confederation": false
  },
  {
    "rank": 9,
    "team_name": "三重大学",
    "team_short_name": "三重",
    "runner_name": "粥見",
    "total_distance_km": 30.2,
    "latitude": 35.462155830339206,
    "longitude": 139.62400658220406,
    "is_shadow_confederation": false
  },
  {
    "rank": 10,
    "team_name": "立命館大学",
    "team_short_name": "立命",
    "runner_name": "東近江",
    "total_distance_km": 30.1,
    "latitude": 35.46305606651281,
    "longitude": 139.62395271252373,
    "is_shadow_confederation": false
  },
  {
    "rank": 11,
    "team_name": "琉球大学",
    "team_short_name": "琉球",
    "runner_name": "北原",
    "total_distance_km": 30.0,
    "latitude": 35.46395630268642,
    "longitude": 139.62389884284343,
    "is_shadow_confederation": false
  },
  {
    "rank": 12,
    "team_name": "日本大学",
    "team_short_name": "日大",
    "runner_name": "大子",
    "total_distance_km": 29.4,
    "latitude": 35.4687554617706,
    "longitude": 139.62604309486636,
    "is_shadow_confederation": false
  },
  {
    "rank": 13,
    "team_name": "学連選抜",
    "team_short_name": "学連",
    "runner_name": "美幌",
    "total_distance_km": 29.1,
    "latitude": 35.470197742101476,
    "longitude": 139.62841751819926,
    "is_shadow_confederation": false
  },
  {
    "rank": 14,
    "team_name": "上武大学",
    "team_short_name": "上武",
    "runner_name": "佐野",
    "total_distance_km": 27.7,
    "latitude": 35.478953245941156,
    "longitude": 139.63845131273126,
    "is_shadow_confederation": false
  },
  {
    "rank": 15,
    "team_name": "熊本学園大学",
    "team_short_name": "熊学",
    "runner_name": "甲佐",
    "total_distance_km": 26.9,
    "latitude": 35.4837246884236,
    "longitude": 139.64497678885385,
    "is_shadow_confederation": false
  },
  {
    "rank": 16,
    "team_name": "東北大学",
    "team_short_name": "東北",
    "runner_name": "帯広",
    "total_distance_km": 26.5,
    "latitude": 35.484874857195045,
    "longitude": 139.6490917512614,
    "is_shadow_confederation": false
  },
  {
    "rank": 17,
    "team_name": "福島大学",
    "team_short_name": "福島",
    "runner_name": "梁川",
    "total_distance_km": 26.0,
    "latitude": 35.48596349955412,
    "longitude": 139.65443845583073,
    "is_shadow_confederation": false
  },
  {
    "rank": 18,
    "team_name": "鹿児島大学",
    "team_short_name": "鹿大",
    "runner_name": "東市来",
    "total_distance_km": 25.5,
    "latitude": 35.48835319629704,
    "longitude": 139.65893423109853,
    "is_shadow_confederation": false
  },
  {
    "rank": null,
    "team_name": "区間記録連合",
    "team_short_name": "区間記録",
    "runner_name": "梁川",
    "total_distance_km": 39.0,
    "latitude": 35.42108353596651,
    "longitude": 139.55813123784824,
    "is_shadow_confederation": true
  }
]