[
  {
    "rank": 1,
    "team_name": "琉球大学",
    "team_short_name": "琉球",
    "runner_name": "波照間",
    "total_distance_km": 536.2,
    "latitude": 34.697947851695425,
    "longitude": 135.50144293786332,
    "is_shadow_confederation": false
  },
  {
    "rank": 2,
    "team_name": "鹿児島大学",
    "team_short_name": "鹿大",
    "runner_name": "西米良",
    "total_distance_km": 421.3,
    "latitude": 34.87773599209192,
    "longitude": 136.3603790967216,
    "is_shadow_confederation": false
  },
  {
    "rank": 3,
    "team_name": "熊本学園大学",
    "team_short_name": "熊学",
    "runner_name": "人吉",
    "total_distance_km": 414.6,
    "latitude": 34.85353673085339,
    "longitude": 136.4112816161779,
    "is_shadow_confederation": false
  },
  {
    "rank": 4,
    "team_name": "福岡大学",
    "team_short_name": "福岡",
    "runner_name": "朝倉",
    "total_distance_km": 390.6,
    "latitude": 34.94867288218464,
    "longitude": 136.60726705934292,
    "is_shadow_confederation": false
  },
  {
    "rank": 5,
    "team_name": "名古屋大学",
    "team_short_name": "名大",
    "runner_name": "愛西",
    "total_distance_km": 360.8,
    "latitude": 35.1257551556096,
    "longitude": 136.80342972108,
    "is_shadow_confederation": false
  },
  {
    "rank": 6,
    "team_name": "四国大学",
    "team_short_name": "四国",
    "runner_name": "松山",
    "total_distance_km": 354.6,
    "latitude": 35.12493261414584,
    "longitude": 136.8708997538368,
    "is_shadow_confederation": false
  },
  {
    "rank": 7,
    "team_name": "上武大学",
    "team_short_name": "上武",
    "runner_name": "寄居",
    "total_distance_km": 347.3,
    "latitude": 35.09509251370906,
    "longitude": 136.92884825861222,
    "is_shadow_confederation": false
  },
  {
    "rank": 8,
    "team_name": "三重大学",
    "team_short_name": "三重",
    "runner_name": "風屋",
    "total_distance_km": 345.7,
    "latitude": 35.08279968010762,
    "longitude": 136.93739493737556,
    "is_shadow_confederation": false
  },
  {
    "rank": 9,
    "team_name": "日本大学",
    "team_short_name": "日大",
    "runner_name": "小田原",
    "total_distance_km": 343.2,
    "latitude": 35.07044059343548,
    "longitude": 136.95994760899137,
    "is_shadow_confederation": false
  },
  {
    "rank": 10,
    "team_name": "広島経済大学",
    "team_short_name": "広経",
    "runner_name": "大竹",
    "total_distance_km": 343.1,
    "latitude": 35.07011032770544,
    "longitude": 136.96096774012824,
    "is_shadow_confederation": false
  },
  {
    "rank": 11,
    "team_name": "鳥取大学",
    "team_short_name": "鳥取",
    "runner_name": "防府",
    "total_distance_km": 337.2,
    "latitude": 35.039418076732424,
    "longitude": 137.011100209757,
    "is_shadow_confederation": false
  },
  {
    "rank": 12,
    "team_name": "関西大学",
    "team_short_name": "関大",
    "runner_name": "上郡",
    "total_distance_km": 330.4,
    "latitude": 34.99841402936969,
    "longitude": 137.06514305983268,
    "is_shadow_confederation": false
  },
  {
    "rank": 13,
    "team_name": "立命館大学",
    "team_short_name": "立命",
    "runner_name": "京田辺",
    "total_distance_km": 324.2,
    "latitude": 34.97131783118832,
    "longitude": 137.12387215697927,
    "is_shadow_confederation": false
  },
  {
    "rank": 14,
    "team_name": "山梨学院大学",
    "team_short_name": "山学",
    "runner_name": "大月",
    "total_distance_km": 295.1,
    "latitude": 34.809259345446534,
    "longitude": 137.35699374915248,
    "is_shadow_confederation": false
  },
  {
    "rank": 15,
    "team_name": "福島大学",
    "team_short_name": "福島",
    "runner_name": "津川",
    "total_distance_km": 293.8,
    "latitude": 34.79966202581532,
    "longitude": 137.3651455000115,
    "is_shadow_confederation": false
  },
  {
    "rank": 16,
    "team_name": "金沢大学",
    "team_short_name": "金沢",
    "runner_name": "七尾",
    "total_distance_km": 270.5,
    "latitude": 34.68137101287217,
    "longitude": 137.53805056354898,
    "is_shadow_confederation": false
  },
  {
    "rank": 17,
    "team_name": "東北大学",
    "team_short_name": "東北",
    "runner_name": "山形（山形）",
    "total_distance_km": 216.4,
    "latitude": 34.79027208238097,
    "longitude": 138.071207724254,
    "is_shadow_confederation": false
  },
  {
    "rank": 18,
    "team_name": "学連選抜",
    "team_short_name": "学連",
    "runner_name": "新潟",
    "total_distance_km": 116.0,
    "latitude": 35.1209950017629,
    "longitude": 138.9244392760657,
    "is_shadow_confederation": false
  },
  {
    "rank": null,
    "team_name": "区間記録連合",
    "team_short_name": "区間記録",
    "runner_name": "桐生",
    "total_distance_km": 536.2,
    "latitude": 34.697947851695425,
    "longitude": 135.50144293786332,
    "is_shadow_confederation": true
  }
]