[
  {
    "rank": 1,
    "team_name": "琉球大学",
    "team_short_name": "琉球",
    "runner_name": "波照間",
    "total_distance_km": 500.9,
    "latitude": 34.90813496884648,
    "longitude": 135.74427530931945,
    "is_shadow_confederation": false
  },
  {
    "rank": 2,
    "team_name": "熊本学園大学",
    "team_short_name": "熊学",
    "runner_name": "熊本",
    "total_distance_km": 443.0,
    "latitude": 34.9711035669949,
    "longitude": 136.17676158676244,
    "is_shadow_confederation": false
  },
  {
    "rank": 3,
    "team_name": "鹿児島大学",
    "team_short_name": "鹿大",
    "runner_name": "西都",
    "total_distance_km": 427.8,
    "latitude": 34.913154831567205,
    "longitude": 136.32098765369554,
    "is_shadow_confederation": false
  },
  {
    "rank": 4,
    "team_name": "福岡大学",
    "team_short_name": "福岡",
    "runner_name": "前原",
    "total_distance_km": 418.3,
    "latitude": 34.85875051868236,
    "longitude": 136.3744698341546,
    "is_shadow_confederation": false
  },
  {
    "rank": 5,
    "team_name": "四国大学",
    "team_short_name": "四国",
    "runner_name": "松山",
    "total_distance_km": 403.5,
    "latitude": 34.87780277799801,
    "longitude": 136.51316279245756,
    "is_shadow_confederation": false
  },
  {
    "rank": 6,
    "team_name": "広島経済大学",
    "team_short_name": "広経",
    "runner_name": "大竹",
    "total_distance_km": 393.1,
    "latitude": 34.93151707743443,
    "longitude": 136.59089606041752,
    "is_shadow_confederation": false
  },
  {
    "rank": 7,
    "team_name": "鳥取大学",
    "team_short_name": "鳥取",
    "runner_name": "防府",
    "total_distance_km": 375.5,
    "latitude": 35.06178682534395,
    "longitude": 136.685304241269,
    "is_shadow_confederation": false
  },
  {
    "rank": 8,
    "team_name": "名古屋大学",
    "team_short_name": "名大",
    "runner_name": "愛西",
    "total_distance_km": 370.4,
    "latitude": 35.10008898386195,
    "longitude": 136.7046435696313,
    "is_shadow_confederation": false
  },
  {
    "rank": 9,
    "team_name": "関西大学",
    "team_short_name": "関大",
    "runner_name": "柏原",
    "total_distance_km": 368.5,
    "latitude": 35.10998937616496,
    "longitude": 136.72164843490387,
    "is_shadow_confederation": false
  },
  {
    "rank": 10,
    "team_name": "立命館大学",
    "team_short_name": "立命",
    "runner_name": "米原",
    "total_distance_km": 365.5,
    "latitude": 35.118081123984304,
    "longitude": 136.75291869152508,
    "is_shadow_confederation": false
  },
  {
    "rank": 11,
    "team_name": "三重大学",
    "team_short_name": "三重",
    "runner_name": "風屋",
    "total_distance_km": 363.6,
    "latitude": 35.122729750071194,
    "longitude": 136.77297988321214,
    "is_shadow_confederation": false
  },
  {
    "rank": 12,
    "team_name": "金沢大学",
    "team_short_name": "金沢",
    "runner_name": "志賀",
    "total_distance_km": 346.8,
    "latitude": 35.090979334585526,
    "longitude": 136.9310895766927,
    "is_shadow_confederation": false
  },
  {
    "rank": 13,
    "team_name": "日本大学",
    "team_short_name": "日大",
    "runner_name": "小田原",
    "total_distance_km": 344.2,
    "latitude": 35.07519067111637,
    "longitude": 136.95077767895916,
    "is_shadow_confederation": false
  },
  {
    "rank": 14,
    "team_name": "上武大学",
    "team_short_name": "上武",
    "runner_name": "寄居",
    "total_distance_km": 339.5,
    "latitude": 35.055026314683275,
    "longitude": 136.99480555284927,
    "is_shadow_confederation": false
  },
  {
    "rank": 15,
    "team_name": "山梨学院大学",
    "team_short_name": "山学",
    "runner_name": "大月",
    "total_distance_km": 320.0,
    "latitude": 34.95668267855415,
    "longitude": 137.16529331008584,
    "is_shadow_confederation": false
  },
  {
    "rank": 16,
    "team_name": "福島大学",
    "team_short_name": "福島",
    "runner_name": "津川",
    "total_distance_km": 302.1,
    "latitude": 34.85804821723455,
    "longitude": 137.31010115045453,
    "is_shadow_confederation": false
  },
  {
    "rank": 17,
    "team_name": "学連選抜",
    "team_short_name": "学連",
    "runner_name": "大村",
    "total_distance_km": 268.3,
    "latitude": 34.68802608821821,
    "longitude": 137.56062018083108,
    "is_shadow_confederation": false
  },
  {
    "rank": 18,
    "team_name": "東北大学",
    "team_short_name": "東北",
    "runner_name": "高畠",
    "total_distance_km": 250.6,
    "latitude": 34.708052,
    "longitude": 137.73041276922234,
    "is_shadow_confederation": false
  }
]