[
  {
    "rank": 1,
    "team_name": "琉球大学",
    "team_short_name": "琉球",
    "runner_name": "名護",
    "total_distance_km": 358.6,
    "latitude": 35.12617896987975,
    "longitude": 136.8275197737022,
    "is_shadow_confederation": false
  },
  {
    "rank": 2,
    "team_name": "熊本学園大学",
    "team_short_name": "熊学",
    "runner_name": "人吉",
    "total_distance_km": 346.0,
    "latitude": 35.084500714525234,
    "longitude": 136.9348376893433,
    "is_shadow_confederation": false
  },
  {
    "rank": 3,
    "team_name": "福岡大学",
    "team_short_name": "福岡",
    "runner_name": "朝倉",
    "total_distance_km": 335.8,
    "latitude": 35.02943941804664,
    "longitude": 137.02046572658642,
    "is_shadow_confederation": false
  },
  {
    "rank": 4,
    "team_name": "立命館大学",
    "team_short_name": "立命",
    "runner_name": "米原",
    "total_distance_km": 334.0,
    "latitude": 35.0182327914914,
    "longitude": 137.0346047009066,
    "is_shadow_confederation": false
  },
  {
    "rank": 5,
    "team_name": "四国大学",
    "team_short_name": "四国",
    "runner_name": "御荘",
    "total_distance_km": 331.2,
    "latitude": 35.0019749166742,
    "longitude": 137.05752259614516,
    "is_shadow_confederation": false
  },
  {
    "rank": 6,
    "team_name": "鹿児島大学",
    "team_short_name": "鹿大",
    "runner_name": "加久藤",
    "total_distance_km": 329.1,
    "latitude": 34.99301773839096,
    "longitude": 137.07778127696068,
    "is_shadow_confederation": false
  },
  {
    "rank": 7,
    "team_name": "広島経済大学",
    "team_short_name": "広経",
    "runner_name": "府中（広島）",
    "total_distance_km": 325.7,
    "latitude": 34.978457998512695,
    "longitude": 137.1102261244595,
    "is_shadow_confederation": false
  },
  {
    "rank": 8,
    "team_name": "名古屋大学",
    "team_short_name": "名大",
    "runner_name": "大垣",
    "total_distance_km": 325.4,
    "latitude": 34.977141964909684,
    "longitude": 137.11308830504,
    "is_shadow_confederation": false
  },
  {
    "rank": 9,
    "team_name": "三重大学",
    "team_short_name": "三重",
    "runner_name": "小俣",
    "total_distance_km": 325.2,
    "latitude": 34.97632478235036,
    "longitude": 137.11503546995613,
    "is_shadow_confederation": false
  },
  {
    "rank": 10,
    "team_name": "関西大学",
    "team_short_name": "関大",
    "runner_name": "上郡",
    "total_distance_km": 324.6,
    "latitude": 34.97308628636028,
    "longitude": 137.12010277393742,
    "is_shadow_confederation": false
  },
  {
    "rank": 11,
    "team_name": "鳥取大学",
    "team_short_name": "鳥取",
    "runner_name": "広瀬",
    "total_distance_km": 323.9,
    "latitude": 34.969857224898696,
    "longitude": 137.1266012606154,
    "is_shadow_confederation": false
  },
  {
    "rank": 12,
    "team_name": "山梨学院大学",
    "team_short_name": "山学",
    "runner_name": "大月",
    "total_distance_km": 320.6,
    "latitude": 34.95813952686449,
    "longitude": 137.15899133285245,
    "is_shadow_confederation": false
  },
  {
    "rank": 13,
    "team_name": "金沢大学",
    "team_short_name": "金沢",
    "runner_name": "七尾",
    "total_distance_km": 319.3,
    "latitude": 34.954645493982056,
    "longitude": 137.17254670714607,
    "is_shadow_confederation": false
  },
  {
    "rank": 14,
    "team_name": "上武大学",
    "team_short_name": "上武",
    "runner_name": "熊谷",
    "total_distance_km": 315.2,
    "latitude": 34.927492089409974,
    "longitude": 137.1998089815573,
    "is_shadow_confederation": false
  },
  {
    "rank": 15,
    "team_name": "日本大学",
    "team_short_name": "日大",
    "runner_name": "下館",
    "total_distance_km": 310.5,
    "latitude": 34.9010749482877,
    "longitude": 137.2382013389027,
    "is_shadow_confederation": false
  },
  {
    "rank": 16,
    "team_name": "福島大学",
    "team_short_name": "福島",
    "runner_name": "津川",
    "total_distance_km": 285.7,
    "latitude": 34.74414377147209,
    "longitude": 137.41568339348655,
    "is_shadow_confederation": false
  },
  {
    "rank": 17,
    "team_name": "東北大学",
    "team_short_name": "東北",
    "runner_name": "高畠",
    "total_distance_km": 273.7,
    "latitude": 34.6823606411791,
    "longitude": 137.5080085198284,
    "is_shadow_confederation": false
  },
  {
    "rank": 18,
    "team_name": "学連選抜",
    "team_short_name": "学連",
    "runner_name": "大村",
    "total_distance_km": 263.4,
    "latitude": 34.687444214474894,
    "longitude": 137.60882495500223,
    "is_shadow_confederation": false
  }
]