[
  {
    "rank": 1,
    "team_name": "名古屋大学",
    "team_short_name": "名大",
    "runner_name": "多治見",
    "total_distance_km": 507.7,
    "latitude": 34.85720953239234,
    "longitude": 135.7110112267449,
    "is_shadow_confederation": false
  },
  {
    "rank": 2,
    "team_name": "四国大学",
    "team_short_name": "四国",
    "runner_name": "大洲",
    "total_distance_km": 505.4,
    "latitude": 34.87091599111915,
    "longitude": 135.72947412857005,
    "is_shadow_confederation": false
  },
  {
    "rank": 3,
    "team_name": "福岡大学",
    "team_short_name": "福岡",
    "runner_name": "前原",
    "total_distance_km": 501.2,
    "latitude": 34.90543152063379,
    "longitude": 135.7441984258368,
    "is_shadow_confederation": false
  },
  {
    "rank": 4,
    "team_name": "熊本学園大学",
    "team_short_name": "熊学",
    "runner_name": "熊本",
    "total_distance_km": 500.8,
    "latitude": 34.90903611825071,
    "longitude": 135.74430093714702,
    "is_shadow_confederation": false
  },
  {
    "rank": 5,
    "team_name": "琉球大学",
    "team_short_name": "琉球",
    "runner_name": "波照間",
    "total_distance_km": 499.8,
    "latitude": 34.918047612293,
    "longitude": 135.74455721542253,
    "is_shadow_confederation": false
  },
  {
    "rank": 6,
    "team_name": "立命館大学",
    "team_short_name": "立命",
    "runner_name": "舞鶴",
    "total_distance_km": 497.4,
    "latitude": 34.93967490226163,
    "longitude": 135.74518503603875,
    "is_shadow_confederation": false
  },
  {
    "rank": 7,
    "team_name": "関西大学",
    "team_short_name": "関大",
    "runner_name": "枚方",
    "total_distance_km": 493.3,
    "latitude": 34.976615275384695,
    "longitude": 135.7461809113305,
    "is_shadow_confederation": false
  },
  {
    "rank": 7,
    "team_name": "広島経済大学",
    "team_short_name": "広経",
    "runner_name": "高梁",
    "total_distance_km": 493.3,
    "latitude": 34.976615275384695,
    "longitude": 135.7461809113305,
    "is_shadow_confederation": false
  },
  {
    "rank": 9,
    "team_name": "日本大学",
    "team_short_name": "日大",
    "runner_name": "牛久",
    "total_distance_km": 488.5,
    "latitude": 35.001746121579366,
    "longitude": 135.76885359726646,
    "is_shadow_confederation": false
  },
  {
    "rank": 10,
    "team_name": "鳥取大学",
    "team_short_name": "鳥取",
    "runner_name": "境",
    "total_distance_km": 487.5,
    "latitude": 35.00891148726392,
    "longitude": 135.77147345956834,
    "is_shadow_confederation": false
  },
  {
    "rank": 10,
    "team_name": "鹿児島大学",
    "team_short_name": "鹿大",
    "runner_name": "西都",
    "total_distance_km": 487.5,
    "latitude": 35.00891148726392,
    "longitude": 135.77147345956834,
    "is_shadow_confederation": false
  },
  {
    "rank": 12,
    "team_name": "三重大学",
    "team_short_name": "三重",
    "runner_name": "奈良",
    "total_distance_km": 486.2,
    "latitude": 35.00956375095284,
    "longitude": 135.78567828888583,
    "is_shadow_confederation": false
  },
  {
    "rank": 13,
    "team_name": "山梨学院大学",
    "team_short_name": "山学",
    "runner_name": "甲府",
    "total_distance_km": 484.9,
    "latitude": 35.0015701226741,
    "longitude": 135.79282013098782,
    "is_shadow_confederation": false
  },
  {
    "rank": 14,
    "team_name": "上武大学",
    "team_short_name": "上武",
    "runner_name": "桐生",
    "total_distance_km": 477.8,
    "latitude": 34.99812439314152,
    "longitude": 135.857714852443,
    "is_shadow_confederation": false
  },
  {
    "rank": 15,
    "team_name": "金沢大学",
    "team_short_name": "金沢",
    "runner_name": "福井",
    "total_distance_km": 476.0,
    "latitude": 35.001431892204636,
    "longitude": 135.87445088513365,
    "is_shadow_confederation": false
  },
  {
    "rank": 16,
    "team_name": "福島大学",
    "team_short_name": "福島",
    "runner_name": "福島",
    "total_distance_km": 466.1,
    "latitude": 35.00692404594863,
    "longitude": 135.95483581366028,
    "is_shadow_confederation": false
  },
  {
    "rank": 17,
    "team_name": "学連選抜",
    "team_short_name": "学連",
    "runner_name": "久世",
    "total_distance_km": 443.1,
    "latitude": 34.97178660733191,
    "longitude": 136.17604703063506,
    "is_shadow_confederation": false
  },
  {
    "rank": 18,
    "team_name": "東北大学",
    "team_short_name": "東北",
    "runner_name": "大館",
    "total_distance_km": 424.9,
    "latitude": 34.89337426786576,
    "longitude": 136.338358,
    "is_shadow_confederation": false
  },
  {
    "rank": null,
    "team_name": "区間記録連合",
    "team_short_name": "区間記録",
    "runner_name": "桐生",
    "total_distance_km": 528.8,
    "latitude": 34.728878855849565,
    "longitude": 135.55151069425492,
    "is_shadow_confederation": true
  }
]