[
  {
    "rank": 1,
    "team_name": "琉球大学",
    "team_short_name": "琉球",
    "runner_name": "北原",
    "total_distance_km": 40.1,
    "latitude": 35.41770230606101,
    "longitude": 139.54751009532743,
    "is_shadow_confederation": false
  },
  {
    "rank": 2,
    "team_name": "熊本学園大学",
    "team_short_name": "熊学",
    "runner_name": "甲佐",
    "total_distance_km": 26.8,
    "latitude": 35.48422167177961,
    "longitude": 139.6458837285198,
    "is_shadow_confederation": false
  },
  {
    "rank": 3,
    "team_name": "鹿児島大学",
    "team_short_name": "鹿大",
    "runner_name": "東市来",
    "total_distance_km": 26.6,
    "latitude": 35.484657128723235,
    "longitude": 139.64802241034755,
    "is_shadow_confederation": false
  },
  {
    "rank": 4,
    "team_name": "福岡大学",
    "team_short_name": "福岡",
    "runner_name": "久留米",
    "total_distance_km": 23.8,
    "latitude": 35.49845234949444,
    "longitude": 139.67288444824413,
    "is_shadow_confederation": false
  },
  {
    "rank": 5,
    "team_name": "四国大学",
    "team_short_name": "四国",
    "runner_name": "穴吹",
    "total_distance_km": 20.1,
    "latitude": 35.524290969084625,
    "longitude": 139.69777073215738,
    "is_shadow_confederation": false
  },
  {
    "rank": 6,
    "team_name": "上武大学",
    "team_short_name": "上武",
    "runner_name": "佐野",
    "total_distance_km": 19.5,
    "latitude": 35.52761212437718,
    "longitude": 139.7028788893364,
    "is_shadow_confederation": false
  },
  {
    "rank": 7,
    "team_name": "三重大学",
    "team_short_name": "三重",
    "runner_name": "粥見",
    "total_distance_km": 19.3,
    "latitude": 35.5291508942975,
    "longitude": 139.7040275108758,
    "is_shadow_confederation": false
  },
  {
    "rank": 8,
    "team_name": "関西大学",
    "team_short_name": "関大",
    "runner_name": "福崎",
    "total_distance_km": 17.2,
    "latitude": 35.546163979041864,
    "longitude": 139.71322363184098,
    "is_shadow_confederation": false
  },
  {
    "rank": 9,
    "team_name": "日本大学",
    "team_short_name": "日大",
    "runner_name": "大子",
    "total_distance_km": 16.9,
    "latitude": 35.548470328091796,
    "longitude": 139.71495056640504,
    "is_shadow_confederation": false
  },
  {
    "rank": 9,
    "team_name": "名古屋大学",
    "team_short_name": "名大",
    "runner_name": "美濃加茂",
    "total_distance_km": 16.9,
    "latitude": 35.548470328091796,
    "longitude": 139.71495056640504,
    "is_shadow_confederation": false
  },
  {
    "rank": 11,
    "team_name": "立命館大学",
    "team_short_name": "立命",
    "runner_name": "東近江",
    "total_distance_km": 15.9,
    "latitude": 35.556158158258235,
    "longitude": 139.72070701495193,
    "is_shadow_confederation": false
  },
  {
    "rank": 12,
    "team_name": "福島大学",
    "team_short_name": "福島",
    "runner_name": "梁川",
    "total_distance_km": 15.4,
    "latitude": 35.5600036692039,
    "longitude": 139.72358234673928,
    "is_shadow_confederation": false
  },
  {
    "rank": 13,
    "team_name": "鳥取大学",
    "team_short_name": "鳥取",
    "runner_name": "川本",
    "total_distance_km": 15.3,
    "latitude": 35.56077303837868,
    "longitude": 139.7241569291877,
    "is_shadow_confederation": false
  },
  {
    "rank": 14,
    "team_name": "広島経済大学",
    "team_short_name": "広経",
    "runner_name": "三次",
    "total_distance_km": 14.2,
    "latitude": 35.56923609930115,
    "longitude": 139.73047733612057,
    "is_shadow_confederation": false
  },
  {
    "rank": 15,
    "team_name": "金沢大学",
    "team_short_name": "金沢",
    "runner_name": "秋ヶ島",
    "total_distance_km": 13.7,
    "latitude": 35.57310128092242,
    "longitude": 139.73329903757886,
    "is_shadow_confederation": false
  },
  {
    "rank": 16,
    "team_name": "山梨学院大学",
    "team_short_name": "山学",
    "runner_name": "長野",
    "total_distance_km": 9.8,
    "latitude": 35.60658501093235,
    "longitude": 139.74309344599826,
    "is_shadow_confederation": false
  },
  {
    "rank": 17,
    "team_name": "東北大学",
    "team_short_name": "東北",
    "runner_name": "帯広",
    "total_distance_km": 7.4,
    "latitude": 35.62756434342194,
    "longitude": 139.73758395298768,
    "is_shadow_confederation": false
  },
  {
    "rank": 18,
    "team_name": "学連選抜",
    "team_short_name": "学連",
    "runner_name": "美幌",
    "total_distance_km": 3.1,
    "latitude": 35.66375009603134,
    "longitude": 139.74955512716676,
    "is_shadow_confederation": false
  }
]