[
  {
    "rank": 1,
    "team_name": "琉球大学",
    "team_short_name": "琉球",
    "runner_name": "波照間",
    "total_distance_km": 532.3,
    "latitude": 34.700154914547944,
    "longitude": 135.54338175172714,
    "is_shadow_confederation": false
  },
  {
    "rank": 2,
    "team_name": "熊本学園大学",
    "team_short_name": "熊学",
    "runner_name": "熊本",
    "total_distance_km": 472.1,
    "latitude": 34.97785891658226,
    "longitude": 135.90250894524974,
    "is_shadow_confederation": false
  },
  {
    "rank": 3,
    "team_name": "鹿児島大学",
    "team_short_name": "鹿大",
    "runner_name": "西都",
    "total_distance_km": 460.0,
    "latitude": 35.030854100609126,
    "longitude": 136.0124222276544,
    "is_shadow_confederation": false
  },
  {
    "rank": 4,
    "team_name": "福岡大学",
    "team_short_name": "福岡",
    "runner_name": "前原",
    "total_distance_km": 442.1,
    "latitude": 34.966157471776775,
    "longitude": 136.18453530858292,
    "is_shadow_confederation": false
  },
  {
    "rank": 5,
    "team_name": "四国大学",
    "team_short_name": "四国",
    "runner_name": "大洲",
    "total_distance_km": 423.8,
    "latitude": 34.88987538676716,
    "longitude": 136.34111662830608,
    "is_shadow_confederation": false
  },
  {
    "rank": 6,
    "team_name": "広島経済大学",
    "team_short_name": "広経",
    "runner_name": "高梁",
    "total_distance_km": 411.1,
    "latitude": 34.85170332491727,
    "longitude": 136.44595085788842,
    "is_shadow_confederation": false
  },
  {
    "rank": 7,
    "team_name": "鳥取大学",
    "team_short_name": "鳥取",
    "runner_name": "防府",
    "total_distance_km": 402.9,
    "latitude": 34.87861354575392,
    "longitude": 136.5196514934772,
    "is_shadow_confederation": false
  },
  {
    "rank": 8,
    "team_name": "名古屋大学",
    "team_short_name": "名大",
    "runner_name": "愛西",
    "total_distance_km": 398.0,
    "latitude": 34.909337899939054,
    "longitude": 136.5506204066231,
    "is_shadow_confederation": false
  },
  {
    "rank": 9,
    "team_name": "関西大学",
    "team_short_name": "関大",
    "runner_name": "柏原",
    "total_distance_km": 391.7,
    "latitude": 34.94021342315064,
    "longitude": 136.60098577806605,
    "is_shadow_confederation": false
  },
  {
    "rank": 10,
    "team_name": "立命館大学",
    "team_short_name": "立命",
    "runner_name": "米原",
    "total_distance_km": 390.9,
    "latitude": 34.94636575699355,
    "longitude": 136.60555398263105,
    "is_shadow_confederation": false
  },
  {
    "rank": 11,
    "team_name": "三重大学",
    "team_short_name": "三重",
    "runner_name": "風屋",
    "total_distance_km": 384.0,
    "latitude": 34.99672225510446,
    "longitude": 136.64687917359683,
    "is_shadow_confederation": false
  },
  {
    "rank": 12,
    "team_name": "金沢大学",
    "team_short_name": "金沢",
    "runner_name": "志賀",
    "total_distance_km": 370.3,
    "latitude": 35.10061005714106,
    "longitude": 136.70553856254037,
    "is_shadow_confederation": false
  },
  {
    "rank": 13,
    "team_name": "日本大学",
    "team_short_name": "日大",
    "runner_name": "小田原",
    "total_distance_km": 366.9,
    "latitude": 35.114591540057084,
    "longitude": 136.7381599557303,
    "is_shadow_confederation": false
  },
  {
    "rank": 14,
    "team_name": "上武大学",
    "team_short_name": "上武",
    "runner_name": "寄居",
    "total_distance_km": 364.2,
    "latitude": 35.12126176288586,
    "longitude": 136.7666447700478,
    "is_shadow_confederation": false
  },
  {
    "rank": 15,
    "team_name": "山梨学院大学",
    "team_short_name": "山学",
    "runner_name": "浜松",
    "total_distance_km": 343.9,
    "latitude": 35.07348003479148,
    "longitude": 136.9533251400808,
    "is_shadow_confederation": false
  },
  {
    "rank": 16,
    "team_name": "福島大学",
    "team_short_name": "福島",
    "runner_name": "津川",
    "total_distance_km": 319.8,
    "latitude": 34.956094456255876,
    "longitude": 137.16736314758185,
    "is_shadow_confederation": false
  },
  {
    "rank": 17,
    "team_name": "学連選抜",
    "team_short_name": "学連",
    "runner_name": "大村",
    "total_distance_km": 294.1,
    "latitude": 34.80187679188406,
    "longitude": 137.36326432673633,
    "is_shadow_confederation": false
  },
  {
    "rank": 18,
    "team_name": "東北大学",
    "team_short_name": "東北",
    "runner_name": "高畠",
    "total_distance_km": 261.1,
    "latitude": 34.68350076794978,
    "longitude": 137.63297410644262,
    "is_shadow_confederation": false
  }
]