[
  {
    "rank": 1,
    "team_name": "琉球大学",
    "team_short_name": "琉球",
    "runner_name": "久米島",
    "total_distance_km": 614.1,
    "latitude": 34.794041368126905,
    "longitude": 134.7876625146896,
    "is_shadow_confederation": false
  },
  {
    "rank": 2,
    "team_name": "熊本学園大学",
    "team_short_name": "熊学",
    "runner_name": "熊本",
    "total_distance_km": 534.7,
    "latitude": 34.69697713884236,
    "longitude": 135.51775020867515,
    "is_shadow_confederation": false
  },
  {
    "rank": 3,
    "team_name": "鹿児島大学",
    "team_short_name": "鹿大",
    "runner_name": "西都",
    "total_distance_km": 520.0,
    "latitude": 34.783303094274046,
    "longitude": 135.62080141594421,
    "is_shadow_confederation": false
  },
  {
    "rank": 4,
    "team_name": "福岡大学",
    "team_short_name": "福岡",
    "runner_name": "前原",
    "total_distance_km": 504.8,
    "latitude": 34.8754836073851,
    "longitude": 135.73298846807222,
    "is_shadow_confederation": false
  },
  {
    "rank": 5,
    "team_name": "四国大学",
    "team_short_name": "四国",
    "runner_name": "大洲",
    "total_distance_km": 484.4,
    "latitude": 34.99817524778753,
    "longitude": 135.79578562186754,
    "is_shadow_confederation": false
  },
  {
    "rank": 6,
    "team_name": "広島経済大学",
    "team_short_name": "広経",
    "runner_name": "高梁",
    "total_distance_km": 463.9,
    "latitude": 35.02049271105119,
    "longitude": 135.9721684816235,
    "is_shadow_confederation": false
  },
  {
    "rank": 7,
    "team_name": "鳥取大学",
    "team_short_name": "鳥取",
    "runner_name": "境",
    "total_distance_km": 455.5,
    "latitude": 35.01744986314403,
    "longitude": 136.0577358120565,
    "is_shadow_confederation": false
  },
  {
    "rank": 8,
    "team_name": "名古屋大学",
    "team_short_name": "名大",
    "runner_name": "多治見",
    "total_distance_km": 453.3,
    "latitude": 35.00632712236503,
    "longitude": 136.0776901986302,
    "is_shadow_confederation": false
  },
  {
    "rank": 9,
    "team_name": "関西大学",
    "team_short_name": "関大",
    "runner_name": "枚方",
    "total_distance_km": 453.1,
    "latitude": 35.00531596411239,
    "longitude": 136.07950423377326,
    "is_shadow_confederation": false
  },
  {
    "rank": 10,
    "team_name": "立命館大学",
    "team_short_name": "立命",
    "runner_name": "舞鶴",
    "total_distance_km": 445.3,
    "latitude": 34.98052672440753,
    "longitude": 136.1549064205546,
    "is_shadow_confederation": false
  },
  {
    "rank": 11,
    "team_name": "三重大学",
    "team_short_name": "三重",
    "runner_name": "奈良",
    "total_distance_km": 440.1,
    "latitude": 34.95797176317699,
    "longitude": 136.2031520331524,
    "is_shadow_confederation": false
  },
  {
    "rank": 12,
    "team_name": "日本大学",
    "team_short_name": "日大",
    "runner_name": "牛久",
    "total_distance_km": 424.9,
    "latitude": 34.89337426786576,
    "longitude": 136.338358,
    "is_shadow_confederation": false
  },
  {
    "rank": 13,
    "team_name": "金沢大学",
    "team_short_name": "金沢",
    "runner_name": "福井",
    "total_distance_km": 423.1,
    "latitude": 34.88883315857028,
    "longitude": 136.34839048928595,
    "is_shadow_confederation": false
  },
  {
    "rank": 14,
    "team_name": "上武大学",
    "team_short_name": "上武",
    "runner_name": "桐生",
    "total_distance_km": 421.3,
    "latitude": 34.87773599209192,
    "longitude": 136.3603790967216,
    "is_shadow_confederation": false
  },
  {
    "rank": 15,
    "team_name": "山梨学院大学",
    "team_short_name": "山学",
    "runner_name": "浜松",
    "total_distance_km": 405.3,
    "latitude": 34.8743403849426,
    "longitude": 136.49480734916963,
    "is_shadow_confederation": false
  },
  {
    "rank": 16,
    "team_name": "福島大学",
    "team_short_name": "福島",
    "runner_name": "長岡",
    "total_distance_km": 371.8,
    "latitude": 35.08783010203449,
    "longitude": 136.70111628018813,
    "is_shadow_confederation": false
  },
  {
    "rank": 17,
    "team_name": "学連選抜",
    "team_short_name": "学連",
    "runner_name": "上",
    "total_distance_km": 351.1,
    "latitude": 35.12170836501948,
    "longitude": 136.90845499619076,
    "is_shadow_confederation": false
  },
  {
    "rank": 18,
    "team_name": "東北大学",
    "team_short_name": "東北",
    "runner_name": "高畠",
    "total_distance_km": 314.7,
    "latitude": 34.9239242655653,
    "longitude": 137.20315158529317,
    "is_shadow_confederation": false
  }
]