[
  {
    "rank": 1,
    "team_name": "琉球大学",
    "team_short_name": "琉球",
    "runner_name": "石垣島",
    "total_distance_km": 1001.1,
    "latitude": 34.072556914336694,
    "longitude": 131.37410865853658,
    "is_shadow_confederation": false
  },
  {
    "rank": 2,
    "team_name": "鹿児島大学",
    "team_short_name": "鹿大",
    "runner_name": "さつま柏原",
    "total_distance_km": 827.6,
    "latitude": 34.40032934864853,
    "longitude": 132.80245423828697,
    "is_shadow_confederation": false
  },
  {
    "rank": 3,
    "team_name": "熊本学園大学",
    "team_short_name": "熊学",
    "runner_name": "三角",
    "total_distance_km": 804.1,
    "latitude": 34.39916308715131,
    "longitude": 133.02080831836113,
    "is_shadow_confederation": false
  },
  {
    "rank": 4,
    "team_name": "福岡大学",
    "team_short_name": "福岡",
    "runner_name": "大牟田",
    "total_distance_km": 790.0,
    "latitude": 34.394589283101155,
    "longitude": 133.15295389822006,
    "is_shadow_confederation": false
  },
  {
    "rank": 5,
    "team_name": "四国大学",
    "team_short_name": "四国",
    "runner_name": "江川崎",
    "total_distance_km": 746.2,
    "latitude": 34.504857008465024,
    "longitude": 133.5497530350154,
    "is_shadow_confederation": false
  },
  {
    "rank": 6,
    "team_name": "広島経済大学",
    "team_short_name": "広経",
    "runner_name": "福山",
    "total_distance_km": 731.2,
    "latitude": 34.565986813971556,
    "longitude": 133.6890624780661,
    "is_shadow_confederation": false
  },
  {
    "rank": 7,
    "team_name": "鳥取大学",
    "team_short_name": "鳥取",
    "runner_name": "米子",
    "total_distance_km": 715.0,
    "latitude": 34.641100636786014,
    "longitude": 133.8308456782254,
    "is_shadow_confederation": false
  },
  {
    "rank": 8,
    "team_name": "関西大学",
    "team_short_name": "関大",
    "runner_name": "八尾（大阪）",
    "total_distance_km": 713.1,
    "latitude": 34.64606509354803,
    "longitude": 133.8504636641247,
    "is_shadow_confederation": false
  },
  {
    "rank": 9,
    "team_name": "名古屋大学",
    "team_short_name": "名大",
    "runner_name": "名古屋",
    "total_distance_km": 713.0,
    "latitude": 34.646080101164635,
    "longitude": 133.85155426917038,
    "is_shadow_confederation": false
  },
  {
    "rank": 10,
    "team_name": "三重大学",
    "team_short_name": "三重",
    "runner_name": "津",
    "total_distance_km": 704.3,
    "latitude": 34.659236145028956,
    "longitude": 133.9399610719762,
    "is_shadow_confederation": false
  },
  {
    "rank": 11,
    "team_name": "立命館大学",
    "team_short_name": "立命",
    "runner_name": "長浜（滋賀）",
    "total_distance_km": 684.9,
    "latitude": 34.72913988942102,
    "longitude": 134.12156035630522,
    "is_shadow_confederation": false
  },
  {
    "rank": 12,
    "team_name": "上武大学",
    "team_short_name": "上武",
    "runner_name": "小山",
    "total_distance_km": 668.9,
    "latitude": 34.79681036903558,
    "longitude": 134.26724290358695,
    "is_shadow_confederation": false
  },
  {
    "rank": 13,
    "team_name": "日本大学",
    "team_short_name": "日大",
    "runner_name": "練馬",
    "total_distance_km": 665.1,
    "latitude": 34.82186037417665,
    "longitude": 134.29420780987363,
    "is_shadow_confederation": false
  },
  {
    "rank": 14,
    "team_name": "金沢大学",
    "team_short_name": "金沢",
    "runner_name": "敦賀",
    "total_distance_km": 663.6,
    "latitude": 34.8296744680995,
    "longitude": 134.3069011838208,
    "is_shadow_confederation": false
  },
  {
    "rank": 15,
    "team_name": "山梨学院大学",
    "team_short_name": "山学",
    "runner_name": "三島",
    "total_distance_km": 654.6,
    "latitude": 34.82853775489275,
    "longitude": 134.38754086664315,
    "is_shadow_confederation": false
  },
  {
    "rank": 16,
    "team_name": "学連選抜",
    "team_short_name": "学連",
    "runner_name": "多度津",
    "total_distance_km": 615.6,
    "latitude": 34.79517984434596,
    "longitude": 134.77150873555962,
    "is_shadow_confederation": false
  },
  {
    "rank": 17,
    "team_name": "福島大学",
    "team_short_name": "福島",
    "runner_name": "浪江",
    "total_distance_km": 588.9,
    "latitude": 34.6477188451279,
    "longitude": 134.98975653431472,
    "is_shadow_confederation": false
  },
  {
    "rank": 18,
    "team_name": "東北大学",
    "team_short_name": "東北",
    "runner_name": "一関",
    "total_distance_km": 498.0,
    "latitude": 34.93426822843864,
    "longitude": 135.7450216698914,
    "is_shadow_confederation": false
  }
]