[
  {
    "rank": 1,
    "team_name": "琉球大学",
    "team_short_name": "琉球",
    "runner_name": "西表島",
    "total_distance_km": 780.0,
    "latitude": 34.43010973196498,
    "longitude": 133.22880408865214,
    "is_shadow_confederation": false
  },
  {
    "rank": 2,
    "team_name": "熊本学園大学",
    "team_short_name": "熊学",
    "runner_name": "犬飼",
    "total_distance_km": 737.2,
    "latitude": 34.537896612673045,
    "longitude": 133.6361229235157,
    "is_shadow_confederation": false
  },
  {
    "rank": 3,
    "team_name": "福岡大学",
    "team_short_name": "福岡",
    "runner_name": "口之津",
    "total_distance_km": 718.0,
    "latitude": 34.62845077927404,
    "longitude": 133.80218835665357,
    "is_shadow_confederation": false
  },
  {
    "rank": 4,
    "team_name": "名古屋大学",
    "team_short_name": "名大",
    "runner_name": "名古屋",
    "total_distance_km": 716.6,
    "latitude": 34.63563562615429,
    "longitude": 133.81474011459946,
    "is_shadow_confederation": false
  },
  {
    "rank": 5,
    "team_name": "鹿児島大学",
    "team_short_name": "鹿大",
    "runner_name": "鹿児島",
    "total_distance_km": 716.1,
    "latitude": 34.637533330757414,
    "longitude": 133.81965135993107,
    "is_shadow_confederation": false
  },
  {
    "rank": 6,
    "team_name": "関西大学",
    "team_short_name": "関大",
    "runner_name": "八尾（大阪）",
    "total_distance_km": 714.1,
    "latitude": 34.644019341718504,
    "longitude": 133.84000466592073,
    "is_shadow_confederation": false
  },
  {
    "rank": 7,
    "team_name": "立命館大学",
    "team_short_name": "立命",
    "runner_name": "長浜（滋賀）",
    "total_distance_km": 708.1,
    "latitude": 34.65453566610241,
    "longitude": 133.90159415925788,
    "is_shadow_confederation": false
  },
  {
    "rank": 7,
    "team_name": "鳥取大学",
    "team_short_name": "鳥取",
    "runner_name": "米子",
    "total_distance_km": 708.1,
    "latitude": 34.65453566610241,
    "longitude": 133.90159415925788,
    "is_shadow_confederation": false
  },
  {
    "rank": 9,
    "team_name": "広島経済大学",
    "team_short_name": "広経",
    "runner_name": "福山",
    "total_distance_km": 706.7,
    "latitude": 34.6561765087395,
    "longitude": 133.91649330128024,
    "is_shadow_confederation": false
  },
  {
    "rank": 10,
    "team_name": "四国大学",
    "team_short_name": "四国",
    "runner_name": "新居浜",
    "total_distance_km": 706.6,
    "latitude": 34.65618603649107,
    "longitude": 133.91758412889314,
    "is_shadow_confederation": false
  },
  {
    "rank": 11,
    "team_name": "上武大学",
    "team_short_name": "上武",
    "runner_name": "小山",
    "total_distance_km": 693.5,
    "latitude": 34.702970410068765,
    "longitude": 134.04061867485922,
    "is_shadow_confederation": false
  },
  {
    "rank": 12,
    "team_name": "山梨学院大学",
    "team_short_name": "山学",
    "runner_name": "三島",
    "total_distance_km": 692.2,
    "latitude": 34.7058796072311,
    "longitude": 134.05384918809492,
    "is_shadow_confederation": false
  },
  {
    "rank": 13,
    "team_name": "三重大学",
    "team_short_name": "三重",
    "runner_name": "津",
    "total_distance_km": 687.5,
    "latitude": 34.71756750703109,
    "longitude": 134.09874970695589,
    "is_shadow_confederation": false
  },
  {
    "rank": 14,
    "team_name": "金沢大学",
    "team_short_name": "金沢",
    "runner_name": "敦賀",
    "total_distance_km": 685.6,
    "latitude": 34.72749069883209,
    "longitude": 134.11418317647258,
    "is_shadow_confederation": false
  },
  {
    "rank": 15,
    "team_name": "日本大学",
    "team_short_name": "日大",
    "runner_name": "八王子",
    "total_distance_km": 664.4,
    "latitude": 34.82661999899358,
    "longitude": 134.29922136482372,
    "is_shadow_confederation": false
  },
  {
    "rank": 16,
    "team_name": "学連選抜",
    "team_short_name": "学連",
    "runner_name": "多度津",
    "total_distance_km": 638.1,
    "latitude": 34.83229556926621,
    "longitude": 134.55746098486347,
    "is_shadow_confederation": false
  },
  {
    "rank": 17,
    "team_name": "福島大学",
    "team_short_name": "福島",
    "runner_name": "浪江",
    "total_distance_km": 626.0,
    "latitude": 34.83718835354732,
    "longitude": 134.6731216504822,
    "is_shadow_confederation": false
  },
  {
    "rank": 18,
    "team_name": "東北大学",
    "team_short_name": "東北",
    "runner_name": "丸森",
    "total_distance_km": 620.0,
    "latitude": 34.82075978579958,
    "longitude": 134.73527082731,
    "is_shadow_confederation": false
  }
]