[
  {
    "rank": 1,
    "team_name": "熊本学園大学",
    "team_short_name": "熊学",
    "runner_name": "岱明",
    "total_distance_km": 237.2,
    "latitude": 34.727247132426626,
    "longitude": 137.86625102725853,
    "is_shadow_confederation": false
  },
  {
    "rank": 2,
    "team_name": "琉球大学",
    "team_short_name": "琉球",
    "runner_name": "仲筋",
    "total_distance_km": 234.9,
    "latitude": 34.73871513851108,
    "longitude": 137.8869666563978,
    "is_shadow_confederation": false
  },
  {
    "rank": 3,
    "team_name": "福岡大学",
    "team_short_name": "福岡",
    "runner_name": "福岡",
    "total_distance_km": 228.8,
    "latitude": 34.760467069619196,
    "longitude": 137.94740757193148,
    "is_shadow_confederation": false
  },
  {
    "rank": 4,
    "team_name": "立命館大学",
    "team_short_name": "立命",
    "runner_name": "福知山",
    "total_distance_km": 227.1,
    "latitude": 34.762825047675754,
    "longitude": 137.96552208191204,
    "is_shadow_confederation": false
  },
  {
    "rank": 5,
    "team_name": "鹿児島大学",
    "team_short_name": "鹿大",
    "runner_name": "川内（鹿児島）",
    "total_distance_km": 222.6,
    "latitude": 34.77657579562799,
    "longitude": 138.00884778999304,
    "is_shadow_confederation": false
  },
  {
    "rank": 6,
    "team_name": "関西大学",
    "team_short_name": "関大",
    "runner_name": "和田山",
    "total_distance_km": 221.4,
    "latitude": 34.77864019529804,
    "longitude": 138.0216365734309,
    "is_shadow_confederation": false
  },
  {
    "rank": 7,
    "team_name": "広島経済大学",
    "team_short_name": "広経",
    "runner_name": "加計",
    "total_distance_km": 218.0,
    "latitude": 34.784219,
    "longitude": 138.05660089593735,
    "is_shadow_confederation": false
  },
  {
    "rank": 8,
    "team_name": "三重大学",
    "team_short_name": "三重",
    "runner_name": "五條",
    "total_distance_km": 217.0,
    "latitude": 34.78680202773962,
    "longitude": 138.06678664390654,
    "is_shadow_confederation": false
  },
  {
    "rank": 9,
    "team_name": "四国大学",
    "team_short_name": "四国",
    "runner_name": "大三島",
    "total_distance_km": 215.8,
    "latitude": 34.795398076530404,
    "longitude": 138.0732988673722,
    "is_shadow_confederation": false
  },
  {
    "rank": 10,
    "team_name": "鳥取大学",
    "team_short_name": "鳥取",
    "runner_name": "鳥取",
    "total_distance_km": 215.7,
    "latitude": 34.79625240888864,
    "longitude": 138.07364739122522,
    "is_shadow_confederation": false
  },
  {
    "rank": 11,
    "team_name": "金沢大学",
    "team_short_name": "金沢",
    "runner_name": "小浜",
    "total_distance_km": 215.2,
    "latitude": 34.80032099506842,
    "longitude": 138.07588711272885,
    "is_shadow_confederation": false
  },
  {
    "rank": 12,
    "team_name": "名古屋大学",
    "team_short_name": "名大",
    "runner_name": "美濃",
    "total_distance_km": 213.2,
    "latitude": 34.814936335577755,
    "longitude": 138.08605434093593,
    "is_shadow_confederation": false
  },
  {
    "rank": 13,
    "team_name": "山梨学院大学",
    "team_short_name": "山学",
    "runner_name": "南信濃",
    "total_distance_km": 201.9,
    "latitude": 34.84857671361402,
    "longitude": 138.17817956248194,
    "is_shadow_confederation": false
  },
  {
    "rank": 14,
    "team_name": "上武大学",
    "team_short_name": "上武",
    "runner_name": "越谷",
    "total_distance_km": 196.9,
    "latitude": 34.86916365002639,
    "longitude": 138.22215626941156,
    "is_shadow_confederation": false
  },
  {
    "rank": 15,
    "team_name": "日本大学",
    "team_short_name": "日大",
    "runner_name": "古河",
    "total_distance_km": 193.5,
    "latitude": 34.886706514419174,
    "longitude": 138.25120693756014,
    "is_shadow_confederation": false
  },
  {
    "rank": 16,
    "team_name": "福島大学",
    "team_short_name": "福島",
    "runner_name": "石川",
    "total_distance_km": 184.1,
    "latitude": 34.94022800591796,
    "longitude": 138.3191953943645,
    "is_shadow_confederation": false
  },
  {
    "rank": 17,
    "team_name": "東北大学",
    "team_short_name": "東北",
    "runner_name": "山形（山形）",
    "total_distance_km": 164.8,
    "latitude": 35.024695682203344,
    "longitude": 138.48724058251975,
    "is_shadow_confederation": false
  },
  {
    "rank": 18,
    "team_name": "学連選抜",
    "team_short_name": "学連",
    "runner_name": "新潟",
    "total_distance_km": 152.2,
    "latitude": 35.10852267686936,
    "longitude": 138.56515902944898,
    "is_shadow_confederation": false
  }
]