[
  {
    "rank": 1,
    "team_name": "琉球大学",
    "team_short_name": "琉球",
    "runner_name": "石垣島",
    "total_distance_km": 1018.9,
    "latitude": 34.04540685420594,
    "longitude": 131.21915517846833,
    "is_shadow_confederation": false
  },
  {
    "rank": 2,
    "team_name": "鹿児島大学",
    "team_short_name": "鹿大",
    "runner_name": "指宿",
    "total_distance_km": 981.5,
    "latitude": 34.05147811053818,
    "longitude": 131.5463687820152,
    "is_shadow_confederation": false
  },
  {
    "rank": 3,
    "team_name": "福岡大学",
    "team_short_name": "福岡",
    "runner_name": "太宰府",
    "total_distance_km": 980.7,
    "latitude": 34.05303098005493,
    "longitude": 131.55483019374594,
    "is_shadow_confederation": false
  },
  {
    "rank": 4,
    "team_name": "名古屋大学",
    "team_short_name": "名大",
    "runner_name": "岐阜",
    "total_distance_km": 980.4,
    "latitude": 34.0540624847295,
    "longitude": 131.55780888831546,
    "is_shadow_confederation": false
  },
  {
    "rank": 5,
    "team_name": "熊本学園大学",
    "team_short_name": "熊学",
    "runner_name": "日田",
    "total_distance_km": 971.1,
    "latitude": 34.05213563536964,
    "longitude": 131.64521735915378,
    "is_shadow_confederation": false
  },
  {
    "rank": 6,
    "team_name": "関西大学",
    "team_short_name": "関大",
    "runner_name": "大阪",
    "total_distance_km": 969.1,
    "latitude": 34.06307719129635,
    "longitude": 131.6600838540252,
    "is_shadow_confederation": false
  },
  {
    "rank": 7,
    "team_name": "四国大学",
    "team_short_name": "四国",
    "runner_name": "中村",
    "total_distance_km": 965.1,
    "latitude": 34.070706421360015,
    "longitude": 131.6951283869681,
    "is_shadow_confederation": false
  },
  {
    "rank": 8,
    "team_name": "広島経済大学",
    "team_short_name": "広経",
    "runner_name": "滝宮",
    "total_distance_km": 959.8,
    "latitude": 34.07270527825253,
    "longitude": 131.74147888309787,
    "is_shadow_confederation": false
  },
  {
    "rank": 9,
    "team_name": "立命館大学",
    "team_short_name": "立命",
    "runner_name": "園部",
    "total_distance_km": 957.0,
    "latitude": 34.0715392744263,
    "longitude": 131.77137300265142,
    "is_shadow_confederation": false
  },
  {
    "rank": 10,
    "team_name": "日本大学",
    "team_short_name": "日大",
    "runner_name": "海老名",
    "total_distance_km": 948.2,
    "latitude": 34.028508803177644,
    "longitude": 131.8425977709294,
    "is_shadow_confederation": false
  },
  {
    "rank": 11,
    "team_name": "三重大学",
    "team_short_name": "三重",
    "runner_name": "上野",
    "total_distance_km": 947.7,
    "latitude": 34.02841066339803,
    "longitude": 131.84801043596354,
    "is_shadow_confederation": false
  },
  {
    "rank": 12,
    "team_name": "山梨学院大学",
    "team_short_name": "山学",
    "runner_name": "佐久間",
    "total_distance_km": 943.0,
    "latitude": 34.033072086958576,
    "longitude": 131.89669186298462,
    "is_shadow_confederation": false
  },
  {
    "rank": 13,
    "team_name": "鳥取大学",
    "team_short_name": "鳥取",
    "runner_name": "津和野",
    "total_distance_km": 934.6,
    "latitude": 34.05743883811205,
    "longitude": 131.9728936888688,
    "is_shadow_confederation": false
  },
  {
    "rank": 14,
    "team_name": "上武大学",
    "team_short_name": "上武",
    "runner_name": "館林",
    "total_distance_km": 933.3,
    "latitude": 34.06766013242485,
    "longitude": 131.97829531594678,
    "is_shadow_confederation": false
  },
  {
    "rank": 15,
    "team_name": "金沢大学",
    "team_short_name": "金沢",
    "runner_name": "大野（福井）",
    "total_distance_km": 917.6,
    "latitude": 34.11950635975073,
    "longitude": 132.12513568655393,
    "is_shadow_confederation": false
  },
  {
    "rank": 16,
    "team_name": "学連選抜",
    "team_short_name": "学連",
    "runner_name": "恵那",
    "total_distance_km": 905.2,
    "latitude": 34.17605403975518,
    "longitude": 132.22491849249175,
    "is_shadow_confederation": false
  },
  {
    "rank": 17,
    "team_name": "福島大学",
    "team_short_name": "福島",
    "runner_name": "新津",
    "total_distance_km": 899.1,
    "latitude": 34.225756526274566,
    "longitude": 132.2213164256094,
    "is_shadow_confederation": false
  },
  {
    "rank": 18,
    "team_name": "東北大学",
    "team_short_name": "東北",
    "runner_name": "東根",
    "total_distance_km": 830.4,
    "latitude": 34.39911246844564,
    "longitude": 132.772344903389,
    "is_shadow_confederation": false
  },
  {
    "rank": null,
    "team_name": "区間記録連合",
    "team_short_name": "区間記録",
    "runner_name": "鳩山",
    "total_distance_km": 1034.7,
    "latitude": 34.04780755503983,
    "longitude": 131.0607583357333,
    "is_shadow_confederation": true
  }
]