[
  {
    "rank": 1,
    "team_name": "琉球大学",
    "team_short_name": "琉球",
    "runner_name": "名護",
    "total_distance_km": 417.7,
    "latitude": 34.85635653916992,
    "longitude": 136.38020902466184,
    "is_shadow_confederation": false
  },
  {
    "rank": 2,
    "team_name": "熊本学園大学",
    "team_short_name": "熊学",
    "runner_name": "人吉",
    "total_distance_km": 412.4,
    "latitude": 34.85623398744156,
    "longitude": 136.43355462057164,
    "is_shadow_confederation": false
  },
  {
    "rank": 3,
    "team_name": "福岡大学",
    "team_short_name": "福岡",
    "runner_name": "朝倉",
    "total_distance_km": 404.0,
    "latitude": 34.87712713820143,
    "longitude": 136.50775554160788,
    "is_shadow_confederation": false
  },
  {
    "rank": 4,
    "team_name": "立命館大学",
    "team_short_name": "立命",
    "runner_name": "米原",
    "total_distance_km": 395.5,
    "latitude": 34.9153678238112,
    "longitude": 136.57476781605226,
    "is_shadow_confederation": false
  },
  {
    "rank": 5,
    "team_name": "四国大学",
    "team_short_name": "四国",
    "runner_name": "松山",
    "total_distance_km": 392.4,
    "latitude": 34.93480179719994,
    "longitude": 136.59731612027505,
    "is_shadow_confederation": false
  },
  {
    "rank": 6,
    "team_name": "関西大学",
    "team_short_name": "関大",
    "runner_name": "柏原",
    "total_distance_km": 390.1,
    "latitude": 34.952518090836456,
    "longitude": 136.61012218719603,
    "is_shadow_confederation": false
  },
  {
    "rank": 7,
    "team_name": "広島経済大学",
    "team_short_name": "広経",
    "runner_name": "大竹",
    "total_distance_km": 390.0,
    "latitude": 34.95310305725283,
    "longitude": 136.61095366339055,
    "is_shadow_confederation": false
  },
  {
    "rank": 8,
    "team_name": "名古屋大学",
    "team_short_name": "名大",
    "runner_name": "愛西",
    "total_distance_km": 389.0,
    "latitude": 34.9594123294366,
    "longitude": 136.61863517930126,
    "is_shadow_confederation": false
  },
  {
    "rank": 9,
    "team_name": "鹿児島大学",
    "team_short_name": "鹿大",
    "runner_name": "西米良",
    "total_distance_km": 388.1,
    "latitude": 34.966688742634354,
    "longitude": 136.6228574168929,
    "is_shadow_confederation": false
  },
  {
    "rank": 10,
    "team_name": "鳥取大学",
    "team_short_name": "鳥取",
    "runner_name": "防府",
    "total_distance_km": 387.6,
    "latitude": 34.970920334273295,
    "longitude": 136.6247417599516,
    "is_shadow_confederation": false
  },
  {
    "rank": 11,
    "team_name": "上武大学",
    "team_short_name": "上武",
    "runner_name": "寄居",
    "total_distance_km": 383.3,
    "latitude": 35.000651124488975,
    "longitude": 136.6526622502508,
    "is_shadow_confederation": false
  },
  {
    "rank": 12,
    "team_name": "山梨学院大学",
    "team_short_name": "山学",
    "runner_name": "浜松",
    "total_distance_km": 380.8,
    "latitude": 35.018511044913815,
    "longitude": 136.66582778681348,
    "is_shadow_confederation": false
  },
  {
    "rank": 13,
    "team_name": "金沢大学",
    "team_short_name": "金沢",
    "runner_name": "志賀",
    "total_distance_km": 378.4,
    "latitude": 35.0385155890697,
    "longitude": 136.672064880393,
    "is_shadow_confederation": false
  },
  {
    "rank": 14,
    "team_name": "三重大学",
    "team_short_name": "三重",
    "runner_name": "風屋",
    "total_distance_km": 378.2,
    "latitude": 35.040234006969314,
    "longitude": 136.67244912188474,
    "is_shadow_confederation": false
  },
  {
    "rank": 15,
    "team_name": "日本大学",
    "team_short_name": "日大",
    "runner_name": "小田原",
    "total_distance_km": 375.3,
    "latitude": 35.06355066586245,
    "longitude": 136.68575730366203,
    "is_shadow_confederation": false
  },
  {
    "rank": 16,
    "team_name": "福島大学",
    "team_short_name": "福島",
    "runner_name": "長岡",
    "total_distance_km": 349.2,
    "latitude": 35.11124088935474,
    "longitude": 136.9226003697831,
    "is_shadow_confederation": false
  },
  {
    "rank": 17,
    "team_name": "東北大学",
    "team_short_name": "東北",
    "runner_name": "高畠",
    "total_distance_km": 331.6,
    "latitude": 35.00397036048092,
    "longitude": 137.05388441138152,
    "is_shadow_confederation": false
  },
  {
    "rank": 18,
    "team_name": "学連選抜",
    "team_short_name": "学連",
    "runner_name": "大村",
    "total_distance_km": 324.9,
    "latitude": 34.975110332622556,
    "longitude": 137.11793670530295,
    "is_shadow_confederation": false
  }
]