[
  {
    "rank": 1,
    "team_name": "琉球大学",
    "team_short_name": "琉球",
    "runner_name": "波照間",
    "total_distance_km": 479.2,
    "latitude": 34.9917866123463,
    "longitude": 135.84800020471633,
    "is_shadow_confederation": false
  },
  {
    "rank": 2,
    "team_name": "熊本学園大学",
    "team_short_name": "熊学",
    "runner_name": "熊本",
    "total_distance_km": 467.0,
    "latitude": 35.00074092619659,
    "longitude": 135.94847348721416,
    "is_shadow_confederation": false
  },
  {
    "rank": 3,
    "team_name": "福岡大学",
    "team_short_name": "福岡",
    "runner_name": "前原",
    "total_distance_km": 454.1,
    "latitude": 35.01037175537557,
    "longitude": 136.07043405805794,
    "is_shadow_confederation": false
  },
  {
    "rank": 4,
    "team_name": "立命館大学",
    "team_short_name": "立命",
    "runner_name": "舞鶴",
    "total_distance_km": 447.7,
    "latitude": 34.985195017785074,
    "longitude": 136.1293298938027,
    "is_shadow_confederation": false
  },
  {
    "rank": 5,
    "team_name": "鹿児島大学",
    "team_short_name": "鹿大",
    "runner_name": "西都",
    "total_distance_km": 443.0,
    "latitude": 34.9711035669949,
    "longitude": 136.17676158676244,
    "is_shadow_confederation": false
  },
  {
    "rank": 6,
    "team_name": "四国大学",
    "team_short_name": "四国",
    "runner_name": "大洲",
    "total_distance_km": 441.2,
    "latitude": 34.961486121689525,
    "longitude": 136.19259216983292,
    "is_shadow_confederation": false
  },
  {
    "rank": 7,
    "team_name": "関西大学",
    "team_short_name": "関大",
    "runner_name": "枚方",
    "total_distance_km": 440.0,
    "latitude": 34.9580472874396,
    "longitude": 136.2042430553948,
    "is_shadow_confederation": false
  },
  {
    "rank": 8,
    "team_name": "広島経済大学",
    "team_short_name": "広経",
    "runner_name": "高梁",
    "total_distance_km": 438.3,
    "latitude": 34.9537296835125,
    "longitude": 136.22198070301314,
    "is_shadow_confederation": false
  },
  {
    "rank": 9,
    "team_name": "鳥取大学",
    "team_short_name": "鳥取",
    "runner_name": "境",
    "total_distance_km": 436.0,
    "latitude": 34.944590899309375,
    "longitude": 136.24419082769433,
    "is_shadow_confederation": false
  },
  {
    "rank": 10,
    "team_name": "名古屋大学",
    "team_short_name": "名大",
    "runner_name": "多治見",
    "total_distance_km": 435.2,
    "latitude": 34.94082180527895,
    "longitude": 136.25165455573816,
    "is_shadow_confederation": false
  },
  {
    "rank": 11,
    "team_name": "上武大学",
    "team_short_name": "上武",
    "runner_name": "桐生",
    "total_distance_km": 433.5,
    "latitude": 34.938008551518024,
    "longitude": 136.2697709182388,
    "is_shadow_confederation": false
  },
  {
    "rank": 12,
    "team_name": "三重大学",
    "team_short_name": "三重",
    "runner_name": "奈良",
    "total_distance_km": 428.2,
    "latitude": 34.915779619103496,
    "longitude": 136.31809550930322,
    "is_shadow_confederation": false
  },
  {
    "rank": 13,
    "team_name": "金沢大学",
    "team_short_name": "金沢",
    "runner_name": "福井",
    "total_distance_km": 427.1,
    "latitude": 34.9088219769592,
    "longitude": 136.32611865463764,
    "is_shadow_confederation": false
  },
  {
    "rank": 14,
    "team_name": "山梨学院大学",
    "team_short_name": "山学",
    "runner_name": "甲府",
    "total_distance_km": 423.9,
    "latitude": 34.89010044875799,
    "longitude": 136.34007621179148,
    "is_shadow_confederation": false
  },
  {
    "rank": 14,
    "team_name": "日本大学",
    "team_short_name": "日大",
    "runner_name": "牛久",
    "total_distance_km": 423.9,
    "latitude": 34.89010044875799,
    "longitude": 136.34007621179148,
    "is_shadow_confederation": false
  },
  {
    "rank": 16,
    "team_name": "福島大学",
    "team_short_name": "福島",
    "runner_name": "長岡",
    "total_distance_km": 406.3,
    "latitude": 34.86648563361647,
    "longitude": 136.48950685124245,
    "is_shadow_confederation": false
  },
  {
    "rank": 17,
    "team_name": "東北大学",
    "team_short_name": "東北",
    "runner_name": "大館",
    "total_distance_km": 390.2,
    "latitude": 34.95174904910609,
    "longitude": 136.6095511616254,
    "is_shadow_confederation": false
  },
  {
    "rank": 18,
    "team_name": "学連選抜",
    "team_short_name": "学連",
    "runner_name": "上",
    "total_distance_km": 379.3,
    "latitude": 35.030406776088945,
    "longitude": 136.67177128820634,
    "is_shadow_confederation": false
  }
]