[
  {
    "rank": 1,
    "team_name": "琉球大学",
    "team_short_name": "琉球",
    "runner_name": "仲筋",
    "total_distance_km": 186.7,
    "latitude": 34.925163612382796,
    "longitude": 138.30079832525894,
    "is_shadow_confederation": false
  },
  {
    "rank": 2,
    "team_name": "鹿児島大学",
    "team_short_name": "鹿大",
    "runner_name": "川内（鹿児島）",
    "total_distance_km": 137.2,
    "latitude": 35.14197772742745,
    "longitude": 138.71065491071627,
    "is_shadow_confederation": false
  },
  {
    "rank": 3,
    "team_name": "熊本学園大学",
    "team_short_name": "熊学",
    "runner_name": "岱明",
    "total_distance_km": 132.6,
    "latitude": 35.13202862832337,
    "longitude": 138.75948507354383,
    "is_shadow_confederation": false
  },
  {
    "rank": 4,
    "team_name": "福岡大学",
    "team_short_name": "福岡",
    "runner_name": "福岡",
    "total_distance_km": 123.1,
    "latitude": 35.09968288458857,
    "longitude": 138.8545069240307,
    "is_shadow_confederation": false
  },
  {
    "rank": 5,
    "team_name": "名古屋大学",
    "team_short_name": "名大",
    "runner_name": "美濃加茂",
    "total_distance_km": 108.6,
    "latitude": 35.149339302313614,
    "longitude": 138.98829649941058,
    "is_shadow_confederation": false
  },
  {
    "rank": 6,
    "team_name": "四国大学",
    "team_short_name": "四国",
    "runner_name": "穴吹",
    "total_distance_km": 107.8,
    "latitude": 35.15372995702247,
    "longitude": 138.99334820877834,
    "is_shadow_confederation": false
  },
  {
    "rank": 7,
    "team_name": "三重大学",
    "team_short_name": "三重",
    "runner_name": "粥見",
    "total_distance_km": 107.0,
    "latitude": 35.15934656937269,
    "longitude": 138.99640129625112,
    "is_shadow_confederation": false
  },
  {
    "rank": 8,
    "team_name": "上武大学",
    "team_short_name": "上武",
    "runner_name": "佐野",
    "total_distance_km": 103.8,
    "latitude": 35.174836485658204,
    "longitude": 139.00969829508855,
    "is_shadow_confederation": false
  },
  {
    "rank": 9,
    "team_name": "日本大学",
    "team_short_name": "日大",
    "runner_name": "大子",
    "total_distance_km": 102.4,
    "latitude": 35.1823897290314,
    "longitude": 139.0140912216256,
    "is_shadow_confederation": false
  },
  {
    "rank": 10,
    "team_name": "関西大学",
    "team_short_name": "関大",
    "runner_name": "福崎",
    "total_distance_km": 98.5,
    "latitude": 35.19338548857742,
    "longitude": 139.04906048711675,
    "is_shadow_confederation": false
  },
  {
    "rank": 11,
    "team_name": "鳥取大学",
    "team_short_name": "鳥取",
    "runner_name": "川本",
    "total_distance_km": 91.2,
    "latitude": 35.22423255566925,
    "longitude": 139.09251806248162,
    "is_shadow_confederation": false
  },
  {
    "rank": 12,
    "team_name": "立命館大学",
    "team_short_name": "立命",
    "runner_name": "東近江",
    "total_distance_km": 89.7,
    "latitude": 35.22963962145603,
    "longitude": 139.10657341327564,
    "is_shadow_confederation": false
  },
  {
    "rank": 13,
    "team_name": "広島経済大学",
    "team_short_name": "広経",
    "runner_name": "三次",
    "total_distance_km": 88.3,
    "latitude": 35.23792031724728,
    "longitude": 139.11712205641655,
    "is_shadow_confederation": false
  },
  {
    "rank": 14,
    "team_name": "福島大学",
    "team_short_name": "福島",
    "runner_name": "梁川",
    "total_distance_km": 87.3,
    "latitude": 35.24334657271152,
    "longitude": 139.1258671385136,
    "is_shadow_confederation": false
  },
  {
    "rank": 15,
    "team_name": "金沢大学",
    "team_short_name": "金沢",
    "runner_name": "秋ヶ島",
    "total_distance_km": 68.7,
    "latitude": 35.30734061741646,
    "longitude": 139.30468294321892,
    "is_shadow_confederation": false
  },
  {
    "rank": 16,
    "team_name": "山梨学院大学",
    "team_short_name": "山学",
    "runner_name": "長野",
    "total_distance_km": 62.9,
    "latitude": 35.3171968783122,
    "longitude": 139.36402810291693,
    "is_shadow_confederation": false
  },
  {
    "rank": 17,
    "team_name": "東北大学",
    "team_short_name": "東北",
    "runner_name": "帯広",
    "total_distance_km": 55.5,
    "latitude": 35.3248921418508,
    "longitude": 139.44088350772927,
    "is_shadow_confederation": false
  },
  {
    "rank": 18,
    "team_name": "学連選抜",
    "team_short_name": "学連",
    "runner_name": "美幌",
    "total_distance_km": 7.9,
    "latitude": 35.62314330352123,
    "longitude": 139.73858499009592,
    "is_shadow_confederation": false
  },
  {
    "rank": null,
    "team_name": "区間記録連合",
    "team_short_name": "区間記録",
    "runner_name": "佐野",
    "total_distance_km": 260.0,
    "latitude": 34.683013508022064,
    "longitude": 137.6449031934989,
    "is_shadow_confederation": true
  }
]