[
  {
    "rank": 1,
    "team_name": "琉球大学",
    "team_short_name": "琉球",
    "runner_name": "石垣島",
    "total_distance_km": 1031.5,
    "latitude": 34.04417137653943,
    "longitude": 131.09380274814137,
    "is_shadow_confederation": false
  },
  {
    "rank": 2,
    "team_name": "鹿児島大学",
    "team_short_name": "鹿大",
    "runner_name": "喜入",
    "total_distance_km": 859.7,
    "latitude": 34.36924605347864,
    "longitude": 132.5293597063822,
    "is_shadow_confederation": false
  },
  {
    "rank": 3,
    "team_name": "熊本学園大学",
    "team_short_name": "熊学",
    "runner_name": "三角",
    "total_distance_km": 828.3,
    "latitude": 34.39986799832569,
    "longitude": 132.79492539529923,
    "is_shadow_confederation": false
  },
  {
    "rank": 4,
    "team_name": "福岡大学",
    "team_short_name": "福岡",
    "runner_name": "大牟田",
    "total_distance_km": 811.3,
    "latitude": 34.40095525001118,
    "longitude": 132.9513536359202,
    "is_shadow_confederation": false
  },
  {
    "rank": 5,
    "team_name": "四国大学",
    "team_short_name": "四国",
    "runner_name": "江川崎",
    "total_distance_km": 770.6,
    "latitude": 34.47369952981586,
    "longitude": 133.30988620263582,
    "is_shadow_confederation": false
  },
  {
    "rank": 6,
    "team_name": "広島経済大学",
    "team_short_name": "広経",
    "runner_name": "引田",
    "total_distance_km": 754.5,
    "latitude": 34.50885763646378,
    "longitude": 133.4680093286253,
    "is_shadow_confederation": false
  },
  {
    "rank": 7,
    "team_name": "鳥取大学",
    "team_short_name": "鳥取",
    "runner_name": "米子",
    "total_distance_km": 739.7,
    "latitude": 34.535445401326676,
    "longitude": 133.60937394730914,
    "is_shadow_confederation": false
  },
  {
    "rank": 8,
    "team_name": "関西大学",
    "team_short_name": "関大",
    "runner_name": "八尾（大阪）",
    "total_distance_km": 735.3,
    "latitude": 34.546845409199896,
    "longitude": 133.6531170603001,
    "is_shadow_confederation": false
  },
  {
    "rank": 9,
    "team_name": "名古屋大学",
    "team_short_name": "名大",
    "runner_name": "名古屋",
    "total_distance_km": 733.8,
    "latitude": 34.55555568521368,
    "longitude": 133.6655506042809,
    "is_shadow_confederation": false
  },
  {
    "rank": 10,
    "team_name": "三重大学",
    "team_short_name": "三重",
    "runner_name": "津",
    "total_distance_km": 722.5,
    "latitude": 34.60111683462975,
    "longitude": 133.76733359078943,
    "is_shadow_confederation": false
  },
  {
    "rank": 11,
    "team_name": "立命館大学",
    "team_short_name": "立命",
    "runner_name": "長浜（滋賀）",
    "total_distance_km": 702.6,
    "latitude": 34.66947721258866,
    "longitude": 133.95269917531655,
    "is_shadow_confederation": false
  },
  {
    "rank": 12,
    "team_name": "上武大学",
    "team_short_name": "上武",
    "runner_name": "小山",
    "total_distance_km": 687.8,
    "latitude": 34.71526540749906,
    "longitude": 134.0970312278464,
    "is_shadow_confederation": false
  },
  {
    "rank": 13,
    "team_name": "金沢大学",
    "team_short_name": "金沢",
    "runner_name": "敦賀",
    "total_distance_km": 686.9,
    "latitude": 34.72217170609516,
    "longitude": 134.10218666517488,
    "is_shadow_confederation": false
  },
  {
    "rank": 14,
    "team_name": "日本大学",
    "team_short_name": "日大",
    "runner_name": "練馬",
    "total_distance_km": 684.1,
    "latitude": 34.73120939337244,
    "longitude": 134.12991595815112,
    "is_shadow_confederation": false
  },
  {
    "rank": 15,
    "team_name": "山梨学院大学",
    "team_short_name": "山学",
    "runner_name": "三島",
    "total_distance_km": 674.0,
    "latitude": 34.76742814773713,
    "longitude": 134.22849932005127,
    "is_shadow_confederation": false
  },
  {
    "rank": 16,
    "team_name": "学連選抜",
    "team_short_name": "学連",
    "runner_name": "多度津",
    "total_distance_km": 636.0,
    "latitude": 34.83385641318516,
    "longitude": 134.5802948693972,
    "is_shadow_confederation": false
  },
  {
    "rank": 17,
    "team_name": "福島大学",
    "team_short_name": "福島",
    "runner_name": "浪江",
    "total_distance_km": 610.1,
    "latitude": 34.77601269771671,
    "longitude": 134.82460891629765,
    "is_shadow_confederation": false
  },
  {
    "rank": 18,
    "team_name": "東北大学",
    "team_short_name": "東北",
    "runner_name": "一関",
    "total_distance_km": 515.3,
    "latitude": 34.808023358895134,
    "longitude": 135.65590868130823,
    "is_shadow_confederation": false
  }
]