[
  {
    "rank": 1,
    "team_name": "琉球大学",
    "team_short_name": "琉球",
    "runner_name": "西表島",
    "total_distance_km": 817.3,
    "latitude": 34.38907921905557,
    "longitude": 132.90009466804824,
    "is_shadow_confederation": false
  },
  {
    "rank": 2,
    "team_name": "鹿児島大学",
    "team_short_name": "鹿大",
    "runner_name": "鹿児島",
    "total_distance_km": 663.7,
    "latitude": 34.82946759108865,
    "longitude": 134.3058371875496,
    "is_shadow_confederation": false
  },
  {
    "rank": 3,
    "team_name": "熊本学園大学",
    "team_short_name": "熊学",
    "runner_name": "大分",
    "total_distance_km": 631.7,
    "latitude": 34.83519748920909,
    "longitude": 134.62048562816685,
    "is_shadow_confederation": false
  },
  {
    "rank": 4,
    "team_name": "福岡大学",
    "team_short_name": "福岡",
    "runner_name": "博多",
    "total_distance_km": 613.9,
    "latitude": 34.793378412397466,
    "longitude": 134.78969475159263,
    "is_shadow_confederation": false
  },
  {
    "rank": 5,
    "team_name": "四国大学",
    "team_short_name": "四国",
    "runner_name": "徳島",
    "total_distance_km": 577.6,
    "latitude": 34.638803065531654,
    "longitude": 135.10338441593035,
    "is_shadow_confederation": false
  },
  {
    "rank": 6,
    "team_name": "名古屋大学",
    "team_short_name": "名大",
    "runner_name": "豊田（愛知）",
    "total_distance_km": 572.7,
    "latitude": 34.66378535920331,
    "longitude": 135.14636811331442,
    "is_shadow_confederation": false
  },
  {
    "rank": 7,
    "team_name": "日本大学",
    "team_short_name": "日大",
    "runner_name": "八王子",
    "total_distance_km": 562.4,
    "latitude": 34.711720229963646,
    "longitude": 135.23878147667605,
    "is_shadow_confederation": false
  },
  {
    "rank": 8,
    "team_name": "上武大学",
    "team_short_name": "上武",
    "runner_name": "伊勢崎",
    "total_distance_km": 560.3,
    "latitude": 34.71804343417981,
    "longitude": 135.2602105246758,
    "is_shadow_confederation": false
  },
  {
    "rank": 9,
    "team_name": "広島経済大学",
    "team_short_name": "広経",
    "runner_name": "高松（香川）",
    "total_distance_km": 558.2,
    "latitude": 34.7249762581152,
    "longitude": 135.2815168004916,
    "is_shadow_confederation": false
  },
  {
    "rank": 10,
    "team_name": "三重大学",
    "team_short_name": "三重",
    "runner_name": "新宮",
    "total_distance_km": 556.0,
    "latitude": 34.73183055262878,
    "longitude": 135.30404165924733,
    "is_shadow_confederation": false
  },
  {
    "rank": 11,
    "team_name": "鳥取大学",
    "team_short_name": "鳥取",
    "runner_name": "松江",
    "total_distance_km": 551.8,
    "latitude": 34.737394346049385,
    "longitude": 135.34867213256916,
    "is_shadow_confederation": false
  },
  {
    "rank": 12,
    "team_name": "関西大学",
    "team_short_name": "関大",
    "runner_name": "豊中",
    "total_distance_km": 548.6,
    "latitude": 34.73086406961125,
    "longitude": 135.38267032265105,
    "is_shadow_confederation": false
  },
  {
    "rank": 13,
    "team_name": "立命館大学",
    "team_short_name": "立命",
    "runner_name": "舞鶴",
    "total_distance_km": 525.0,
    "latitude": 34.75233266912868,
    "longitude": 135.58175442197165,
    "is_shadow_confederation": false
  },
  {
    "rank": 14,
    "team_name": "山梨学院大学",
    "team_short_name": "山学",
    "runner_name": "甲府",
    "total_distance_km": 513.5,
    "latitude": 34.81668450789666,
    "longitude": 135.6722894476188,
    "is_shadow_confederation": false
  },
  {
    "rank": 15,
    "team_name": "福島大学",
    "team_short_name": "福島",
    "runner_name": "福島",
    "total_distance_km": 483.6,
    "latitude": 34.99503844334743,
    "longitude": 135.80358127098822,
    "is_shadow_confederation": false
  },
  {
    "rank": 16,
    "team_name": "金沢大学",
    "team_short_name": "金沢",
    "runner_name": "福井",
    "total_distance_km": 448.5,
    "latitude": 34.986046847023374,
    "longitude": 136.12072284305899,
    "is_shadow_confederation": false
  },
  {
    "rank": 17,
    "team_name": "東北大学",
    "team_short_name": "東北",
    "runner_name": "大館",
    "total_distance_km": 380.2,
    "latitude": 35.02268922488,
    "longitude": 136.66998011577525,
    "is_shadow_confederation": false
  },
  {
    "rank": 18,
    "team_name": "学連選抜",
    "team_short_name": "学連",
    "runner_name": "大村",
    "total_distance_km": 309.0,
    "latitude": 34.895374949890055,
    "longitude": 137.2528263052253,
    "is_shadow_confederation": false
  },
  {
    "rank": null,
    "team_name": "区間記録連合",
    "team_short_name": "区間記録",
    "runner_name": "西脇",
    "total_distance_km": 856.5,
    "latitude": 34.38199907184007,
    "longitude": 132.55774121873412,
    "is_shadow_confederation": true
  }
]