[
  {
    "rank": 1,
    "team_name": "琉球大学",
    "team_short_name": "琉球",
    "runner_name": "北原",
    "total_distance_km": 79.3,
    "latitude": 35.27286584069698,
    "longitude": 139.2000008366632,
    "is_shadow_confederation": false
  },
  {
    "rank": 2,
    "team_name": "鹿児島大学",
    "team_short_name": "鹿大",
    "runner_name": "東市来",
    "total_distance_km": 55.8,
    "latitude": 35.323643866092965,
    "longitude": 139.43795675948348,
    "is_shadow_confederation": false
  },
  {
    "rank": 3,
    "team_name": "熊本学園大学",
    "team_short_name": "熊学",
    "runner_name": "甲佐",
    "total_distance_km": 50.1,
    "latitude": 35.34834198123936,
    "longitude": 139.48937418106362,
    "is_shadow_confederation": false
  },
  {
    "rank": 4,
    "team_name": "福岡大学",
    "team_short_name": "福岡",
    "runner_name": "久留米",
    "total_distance_km": 47.1,
    "latitude": 35.372859203055945,
    "longitude": 139.50251793878218,
    "is_shadow_confederation": false
  },
  {
    "rank": 5,
    "team_name": "三重大学",
    "team_short_name": "三重",
    "runner_name": "粥見",
    "total_distance_km": 40.0,
    "latitude": 35.41833877510711,
    "longitude": 139.54828971287762,
    "is_shadow_confederation": false
  },
  {
    "rank": 6,
    "team_name": "四国大学",
    "team_short_name": "四国",
    "runner_name": "穴吹",
    "total_distance_km": 39.9,
    "latitude": 35.4189752441532,
    "longitude": 139.5490693304278,
    "is_shadow_confederation": false
  },
  {
    "rank": 7,
    "team_name": "上武大学",
    "team_short_name": "上武",
    "runner_name": "佐野",
    "total_distance_km": 38.5,
    "latitude": 35.42112261122629,
    "longitude": 139.56325705464215,
    "is_shadow_confederation": false
  },
  {
    "rank": 8,
    "team_name": "名古屋大学",
    "team_short_name": "名大",
    "runner_name": "美濃加茂",
    "total_distance_km": 38.1,
    "latitude": 35.423680270195405,
    "longitude": 139.56633926025626,
    "is_shadow_confederation": false
  },
  {
    "rank": 9,
    "team_name": "日本大学",
    "team_short_name": "日大",
    "runner_name": "大子",
    "total_distance_km": 36.3,
    "latitude": 35.43683474044492,
    "longitude": 139.57618475565818,
    "is_shadow_confederation": false
  },
  {
    "rank": 10,
    "team_name": "関西大学",
    "team_short_name": "関大",
    "runner_name": "福崎",
    "total_distance_km": 36.2,
    "latitude": 35.43773063908168,
    "longitude": 139.5760641630489,
    "is_shadow_confederation": false
  },
  {
    "rank": 11,
    "team_name": "立命館大学",
    "team_short_name": "立命",
    "runner_name": "東近江",
    "total_distance_km": 33.5,
    "latitude": 35.44428815941838,
    "longitude": 139.5971290204459,
    "is_shadow_confederation": false
  },
  {
    "rank": 12,
    "team_name": "福島大学",
    "team_short_name": "福島",
    "runner_name": "梁川",
    "total_distance_km": 31.1,
    "latitude": 35.45674995190914,
    "longitude": 139.61818731709226,
    "is_shadow_confederation": false
  },
  {
    "rank": 13,
    "team_name": "鳥取大学",
    "team_short_name": "鳥取",
    "runner_name": "川本",
    "total_distance_km": 28.5,
    "latitude": 35.473240523346405,
    "longitude": 139.63307657317927,
    "is_shadow_confederation": false
  },
  {
    "rank": 14,
    "team_name": "広島経済大学",
    "team_short_name": "広経",
    "runner_name": "三次",
    "total_distance_km": 26.0,
    "latitude": 35.48596349955412,
    "longitude": 139.65443845583073,
    "is_shadow_confederation": false
  },
  {
    "rank": 15,
    "team_name": "金沢大学",
    "team_short_name": "金沢",
    "runner_name": "秋ヶ島",
    "total_distance_km": 24.9,
    "latitude": 35.49180184701883,
    "longitude": 139.6639981658694,
    "is_shadow_confederation": false
  },
  {
    "rank": 16,
    "team_name": "山梨学院大学",
    "team_short_name": "山学",
    "runner_name": "長野",
    "total_distance_km": 19.3,
    "latitude": 35.5291508942975,
    "longitude": 139.7040275108758,
    "is_shadow_confederation": false
  },
  {
    "rank": 17,
    "team_name": "東北大学",
    "team_short_name": "東北",
    "runner_name": "帯広",
    "total_distance_km": 13.3,
    "latitude": 35.576568062304666,
    "longitude": 139.73451005974593,
    "is_shadow_confederation": false
  },
  {
    "rank": 18,
    "team_name": "学連選抜",
    "team_short_name": "学連",
    "runner_name": "美幌",
    "total_distance_km": 1.9,
    "latitude": 35.67379919816804,
    "longitude": 139.75407411638582,
    "is_shadow_confederation": false
  }
]