[
  {
    "rank": 1,
    "team_name": "琉球大学",
    "team_short_name": "琉球",
    "runner_name": "西表島",
    "total_distance_km": 860.5,
    "latitude": 34.368023617422544,
    "longitude": 132.52167440186494,
    "is_shadow_confederation": false
  },
  {
    "rank": 2,
    "team_name": "名古屋大学",
    "team_short_name": "名大",
    "runner_name": "大府",
    "total_distance_km": 843.9,
    "latitude": 34.441013706888995,
    "longitude": 132.65024240384946,
    "is_shadow_confederation": false
  },
  {
    "rank": 3,
    "team_name": "福岡大学",
    "team_short_name": "福岡",
    "runner_name": "大牟田",
    "total_distance_km": 842.2,
    "latitude": 34.44748155185625,
    "longitude": 132.66302531095226,
    "is_shadow_confederation": false
  },
  {
    "rank": 4,
    "team_name": "鹿児島大学",
    "team_short_name": "鹿大",
    "runner_name": "さつま柏原",
    "total_distance_km": 840.1,
    "latitude": 34.4410581489223,
    "longitude": 132.68393617537546,
    "is_shadow_confederation": false
  },
  {
    "rank": 5,
    "team_name": "四国大学",
    "team_short_name": "四国",
    "runner_name": "江川崎",
    "total_distance_km": 837.5,
    "latitude": 34.42841832574646,
    "longitude": 132.70718514175334,
    "is_shadow_confederation": false
  },
  {
    "rank": 6,
    "team_name": "熊本学園大学",
    "team_short_name": "熊学",
    "runner_name": "三角",
    "total_distance_km": 835.7,
    "latitude": 34.419276141035,
    "longitude": 132.72336280156622,
    "is_shadow_confederation": false
  },
  {
    "rank": 7,
    "team_name": "関西大学",
    "team_short_name": "関大",
    "runner_name": "郡家",
    "total_distance_km": 834.2,
    "latitude": 34.412970279159424,
    "longitude": 132.73750967123402,
    "is_shadow_confederation": false
  },
  {
    "rank": 8,
    "team_name": "広島経済大学",
    "team_short_name": "広経",
    "runner_name": "引田",
    "total_distance_km": 825.7,
    "latitude": 34.40749924522109,
    "longitude": 132.8196368272595,
    "is_shadow_confederation": false
  },
  {
    "rank": 9,
    "team_name": "立命館大学",
    "team_short_name": "立命",
    "runner_name": "京都",
    "total_distance_km": 824.1,
    "latitude": 34.407991153222355,
    "longitude": 132.83585093204246,
    "is_shadow_confederation": false
  },
  {
    "rank": 10,
    "team_name": "三重大学",
    "team_short_name": "三重",
    "runner_name": "和歌山",
    "total_distance_km": 816.7,
    "latitude": 34.39186909450554,
    "longitude": 132.90555829669594,
    "is_shadow_confederation": false
  },
  {
    "rank": 11,
    "team_name": "山梨学院大学",
    "team_short_name": "山学",
    "runner_name": "上田",
    "total_distance_km": 815.7,
    "latitude": 34.39648722948366,
    "longitude": 132.9145270019317,
    "is_shadow_confederation": false
  },
  {
    "rank": 12,
    "team_name": "日本大学",
    "team_short_name": "日大",
    "runner_name": "府中（東京）",
    "total_distance_km": 815.5,
    "latitude": 34.39676140970489,
    "longitude": 132.91667672060973,
    "is_shadow_confederation": false
  },
  {
    "rank": 13,
    "team_name": "鳥取大学",
    "team_short_name": "鳥取",
    "runner_name": "玖珂",
    "total_distance_km": 810.5,
    "latitude": 34.40496831611234,
    "longitude": 132.957973965129,
    "is_shadow_confederation": false
  },
  {
    "rank": 14,
    "team_name": "上武大学",
    "team_short_name": "上武",
    "runner_name": "前橋",
    "total_distance_km": 802.6,
    "latitude": 34.39440286537506,
    "longitude": 133.03599056403266,
    "is_shadow_confederation": false
  },
  {
    "rank": 15,
    "team_name": "金沢大学",
    "team_short_name": "金沢",
    "runner_name": "小松",
    "total_distance_km": 791.5,
    "latitude": 34.38895696303804,
    "longitude": 133.13850743018733,
    "is_shadow_confederation": false
  },
  {
    "rank": 16,
    "team_name": "学連選抜",
    "team_short_name": "学連",
    "runner_name": "飯塚",
    "total_distance_km": 777.5,
    "latitude": 34.44716354472879,
    "longitude": 133.24357641512395,
    "is_shadow_confederation": false
  },
  {
    "rank": 17,
    "team_name": "福島大学",
    "team_short_name": "福島",
    "runner_name": "喜多方",
    "total_distance_km": 774.9,
    "latitude": 34.45564198538391,
    "longitude": 133.2693257002293,
    "is_shadow_confederation": false
  },
  {
    "rank": 18,
    "team_name": "東北大学",
    "team_short_name": "東北",
    "runner_name": "秋田",
    "total_distance_km": 712.2,
    "latitude": 34.64599560232496,
    "longitude": 133.86027884661303,
    "is_shadow_confederation": false
  },
  {
    "rank": null,
    "team_name": "区間記録連合",
    "team_short_name": "区間記録",
    "runner_name": "西脇",
    "total_distance_km": 860.5,
    "latitude": 34.368023617422544,
    "longitude": 132.52167440186494,
    "is_shadow_confederation": true
  }
]