[
  {
    "rank": 1,
    "team_name": "熊本学園大学",
    "team_short_name": "熊学",
    "runner_name": "岱明",
    "total_distance_km": 236.3,
    "latitude": 34.73227923564875,
    "longitude": 137.8738169878891,
    "is_shadow_confederation": false
  },
  {
    "rank": 2,
    "team_name": "琉球大学",
    "team_short_name": "琉球",
    "runner_name": "仲筋",
    "total_distance_km": 234.6,
    "latitude": 34.73992898853356,
    "longitude": 137.88987613224197,
    "is_shadow_confederation": false
  },
  {
    "rank": 3,
    "team_name": "福岡大学",
    "team_short_name": "福岡",
    "runner_name": "福岡",
    "total_distance_km": 228.3,
    "latitude": 34.76174112171655,
    "longitude": 137.95264609123342,
    "is_shadow_confederation": false
  },
  {
    "rank": 4,
    "team_name": "立命館大学",
    "team_short_name": "立命",
    "runner_name": "福知山",
    "total_distance_km": 226.4,
    "latitude": 34.764496942130506,
    "longitude": 137.9725477210886,
    "is_shadow_confederation": false
  },
  {
    "rank": 5,
    "team_name": "鹿児島大学",
    "team_short_name": "鹿大",
    "runner_name": "川内（鹿児島）",
    "total_distance_km": 222.2,
    "latitude": 34.77724572319202,
    "longitude": 138.01312253577328,
    "is_shadow_confederation": false
  },
  {
    "rank": 6,
    "team_name": "関西大学",
    "team_short_name": "関大",
    "runner_name": "和田山",
    "total_distance_km": 221.2,
    "latitude": 34.77820797323534,
    "longitude": 138.0237578334833,
    "is_shadow_confederation": false
  },
  {
    "rank": 7,
    "team_name": "広島経済大学",
    "team_short_name": "広経",
    "runner_name": "加計",
    "total_distance_km": 217.4,
    "latitude": 34.785317993934676,
    "longitude": 138.06280854485175,
    "is_shadow_confederation": false
  },
  {
    "rank": 8,
    "team_name": "三重大学",
    "team_short_name": "三重",
    "runner_name": "五條",
    "total_distance_km": 216.9,
    "latitude": 34.78716036888054,
    "longitude": 138.06778920455315,
    "is_shadow_confederation": false
  },
  {
    "rank": 9,
    "team_name": "四国大学",
    "team_short_name": "四国",
    "runner_name": "大三島",
    "total_distance_km": 215.4,
    "latitude": 34.79881540596336,
    "longitude": 138.07469296278433,
    "is_shadow_confederation": false
  },
  {
    "rank": 10,
    "team_name": "鳥取大学",
    "team_short_name": "鳥取",
    "runner_name": "鳥取",
    "total_distance_km": 215.2,
    "latitude": 34.80032099506842,
    "longitude": 138.07588711272885,
    "is_shadow_confederation": false
  },
  {
    "rank": 11,
    "team_name": "金沢大学",
    "team_short_name": "金沢",
    "runner_name": "小浜",
    "total_distance_km": 214.4,
    "latitude": 34.80647579960338,
    "longitude": 138.07872528198743,
    "is_shadow_confederation": false
  },
  {
    "rank": 12,
    "team_name": "名古屋大学",
    "team_short_name": "名大",
    "runner_name": "美濃",
    "total_distance_km": 212.0,
    "latitude": 34.82159132885372,
    "longitude": 138.0958734808967,
    "is_shadow_confederation": false
  },
  {
    "rank": 13,
    "team_name": "山梨学院大学",
    "team_short_name": "山学",
    "runner_name": "南信濃",
    "total_distance_km": 200.5,
    "latitude": 34.85108593140795,
    "longitude": 138.19260395828783,
    "is_shadow_confederation": false
  },
  {
    "rank": 14,
    "team_name": "上武大学",
    "team_short_name": "上武",
    "runner_name": "越谷",
    "total_distance_km": 195.7,
    "latitude": 34.875523594993055,
    "longitude": 138.23202629522328,
    "is_shadow_confederation": false
  },
  {
    "rank": 15,
    "team_name": "日本大学",
    "team_short_name": "日大",
    "runner_name": "古河",
    "total_distance_km": 193.5,
    "latitude": 34.886706514419174,
    "longitude": 138.25120693756014,
    "is_shadow_confederation": false
  },
  {
    "rank": 16,
    "team_name": "福島大学",
    "team_short_name": "福島",
    "runner_name": "石川",
    "total_distance_km": 183.9,
    "latitude": 34.94125271279508,
    "longitude": 138.3209828920297,
    "is_shadow_confederation": false
  },
  {
    "rank": 17,
    "team_name": "東北大学",
    "team_short_name": "東北",
    "runner_name": "山形（山形）",
    "total_distance_km": 164.4,
    "latitude": 35.02821277301461,
    "longitude": 138.48815435389244,
    "is_shadow_confederation": false
  },
  {
    "rank": 18,
    "team_name": "学連選抜",
    "team_short_name": "学連",
    "runner_name": "新潟",
    "total_distance_km": 151.5,
    "latitude": 35.111177858336106,
    "longitude": 138.5721183352282,
    "is_shadow_confederation": false
  }
]