[
  {
    "rank": 1,
    "team_name": "琉球大学",
    "team_short_name": "琉球",
    "runner_name": "北原",
    "total_distance_km": 40.1,
    "latitude": 35.41770230606101,
    "longitude": 139.54751009532743,
    "is_shadow_confederation": false
  },
  {
    "rank": 2,
    "team_name": "鹿児島大学",
    "team_short_name": "鹿大",
    "runner_name": "東市来",
    "total_distance_km": 27.1,
    "latitude": 35.48264259946205,
    "longitude": 139.643214157196,
    "is_shadow_confederation": false
  },
  {
    "rank": 3,
    "team_name": "熊本学園大学",
    "team_short_name": "熊学",
    "runner_name": "甲佐",
    "total_distance_km": 26.8,
    "latitude": 35.48422167177961,
    "longitude": 139.6458837285198,
    "is_shadow_confederation": false
  },
  {
    "rank": 4,
    "team_name": "福岡大学",
    "team_short_name": "福岡",
    "runner_name": "久留米",
    "total_distance_km": 25.2,
    "latitude": 35.490173502754196,
    "longitude": 139.66137892103472,
    "is_shadow_confederation": false
  },
  {
    "rank": 5,
    "team_name": "四国大学",
    "team_short_name": "四国",
    "runner_name": "穴吹",
    "total_distance_km": 21.7,
    "latitude": 35.51401204333707,
    "longitude": 139.68601754737867,
    "is_shadow_confederation": false
  },
  {
    "rank": 6,
    "team_name": "上武大学",
    "team_short_name": "上武",
    "runner_name": "佐野",
    "total_distance_km": 20.2,
    "latitude": 35.523784979191845,
    "longitude": 139.69685836158726,
    "is_shadow_confederation": false
  },
  {
    "rank": 7,
    "team_name": "三重大学",
    "team_short_name": "三重",
    "runner_name": "粥見",
    "total_distance_km": 19.8,
    "latitude": 35.525808938762964,
    "longitude": 139.70050784386765,
    "is_shadow_confederation": false
  },
  {
    "rank": 8,
    "team_name": "日本大学",
    "team_short_name": "日大",
    "runner_name": "大子",
    "total_distance_km": 19.5,
    "latitude": 35.52761212437718,
    "longitude": 139.7028788893364,
    "is_shadow_confederation": false
  },
  {
    "rank": 9,
    "team_name": "関西大学",
    "team_short_name": "関大",
    "runner_name": "福崎",
    "total_distance_km": 17.8,
    "latitude": 35.541551280942,
    "longitude": 139.70976976271285,
    "is_shadow_confederation": false
  },
  {
    "rank": 10,
    "team_name": "名古屋大学",
    "team_short_name": "名大",
    "runner_name": "美濃加茂",
    "total_distance_km": 17.3,
    "latitude": 35.54539519602522,
    "longitude": 139.7126479869863,
    "is_shadow_confederation": false
  },
  {
    "rank": 11,
    "team_name": "鳥取大学",
    "team_short_name": "鳥取",
    "runner_name": "川本",
    "total_distance_km": 16.9,
    "latitude": 35.548470328091796,
    "longitude": 139.71495056640504,
    "is_shadow_confederation": false
  },
  {
    "rank": 12,
    "team_name": "福島大学",
    "team_short_name": "福島",
    "runner_name": "梁川",
    "total_distance_km": 16.6,
    "latitude": 35.55077667714173,
    "longitude": 139.7166775009691,
    "is_shadow_confederation": false
  },
  {
    "rank": 13,
    "team_name": "立命館大学",
    "team_short_name": "立命",
    "runner_name": "東近江",
    "total_distance_km": 16.4,
    "latitude": 35.55231424317501,
    "longitude": 139.71782879067848,
    "is_shadow_confederation": false
  },
  {
    "rank": 14,
    "team_name": "広島経済大学",
    "team_short_name": "広経",
    "runner_name": "三次",
    "total_distance_km": 14.7,
    "latitude": 35.5653892534273,
    "longitude": 139.72760442387835,
    "is_shadow_confederation": false
  },
  {
    "rank": 15,
    "team_name": "金沢大学",
    "team_short_name": "金沢",
    "runner_name": "秋ヶ島",
    "total_distance_km": 13.9,
    "latitude": 35.571544206825465,
    "longitude": 139.7322010834659,
    "is_shadow_confederation": false
  },
  {
    "rank": 16,
    "team_name": "山梨学院大学",
    "team_short_name": "山学",
    "runner_name": "長野",
    "total_distance_km": 9.9,
    "latitude": 35.60582539288262,
    "longitude": 139.74249946660177,
    "is_shadow_confederation": false
  },
  {
    "rank": 17,
    "team_name": "東北大学",
    "team_short_name": "東北",
    "runner_name": "帯広",
    "total_distance_km": 8.8,
    "latitude": 35.61539455505847,
    "longitude": 139.7410962256531,
    "is_shadow_confederation": false
  },
  {
    "rank": 18,
    "team_name": "学連選抜",
    "team_short_name": "学連",
    "runner_name": "美幌",
    "total_distance_km": 3.7,
    "latitude": 35.65940523218973,
    "longitude": 139.74740763291754,
    "is_shadow_confederation": false
  }
]