[
  {
    "rank": 1,
    "team_name": "琉球大学",
    "team_short_name": "琉球",
    "runner_name": "那覇",
    "total_distance_km": 729.1,
    "latitude": 34.57894006784868,
    "longitude": 133.70532411950202,
    "is_shadow_confederation": false
  },
  {
    "rank": 2,
    "team_name": "名古屋大学",
    "team_short_name": "名大",
    "runner_name": "名古屋",
    "total_distance_km": 720.7,
    "latitude": 34.611933126430166,
    "longitude": 133.78196153073046,
    "is_shadow_confederation": false
  },
  {
    "rank": 3,
    "team_name": "四国大学",
    "team_short_name": "四国",
    "runner_name": "新居浜",
    "total_distance_km": 717.7,
    "latitude": 34.62999038931981,
    "longitude": 133.80487801907057,
    "is_shadow_confederation": false
  },
  {
    "rank": 4,
    "team_name": "熊本学園大学",
    "team_short_name": "熊学",
    "runner_name": "犬飼",
    "total_distance_km": 713.3,
    "latitude": 34.64603507831483,
    "longitude": 133.84828245403338,
    "is_shadow_confederation": false
  },
  {
    "rank": 5,
    "team_name": "福岡大学",
    "team_short_name": "福岡",
    "runner_name": "口之津",
    "total_distance_km": 713.1,
    "latitude": 34.64606509354803,
    "longitude": 133.8504636641247,
    "is_shadow_confederation": false
  },
  {
    "rank": 6,
    "team_name": "関西大学",
    "team_short_name": "関大",
    "runner_name": "八尾（大阪）",
    "total_distance_km": 711.9,
    "latitude": 34.64436713747399,
    "longitude": 133.86251608646367,
    "is_shadow_confederation": false
  },
  {
    "rank": 7,
    "team_name": "鹿児島大学",
    "team_short_name": "鹿大",
    "runner_name": "鹿児島",
    "total_distance_km": 711.2,
    "latitude": 34.64638982180403,
    "longitude": 133.86964323801234,
    "is_shadow_confederation": false
  },
  {
    "rank": 8,
    "team_name": "広島経済大学",
    "team_short_name": "広経",
    "runner_name": "福山",
    "total_distance_km": 710.1,
    "latitude": 34.648463556284085,
    "longitude": 133.8812380630523,
    "is_shadow_confederation": false
  },
  {
    "rank": 9,
    "team_name": "立命館大学",
    "team_short_name": "立命",
    "runner_name": "長浜（滋賀）",
    "total_distance_km": 706.1,
    "latitude": 34.65622186854976,
    "longitude": 133.92303822705915,
    "is_shadow_confederation": false
  },
  {
    "rank": 10,
    "team_name": "三重大学",
    "team_short_name": "三重",
    "runner_name": "津",
    "total_distance_km": 702.5,
    "latitude": 34.669854760458854,
    "longitude": 133.95368992174102,
    "is_shadow_confederation": false
  },
  {
    "rank": 11,
    "team_name": "山梨学院大学",
    "team_short_name": "山学",
    "runner_name": "三島",
    "total_distance_km": 699.2,
    "latitude": 34.67958934871228,
    "longitude": 133.98668686523405,
    "is_shadow_confederation": false
  },
  {
    "rank": 12,
    "team_name": "日本大学",
    "team_short_name": "日大",
    "runner_name": "練馬",
    "total_distance_km": 692.5,
    "latitude": 34.706110653737014,
    "longitude": 134.0505865494198,
    "is_shadow_confederation": false
  },
  {
    "rank": 13,
    "team_name": "鳥取大学",
    "team_short_name": "鳥取",
    "runner_name": "米子",
    "total_distance_km": 684.5,
    "latitude": 34.73008228404326,
    "longitude": 134.12577588763816,
    "is_shadow_confederation": false
  },
  {
    "rank": 14,
    "team_name": "上武大学",
    "team_short_name": "上武",
    "runner_name": "小山",
    "total_distance_km": 683.0,
    "latitude": 34.734952598675015,
    "longitude": 134.14103820219557,
    "is_shadow_confederation": false
  },
  {
    "rank": 15,
    "team_name": "金沢大学",
    "team_short_name": "金沢",
    "runner_name": "敦賀",
    "total_distance_km": 679.1,
    "latitude": 34.74477603387856,
    "longitude": 134.18169767583748,
    "is_shadow_confederation": false
  },
  {
    "rank": 16,
    "team_name": "福島大学",
    "team_short_name": "福島",
    "runner_name": "寺泊",
    "total_distance_km": 658.9,
    "latitude": 34.83643456304576,
    "longitude": 134.34485081465576,
    "is_shadow_confederation": false
  },
  {
    "rank": 17,
    "team_name": "学連選抜",
    "team_short_name": "学連",
    "runner_name": "多度津",
    "total_distance_km": 654.1,
    "latitude": 34.82893191459031,
    "longitude": 134.39291660106304,
    "is_shadow_confederation": false
  },
  {
    "rank": 18,
    "team_name": "東北大学",
    "team_short_name": "東北",
    "runner_name": "丸森",
    "total_distance_km": 603.7,
    "latitude": 34.73631144755858,
    "longitude": 134.8741281891605,
    "is_shadow_confederation": false
  },
  {
    "rank": null,
    "team_name": "区間記録連合",
    "team_short_name": "区間記録",
    "runner_name": "新居浜",
    "total_distance_km": 755.2,
    "latitude": 34.5066058962824,
    "longitude": 133.46126153236244,
    "is_shadow_confederation": true
  }
]