[
  {
    "rank": 1,
    "team_name": "琉球大学",
    "team_short_name": "琉球",
    "runner_name": "名護",
    "total_distance_km": 335.2,
    "latitude": 35.02549930014675,
    "longitude": 137.0249303968094,
    "is_shadow_confederation": false
  },
  {
    "rank": 2,
    "team_name": "鹿児島大学",
    "team_short_name": "鹿大",
    "runner_name": "加久藤",
    "total_distance_km": 250.8,
    "latitude": 34.708052,
    "longitude": 137.72822963049853,
    "is_shadow_confederation": false
  },
  {
    "rank": 3,
    "team_name": "熊本学園大学",
    "team_short_name": "熊学",
    "runner_name": "八代",
    "total_distance_km": 243.7,
    "latitude": 34.731119603126324,
    "longitude": 137.79773481571624,
    "is_shadow_confederation": false
  },
  {
    "rank": 4,
    "team_name": "福岡大学",
    "team_short_name": "福岡",
    "runner_name": "福岡",
    "total_distance_km": 226.9,
    "latitude": 34.762719161183874,
    "longitude": 137.96770289306406,
    "is_shadow_confederation": false
  },
  {
    "rank": 5,
    "team_name": "名古屋大学",
    "team_short_name": "名大",
    "runner_name": "美濃",
    "total_distance_km": 210.0,
    "latitude": 34.81916059387504,
    "longitude": 138.11636668058773,
    "is_shadow_confederation": false
  },
  {
    "rank": 6,
    "team_name": "日本大学",
    "team_short_name": "日大",
    "runner_name": "古河",
    "total_distance_km": 202.0,
    "latitude": 34.84870086645531,
    "longitude": 138.1770991530018,
    "is_shadow_confederation": false
  },
  {
    "rank": 7,
    "team_name": "四国大学",
    "team_short_name": "四国",
    "runner_name": "大三島",
    "total_distance_km": 200.6,
    "latitude": 34.85075195981102,
    "longitude": 138.19158829877207,
    "is_shadow_confederation": false
  },
  {
    "rank": 8,
    "team_name": "上武大学",
    "team_short_name": "上武",
    "runner_name": "越谷",
    "total_distance_km": 200.1,
    "latitude": 34.85242181779566,
    "longitude": 138.1966665963508,
    "is_shadow_confederation": false
  },
  {
    "rank": 9,
    "team_name": "三重大学",
    "team_short_name": "三重",
    "runner_name": "五條",
    "total_distance_km": 196.2,
    "latitude": 34.871811851697636,
    "longitude": 138.22892409947548,
    "is_shadow_confederation": false
  },
  {
    "rank": 10,
    "team_name": "広島経済大学",
    "team_short_name": "広経",
    "runner_name": "加計",
    "total_distance_km": 185.2,
    "latitude": 34.93698259632553,
    "longitude": 138.30830660643076,
    "is_shadow_confederation": false
  },
  {
    "rank": 11,
    "team_name": "関西大学",
    "team_short_name": "関大",
    "runner_name": "和田山",
    "total_distance_km": 181.0,
    "latitude": 34.94923227854757,
    "longitude": 138.34605256436652,
    "is_shadow_confederation": false
  },
  {
    "rank": 12,
    "team_name": "鳥取大学",
    "team_short_name": "鳥取",
    "runner_name": "鳥取",
    "total_distance_km": 180.6,
    "latitude": 34.94863933454064,
    "longitude": 138.35037195461607,
    "is_shadow_confederation": false
  },
  {
    "rank": 13,
    "team_name": "立命館大学",
    "team_short_name": "立命",
    "runner_name": "福知山",
    "total_distance_km": 171.5,
    "latitude": 34.99646159027278,
    "longitude": 138.42705437309664,
    "is_shadow_confederation": false
  },
  {
    "rank": 14,
    "team_name": "福島大学",
    "team_short_name": "福島",
    "runner_name": "石川",
    "total_distance_km": 163.7,
    "latitude": 35.03388787142536,
    "longitude": 138.4911673866177,
    "is_shadow_confederation": false
  },
  {
    "rank": 15,
    "team_name": "山梨学院大学",
    "team_short_name": "山学",
    "runner_name": "南信濃",
    "total_distance_km": 153.2,
    "latitude": 35.1038296048822,
    "longitude": 138.55604971075195,
    "is_shadow_confederation": false
  },
  {
    "rank": 16,
    "team_name": "金沢大学",
    "team_short_name": "金沢",
    "runner_name": "小浜",
    "total_distance_km": 143.2,
    "latitude": 35.13384776609236,
    "longitude": 138.64983453495643,
    "is_shadow_confederation": false
  },
  {
    "rank": 17,
    "team_name": "東北大学",
    "team_short_name": "東北",
    "runner_name": "帯広",
    "total_distance_km": 98.6,
    "latitude": 35.192729985369795,
    "longitude": 139.0483173022222,
    "is_shadow_confederation": false
  },
  {
    "rank": 18,
    "team_name": "学連選抜",
    "team_short_name": "学連",
    "runner_name": "美幌",
    "total_distance_km": 38.1,
    "latitude": 35.423680270195405,
    "longitude": 139.56633926025626,
    "is_shadow_confederation": false
  },
  {
    "rank": null,
    "team_name": "区間記録連合",
    "team_short_name": "区間記録",
    "runner_name": "風屋",
    "total_distance_km": 354.4,
    "latitude": 35.12503690649312,
    "longitude": 136.87309027726346,
    "is_shadow_confederation": true
  }
]