[
  {
    "rank": 1,
    "team_name": "琉球大学",
    "team_short_name": "琉球",
    "runner_name": "盛山",
    "total_distance_km": 274.1,
    "latitude": 34.68389494192961,
    "longitude": 137.50488618713015,
    "current_leg": 3,
    "is_shadow_confederation": false
  },
  {
    "rank": 2,
    "team_name": "名古屋大学",
    "team_short_name": "名大",
    "runner_name": "大垣",
    "total_distance_km": 247.2,
    "latitude": 34.71584784725218,
    "longitude": 137.76537465390157,
    "current_leg": 3,
    "is_shadow_confederation": false
  },
  {
    "rank": 3,
    "team_name": "鹿児島大学",
    "team_short_name": "鹿大",
    "runner_name": "加久藤",
    "total_distance_km": 243.0,
    "latitude": 34.72939489500855,
    "longitude": 137.80504228140094,
    "current_leg": 3,
    "is_shadow_confederation": false
  },
  {
    "rank": 4,
    "team_name": "熊本学園大学",
    "team_short_name": "熊学",
    "runner_name": "八代",
    "total_distance_km": 236.9,
    "latitude": 34.728789866230834,
    "longitude": 137.86891293880535,
    "current_leg": 3,
    "is_shadow_confederation": false
  },
  {
    "rank": 5,
    "team_name": "立命館大学",
    "team_short_name": "立命",
    "runner_name": "京田辺",
    "total_distance_km": 236.4,
    "latitude": 34.731819528301436,
    "longitude": 137.87287772585276,
    "current_leg": 3,
    "is_shadow_confederation": false
  },
  {
    "rank": 6,
    "team_name": "福岡大学",
    "team_short_name": "福岡",
    "runner_name": "黒木",
    "total_distance_km": 235.9,
    "latitude": 34.73411806503798,
    "longitude": 137.87757403603445,
    "current_leg": 3,
    "is_shadow_confederation": false
  },
  {
    "rank": 7,
    "team_name": "金沢大学",
    "team_short_name": "金沢",
    "runner_name": "七尾",
    "total_distance_km": 234.8,
    "latitude": 34.73917484585839,
    "longitude": 137.88790591843414,
    "current_leg": 3,
    "is_shadow_confederation": false
  },
  {
    "rank": 8,
    "team_name": "三重大学",
    "team_short_name": "三重",
    "runner_name": "小俣",
    "total_distance_km": 234.3,
    "latitude": 34.74078803117667,
    "longitude": 137.89298244839068,
    "current_leg": 3,
    "is_shadow_confederation": false
  },
  {
    "rank": 9,
    "team_name": "鳥取大学",
    "team_short_name": "鳥取",
    "runner_name": "広瀬",
    "total_distance_km": 233.6,
    "latitude": 34.74261211449199,
    "longitude": 137.9002952394539,
    "current_leg": 3,
    "is_shadow_confederation": false
  },
  {
    "rank": 10,
    "team_name": "日本大学",
    "team_short_name": "日大",
    "runner_name": "下館",
    "total_distance_km": 233.4,
    "latitude": 34.743061772407174,
    "longitude": 137.9024102698869,
    "current_leg": 3,
    "is_shadow_confederation": false
  },
  {
    "rank": 11,
    "team_name": "山梨学院大学",
    "team_short_name": "山学",
    "runner_name": "大月",
    "total_distance_km": 232.0,
    "latitude": 34.747844670007126,
    "longitude": 137.91647335507088,
    "current_leg": 3,
    "is_shadow_confederation": false
  },
  {
    "rank": 12,
    "team_name": "上武大学",
    "team_short_name": "上武",
    "runner_name": "熊谷",
    "total_distance_km": 231.6,
    "latitude": 34.74956734734947,
    "longitude": 137.92030923484035,
    "current_leg": 3,
    "is_shadow_confederation": false
  },
  {
    "rank": 13,
    "team_name": "関西大学",
    "team_short_name": "関大",
    "runner_name": "和田山",
    "total_distance_km": 230.9,
    "latitude": 34.75229932404253,
    "longitude": 137.92720046841936,
    "current_leg": 3,
    "is_shadow_confederation": false
  },
  {
    "rank": 14,
    "team_name": "四国大学",
    "team_short_name": "四国",
    "runner_name": "大三島",
    "total_distance_km": 225.2,
    "latitude": 34.77180690188257,
    "longitude": 137.98154983471483,
    "current_leg": 3,
    "is_shadow_confederation": false
  },
  {
    "rank": 15,
    "team_name": "広島経済大学",
    "team_short_name": "広経",
    "runner_name": "加計",
    "total_distance_km": 217.0,
    "latitude": 34.78680202773962,
    "longitude": 138.06678664390654,
    "current_leg": 3,
    "is_shadow_confederation": false
  },
  {
    "rank": 16,
    "team_name": "東北大学",
    "team_short_name": "東北",
    "runner_name": "山形（山形）",
    "total_distance_km": 209.4,
    "latitude": 34.82311893769684,
    "longitude": 138.12056904200153,
    "current_leg": 2,
    "is_shadow_confederation": false
  },
  {
    "rank": 17,
    "team_name": "学連選抜",
    "team_short_name": "学連",
    "runner_name": "新潟",
    "total_distance_km": 202.8,
    "latitude": 34.84625486131115,
    "longitude": 138.1688706506657,
    "current_leg": 2,
    "is_shadow_confederation": false
  },
  {
    "rank": 18,
    "team_name": "福島大学",
    "team_short_name": "福島",
    "runner_name": "石川",
    "total_distance_km": 202.6,
    "latitude": 34.84688296775202,
    "longitude": 138.17092038804162,
    "current_leg": 2,
    "is_shadow_confederation": false
  },
  {
    "rank": null,
    "team_name": "区間記録連合",
    "team_short_name": "区間記録",
    "runner_name": "伊勢崎",
    "total_distance_km": 288.2,
    "latitude": 34.763751445646506,
    "longitude": 137.4031912146462,
    "current_leg": 3,
    "is_shadow_confederation": true
  }
]