[
  {
    "rank": 1,
    "team_name": "琉球大学",
    "team_short_name": "琉球",
    "runner_name": "ゴール",
    "total_distance_km": 385.0,
    "latitude": 34.989924256623404,
    "longitude": 136.63974886474315,
    "current_leg": 4,
    "is_shadow_confederation": false
  },
  {
    "rank": 2,
    "team_name": "鹿児島大学",
    "team_short_name": "鹿大",
    "runner_name": "ゴール",
    "total_distance_km": 380.0,
    "latitude": 35.024191936116274,
    "longitude": 136.6711907468984,
    "current_leg": 4,
    "is_shadow_confederation": false
  },
  {
    "rank": 3,
    "team_name": "福島大学",
    "team_short_name": "福島",
    "runner_name": "ゴール",
    "total_distance_km": 375.0,
    "latitude": 35.06619642664014,
    "longitude": 136.68643689725158,
    "current_leg": 4,
    "is_shadow_confederation": false
  },
  {
    "rank": 4,
    "team_name": "四国大学",
    "team_short_name": "四国",
    "runner_name": "ゴール",
    "total_distance_km": 370.0,
    "latitude": 35.10217327697834,
    "longitude": 136.70822354126756,
    "current_leg": 4,
    "is_shadow_confederation": false
  },
  {
    "rank": 5,
    "team_name": "東北大学",
    "team_short_name": "東北",
    "runner_name": "ゴール",
    "total_distance_km": 365.0,
    "latitude": 35.119304446638736,
    "longitude": 136.7581979524953,
    "current_leg": 4,
    "is_shadow_confederation": false
  },
  {
    "rank": 6,
    "team_name": "金沢大学",
    "team_short_name": "金沢",
    "runner_name": "ゴール",
    "total_distance_km": 360.0,
    "latitude": 35.12637084741945,
    "longitude": 136.81217453276858,
    "current_leg": 4,
    "is_shadow_confederation": false
  },
  {
    "rank": 7,
    "team_name": "熊本学園大学",
    "team_short_name": "熊学",
    "runner_name": "ゴール",
    "total_distance_km": 355.0,
    "latitude": 35.124724029451286,
    "longitude": 136.86651870698336,
    "current_leg": 4,
    "is_shadow_confederation": false
  },
  {
    "rank": 8,
    "team_name": "日本大学",
    "team_short_name": "日大",
    "runner_name": "ゴール",
    "total_distance_km": 350.0,
    "latitude": 35.116296291591034,
    "longitude": 136.91815917109398,
    "current_leg": 4,
    "is_shadow_confederation": false
  },
  {
    "rank": 9,
    "team_name": "三重大学",
    "team_short_name": "三重",
    "runner_name": "ゴール",
    "total_distance_km": 345.0,
    "latitude": 35.07902893761094,
    "longitude": 136.9433983987853,
    "current_leg": 4,
    "is_shadow_confederation": false
  },
  {
    "rank": 10,
    "team_name": "鳥取大学",
    "team_short_name": "鳥取",
    "runner_name": "ゴール",
    "total_distance_km": 340.0,
    "latitude": 35.05808541180762,
    "longitude": 136.99084274762816,
    "current_leg": 4,
    "is_shadow_confederation": false
  },
  {
    "rank": 11,
    "team_name": "学連選抜",
    "team_short_name": "学連",
    "runner_name": "ゴール",
    "total_distance_km": 335.0,
    "latitude": 35.024355679589775,
    "longitude": 137.02662448157233,
    "current_leg": 4,
    "is_shadow_confederation": false
  },
  {
    "rank": 12,
    "team_name": "福岡大学",
    "team_short_name": "福岡",
    "runner_name": "ゴール",
    "total_distance_km": 330.0,
    "latitude": 34.996709918471154,
    "longitude": 137.0690031751365,
    "current_leg": 4,
    "is_shadow_confederation": false
  },
  {
    "rank": 13,
    "team_name": "広島経済大学",
    "team_short_name": "広経",
    "runner_name": "ゴール",
    "total_distance_km": 325.0,
    "latitude": 34.97561020696141,
    "longitude": 137.11704629200474,
    "current_leg": 4,
    "is_shadow_confederation": false
  },
  {
    "rank": 14,
    "team_name": "立命館大学",
    "team_short_name": "立命",
    "runner_name": "ゴール",
    "total_distance_km": 320.0,
    "latitude": 34.95668267855417,
    "longitude": 137.1652933100858,
    "current_leg": 4,
    "is_shadow_confederation": false
  },
  {
    "rank": 15,
    "team_name": "山梨学院大学",
    "team_short_name": "山学",
    "runner_name": "ゴール",
    "total_distance_km": 315.0,
    "latitude": 34.9260459578771,
    "longitude": 137.20111591839907,
    "current_leg": 4,
    "is_shadow_confederation": false
  },
  {
    "rank": 16,
    "team_name": "関西大学",
    "team_short_name": "関大",
    "runner_name": "ゴール",
    "total_distance_km": 310.0,
    "latitude": 34.89881207418926,
    "longitude": 137.24288956853204,
    "current_leg": 4,
    "is_shadow_confederation": false
  },
  {
    "rank": 17,
    "team_name": "上武大学",
    "team_short_name": "上武",
    "runner_name": "ゴール",
    "total_distance_km": 305.0,
    "latitude": 34.87232189829926,
    "longitude": 137.28397280602533,
    "current_leg": 3,
    "is_shadow_confederation": false
  },
  {
    "rank": 18,
    "team_name": "名古屋大学",
    "team_short_name": "名大",
    "runner_name": "ゴール",
    "total_distance_km": 300.0,
    "latitude": 34.84257178143009,
    "longitude": 137.32316942589847,
    "current_leg": 3,
    "is_shadow_confederation": false
  }
]