[
  {
    "rank": 1,
    "team_name": "琉球大学",
    "team_short_name": "琉球",
    "runner_name": "波照間",
    "total_distance_km": 508.8,
    "latitude": 34.85006316941373,
    "longitude": 135.70308564702827,
    "is_shadow_confederation": false
  },
  {
    "rank": 2,
    "team_name": "鹿児島大学",
    "team_short_name": "鹿大",
    "runner_name": "西米良",
    "total_distance_km": 389.9,
    "latitude": 34.95368413526443,
    "longitude": 136.611790641341,
    "is_shadow_confederation": false
  },
  {
    "rank": 3,
    "team_name": "熊本学園大学",
    "team_short_name": "熊学",
    "runner_name": "人吉",
    "total_distance_km": 382.4,
    "latitude": 35.00778732561435,
    "longitude": 136.654226,
    "is_shadow_confederation": false
  },
  {
    "rank": 4,
    "team_name": "福岡大学",
    "team_short_name": "福岡",
    "runner_name": "朝倉",
    "total_distance_km": 362.8,
    "latitude": 35.12413358456934,
    "longitude": 136.78158079407092,
    "is_shadow_confederation": false
  },
  {
    "rank": 5,
    "team_name": "名古屋大学",
    "team_short_name": "名大",
    "runner_name": "愛西",
    "total_distance_km": 334.4,
    "latitude": 35.02092481791872,
    "longitude": 137.0317067358614,
    "is_shadow_confederation": false
  },
  {
    "rank": 6,
    "team_name": "四国大学",
    "team_short_name": "四国",
    "runner_name": "松山",
    "total_distance_km": 333.1,
    "latitude": 35.013087614505245,
    "longitude": 137.04210284833428,
    "is_shadow_confederation": false
  },
  {
    "rank": 7,
    "team_name": "上武大学",
    "team_short_name": "上武",
    "runner_name": "熊谷",
    "total_distance_km": 320.6,
    "latitude": 34.95813952686449,
    "longitude": 137.15899133285245,
    "is_shadow_confederation": false
  },
  {
    "rank": 8,
    "team_name": "三重大学",
    "team_short_name": "三重",
    "runner_name": "小俣",
    "total_distance_km": 317.7,
    "latitude": 34.94695307977894,
    "longitude": 137.18724949018662,
    "is_shadow_confederation": false
  },
  {
    "rank": 9,
    "team_name": "日本大学",
    "team_short_name": "日大",
    "runner_name": "下館",
    "total_distance_km": 317.4,
    "latitude": 34.94506953721593,
    "longitude": 137.1895755774736,
    "is_shadow_confederation": false
  },
  {
    "rank": 10,
    "team_name": "広島経済大学",
    "team_short_name": "広経",
    "runner_name": "府中（広島）",
    "total_distance_km": 315.8,
    "latitude": 34.932191557135326,
    "longitude": 137.1966869823827,
    "is_shadow_confederation": false
  },
  {
    "rank": 11,
    "team_name": "鳥取大学",
    "team_short_name": "鳥取",
    "runner_name": "広瀬",
    "total_distance_km": 308.7,
    "latitude": 34.89452278653509,
    "longitude": 137.25593962912433,
    "is_shadow_confederation": false
  },
  {
    "rank": 12,
    "team_name": "関西大学",
    "team_short_name": "関大",
    "runner_name": "上郡",
    "total_distance_km": 304.0,
    "latitude": 34.86780131592213,
    "longitude": 137.29342728291402,
    "is_shadow_confederation": false
  },
  {
    "rank": 13,
    "team_name": "立命館大学",
    "team_short_name": "立命",
    "runner_name": "京田辺",
    "total_distance_km": 295.3,
    "latitude": 34.81070075477743,
    "longitude": 137.35568378117028,
    "is_shadow_confederation": false
  },
  {
    "rank": 14,
    "team_name": "山梨学院大学",
    "team_short_name": "山学",
    "runner_name": "大月",
    "total_distance_km": 269.7,
    "latitude": 34.68356369068301,
    "longitude": 137.54632934066163,
    "is_shadow_confederation": false
  },
  {
    "rank": 15,
    "team_name": "福島大学",
    "team_short_name": "福島",
    "runner_name": "津川",
    "total_distance_km": 266.3,
    "latitude": 34.69403464475363,
    "longitude": 137.5789500894621,
    "is_shadow_confederation": false
  },
  {
    "rank": 16,
    "team_name": "金沢大学",
    "team_short_name": "金沢",
    "runner_name": "七尾",
    "total_distance_km": 248.4,
    "latitude": 34.71066336740722,
    "longitude": 137.75387777449401,
    "is_shadow_confederation": false
  },
  {
    "rank": 17,
    "team_name": "東北大学",
    "team_short_name": "東北",
    "runner_name": "山形（山形）",
    "total_distance_km": 193.1,
    "latitude": 34.888862992283954,
    "longitude": 138.25470522957562,
    "is_shadow_confederation": false
  },
  {
    "rank": 18,
    "team_name": "学連選抜",
    "team_short_name": "学連",
    "runner_name": "美幌",
    "total_distance_km": 99.6,
    "latitude": 35.18806279607496,
    "longitude": 139.03993088670256,
    "is_shadow_confederation": false
  },
  {
    "rank": null,
    "team_name": "区間記録連合",
    "team_short_name": "区間記録",
    "runner_name": "桐生",
    "total_distance_km": 565.2,
    "latitude": 34.701070492371635,
    "longitude": 135.21277528303625,
    "is_shadow_confederation": true
  }
]