[
  {
    "rank": 1,
    "team_name": "琉球大学",
    "team_short_name": "琉球",
    "runner_name": "名護",
    "total_distance_km": 357.8,
    "latitude": 35.124186277309704,
    "longitude": 136.83582006469885,
    "is_shadow_confederation": false
  },
  {
    "rank": 2,
    "team_name": "熊本学園大学",
    "team_short_name": "熊学",
    "runner_name": "人吉",
    "total_distance_km": 344.7,
    "latitude": 35.07775692761202,
    "longitude": 136.9463011908341,
    "is_shadow_confederation": false
  },
  {
    "rank": 3,
    "team_name": "福岡大学",
    "team_short_name": "福岡",
    "runner_name": "朝倉",
    "total_distance_km": 333.8,
    "latitude": 35.01684390489834,
    "longitude": 137.03600176276413,
    "is_shadow_confederation": false
  },
  {
    "rank": 4,
    "team_name": "立命館大学",
    "team_short_name": "立命",
    "runner_name": "米原",
    "total_distance_km": 332.8,
    "latitude": 35.01158622493341,
    "longitude": 137.0448365081087,
    "is_shadow_confederation": false
  },
  {
    "rank": 5,
    "team_name": "四国大学",
    "team_short_name": "四国",
    "runner_name": "御荘",
    "total_distance_km": 328.9,
    "latitude": 34.99207929478066,
    "longitude": 137.07964017815948,
    "is_shadow_confederation": false
  },
  {
    "rank": 6,
    "team_name": "鹿児島大学",
    "team_short_name": "鹿大",
    "runner_name": "加久藤",
    "total_distance_km": 327.7,
    "latitude": 34.98563839851103,
    "longitude": 137.09015730428573,
    "is_shadow_confederation": false
  },
  {
    "rank": 7,
    "team_name": "名古屋大学",
    "team_short_name": "名大",
    "runner_name": "大垣",
    "total_distance_km": 324.1,
    "latitude": 34.97093327144133,
    "longitude": 137.12486255093086,
    "is_shadow_confederation": false
  },
  {
    "rank": 8,
    "team_name": "三重大学",
    "team_short_name": "三重",
    "runner_name": "小俣",
    "total_distance_km": 323.5,
    "latitude": 34.96843454437815,
    "longitude": 137.1305723942558,
    "is_shadow_confederation": false
  },
  {
    "rank": 9,
    "team_name": "広島経済大学",
    "team_short_name": "広経",
    "runner_name": "府中（広島）",
    "total_distance_km": 323.1,
    "latitude": 34.96624810629346,
    "longitude": 137.13399384652752,
    "is_shadow_confederation": false
  },
  {
    "rank": 10,
    "team_name": "関西大学",
    "team_short_name": "関大",
    "runner_name": "上郡",
    "total_distance_km": 321.8,
    "latitude": 34.96030433753951,
    "longitude": 137.14625779267652,
    "is_shadow_confederation": false
  },
  {
    "rank": 11,
    "team_name": "鳥取大学",
    "team_short_name": "鳥取",
    "runner_name": "広瀬",
    "total_distance_km": 321.0,
    "latitude": 34.958649423174286,
    "longitude": 137.1546589098836,
    "is_shadow_confederation": false
  },
  {
    "rank": 12,
    "team_name": "山梨学院大学",
    "team_short_name": "山学",
    "runner_name": "大月",
    "total_distance_km": 318.2,
    "latitude": 34.94942348760927,
    "longitude": 137.18267929812447,
    "is_shadow_confederation": false
  },
  {
    "rank": 13,
    "team_name": "金沢大学",
    "team_short_name": "金沢",
    "runner_name": "七尾",
    "total_distance_km": 317.4,
    "latitude": 34.94506953721593,
    "longitude": 137.1895755774736,
    "is_shadow_confederation": false
  },
  {
    "rank": 14,
    "team_name": "上武大学",
    "team_short_name": "上武",
    "runner_name": "熊谷",
    "total_distance_km": 313.1,
    "latitude": 34.91516005618256,
    "longitude": 137.2166312217025,
    "is_shadow_confederation": false
  },
  {
    "rank": 15,
    "team_name": "日本大学",
    "team_short_name": "日大",
    "runner_name": "下館",
    "total_distance_km": 309.5,
    "latitude": 34.89767221286307,
    "longitude": 137.24812348386607,
    "is_shadow_confederation": false
  },
  {
    "rank": 16,
    "team_name": "福島大学",
    "team_short_name": "福島",
    "runner_name": "津川",
    "total_distance_km": 282.2,
    "latitude": 34.72274001736955,
    "longitude": 137.43875743516585,
    "is_shadow_confederation": false
  },
  {
    "rank": 17,
    "team_name": "東北大学",
    "team_short_name": "東北",
    "runner_name": "高畠",
    "total_distance_km": 272.8,
    "latitude": 34.679294700584215,
    "longitude": 137.51329720602288,
    "is_shadow_confederation": false
  },
  {
    "rank": 18,
    "team_name": "学連選抜",
    "team_short_name": "学連",
    "runner_name": "大村",
    "total_distance_km": 262.6,
    "latitude": 34.684496867970964,
    "longitude": 137.616785721999,
    "is_shadow_confederation": false
  }
]