[
  {
    "rank": 1,
    "team_name": "琉球大学",
    "team_short_name": "琉球",
    "runner_name": "西表島",
    "total_distance_km": 870.4,
    "latitude": 34.390142312202336,
    "longitude": 132.42507063167156,
    "is_shadow_confederation": false
  },
  {
    "rank": 2,
    "team_name": "熊本学園大学",
    "team_short_name": "熊学",
    "runner_name": "三角",
    "total_distance_km": 817.5,
    "latitude": 34.387868175709,
    "longitude": 132.89855518983254,
    "is_shadow_confederation": false
  },
  {
    "rank": 3,
    "team_name": "福岡大学",
    "team_short_name": "福岡",
    "runner_name": "大牟田",
    "total_distance_km": 798.8,
    "latitude": 34.3956963438617,
    "longitude": 133.07190575458873,
    "is_shadow_confederation": false
  },
  {
    "rank": 4,
    "team_name": "名古屋大学",
    "team_short_name": "名大",
    "runner_name": "大府",
    "total_distance_km": 797.4,
    "latitude": 34.39742810202468,
    "longitude": 133.08499348096927,
    "is_shadow_confederation": false
  },
  {
    "rank": 5,
    "team_name": "関西大学",
    "team_short_name": "関大",
    "runner_name": "郡家",
    "total_distance_km": 797.1,
    "latitude": 34.397301331040836,
    "longitude": 133.08825245201638,
    "is_shadow_confederation": false
  },
  {
    "rank": 6,
    "team_name": "鹿児島大学",
    "team_short_name": "鹿大",
    "runner_name": "さつま柏原",
    "total_distance_km": 793.3,
    "latitude": 34.38283795105956,
    "longitude": 133.12117141403252,
    "is_shadow_confederation": false
  },
  {
    "rank": 7,
    "team_name": "鳥取大学",
    "team_short_name": "鳥取",
    "runner_name": "玖珂",
    "total_distance_km": 788.8,
    "latitude": 34.39723817430703,
    "longitude": 133.16552100405772,
    "is_shadow_confederation": false
  },
  {
    "rank": 8,
    "team_name": "広島経済大学",
    "team_short_name": "広経",
    "runner_name": "引田",
    "total_distance_km": 787.6,
    "latitude": 34.40023222450703,
    "longitude": 133.17800105701838,
    "is_shadow_confederation": false
  },
  {
    "rank": 9,
    "team_name": "立命館大学",
    "team_short_name": "立命",
    "runner_name": "京都",
    "total_distance_km": 787.0,
    "latitude": 34.401895934928895,
    "longitude": 133.1842100845119,
    "is_shadow_confederation": false
  },
  {
    "rank": 10,
    "team_name": "四国大学",
    "team_short_name": "四国",
    "runner_name": "江川崎",
    "total_distance_km": 781.6,
    "latitude": 34.416718394846896,
    "longitude": 133.2313799483101,
    "is_shadow_confederation": false
  },
  {
    "rank": 11,
    "team_name": "上武大学",
    "team_short_name": "上武",
    "runner_name": "前橋",
    "total_distance_km": 769.0,
    "latitude": 34.48152343529288,
    "longitude": 133.32341133578186,
    "is_shadow_confederation": false
  },
  {
    "rank": 12,
    "team_name": "山梨学院大学",
    "team_short_name": "山学",
    "runner_name": "上田",
    "total_distance_km": 768.5,
    "latitude": 34.48389423658809,
    "longitude": 133.32793049415315,
    "is_shadow_confederation": false
  },
  {
    "rank": 13,
    "team_name": "三重大学",
    "team_short_name": "三重",
    "runner_name": "和歌山",
    "total_distance_km": 767.0,
    "latitude": 34.48341036151942,
    "longitude": 133.34351308089853,
    "is_shadow_confederation": false
  },
  {
    "rank": 14,
    "team_name": "金沢大学",
    "team_short_name": "金沢",
    "runner_name": "小松",
    "total_distance_km": 764.4,
    "latitude": 34.48678227695132,
    "longitude": 133.37063769662544,
    "is_shadow_confederation": false
  },
  {
    "rank": 15,
    "team_name": "日本大学",
    "team_short_name": "日大",
    "runner_name": "練馬",
    "total_distance_km": 740.1,
    "latitude": 34.53454649477501,
    "longitude": 133.60515428218497,
    "is_shadow_confederation": false
  },
  {
    "rank": 16,
    "team_name": "学連選抜",
    "team_short_name": "学連",
    "runner_name": "加世田",
    "total_distance_km": 718.0,
    "latitude": 34.62845077927404,
    "longitude": 133.80218835665357,
    "is_shadow_confederation": false
  },
  {
    "rank": 17,
    "team_name": "福島大学",
    "team_short_name": "福島",
    "runner_name": "寺泊",
    "total_distance_km": 703.4,
    "latitude": 34.66551632545214,
    "longitude": 133.945769619353,
    "is_shadow_confederation": false
  },
  {
    "rank": 18,
    "team_name": "東北大学",
    "team_short_name": "東北",
    "runner_name": "秋田",
    "total_distance_km": 697.1,
    "latitude": 34.69003498691501,
    "longitude": 134.00574155506297,
    "is_shadow_confederation": false
  }
]