[
  {
    "rank": 1,
    "team_name": "琉球大学",
    "team_short_name": "琉球",
    "runner_name": "波照間",
    "total_distance_km": 530.6,
    "latitude": 34.713391480651254,
    "longitude": 135.54640655311962,
    "is_shadow_confederation": false
  },
  {
    "rank": 2,
    "team_name": "熊本学園大学",
    "team_short_name": "熊学",
    "runner_name": "熊本",
    "total_distance_km": 467.4,
    "latitude": 34.998119234375736,
    "longitude": 135.94546542281324,
    "is_shadow_confederation": false
  },
  {
    "rank": 3,
    "team_name": "鹿児島大学",
    "team_short_name": "鹿大",
    "runner_name": "西都",
    "total_distance_km": 456.4,
    "latitude": 35.02150496407409,
    "longitude": 136.049241484879,
    "is_shadow_confederation": false
  },
  {
    "rank": 4,
    "team_name": "福岡大学",
    "team_short_name": "福岡",
    "runner_name": "前原",
    "total_distance_km": 438.0,
    "latitude": 34.95276226710452,
    "longitude": 136.22502478113344,
    "is_shadow_confederation": false
  },
  {
    "rank": 5,
    "team_name": "四国大学",
    "team_short_name": "四国",
    "runner_name": "大洲",
    "total_distance_km": 420.5,
    "latitude": 34.870874992514416,
    "longitude": 136.36255573298334,
    "is_shadow_confederation": false
  },
  {
    "rank": 6,
    "team_name": "広島経済大学",
    "team_short_name": "広経",
    "runner_name": "高梁",
    "total_distance_km": 407.1,
    "latitude": 34.86034919134231,
    "longitude": 136.4849867525619,
    "is_shadow_confederation": false
  },
  {
    "rank": 7,
    "team_name": "鳥取大学",
    "team_short_name": "鳥取",
    "runner_name": "防府",
    "total_distance_km": 398.2,
    "latitude": 34.90753798160825,
    "longitude": 136.550500842861,
    "is_shadow_confederation": false
  },
  {
    "rank": 8,
    "team_name": "名古屋大学",
    "team_short_name": "名大",
    "runner_name": "愛西",
    "total_distance_km": 394.5,
    "latitude": 34.92174328187169,
    "longitude": 136.58193416343758,
    "is_shadow_confederation": false
  },
  {
    "rank": 9,
    "team_name": "関西大学",
    "team_short_name": "関大",
    "runner_name": "柏原",
    "total_distance_km": 387.2,
    "latitude": 34.97449716730851,
    "longitude": 136.62522964603608,
    "is_shadow_confederation": false
  },
  {
    "rank": 10,
    "team_name": "立命館大学",
    "team_short_name": "立命",
    "runner_name": "米原",
    "total_distance_km": 387.1,
    "latitude": 34.97533162942175,
    "longitude": 136.62560738476296,
    "is_shadow_confederation": false
  },
  {
    "rank": 11,
    "team_name": "三重大学",
    "team_short_name": "三重",
    "runner_name": "風屋",
    "total_distance_km": 379.8,
    "latitude": 35.025901879988524,
    "longitude": 136.67160818143597,
    "is_shadow_confederation": false
  },
  {
    "rank": 12,
    "team_name": "金沢大学",
    "team_short_name": "金沢",
    "runner_name": "志賀",
    "total_distance_km": 368.4,
    "latitude": 35.11051044944407,
    "longitude": 136.72254342781295,
    "is_shadow_confederation": false
  },
  {
    "rank": 13,
    "team_name": "日本大学",
    "team_short_name": "日大",
    "runner_name": "小田原",
    "total_distance_km": 365.1,
    "latitude": 35.11905978210786,
    "longitude": 136.7571421003013,
    "is_shadow_confederation": false
  },
  {
    "rank": 14,
    "team_name": "上武大学",
    "team_short_name": "上武",
    "runner_name": "寄居",
    "total_distance_km": 362.6,
    "latitude": 35.124369849037436,
    "longitude": 136.7837538947805,
    "is_shadow_confederation": false
  },
  {
    "rank": 15,
    "team_name": "山梨学院大学",
    "team_short_name": "山学",
    "runner_name": "浜松",
    "total_distance_km": 342.2,
    "latitude": 35.06552970352483,
    "longitude": 136.96902704807903,
    "is_shadow_confederation": false
  },
  {
    "rank": 16,
    "team_name": "福島大学",
    "team_short_name": "福島",
    "runner_name": "津川",
    "total_distance_km": 315.0,
    "latitude": 34.92604595787706,
    "longitude": 137.20111591839913,
    "is_shadow_confederation": false
  },
  {
    "rank": 17,
    "team_name": "学連選抜",
    "team_short_name": "学連",
    "runner_name": "大村",
    "total_distance_km": 292.0,
    "latitude": 34.78682257701161,
    "longitude": 137.37715922310574,
    "is_shadow_confederation": false
  },
  {
    "rank": 18,
    "team_name": "東北大学",
    "team_short_name": "東北",
    "runner_name": "高畠",
    "total_distance_km": 259.7,
    "latitude": 34.683427272075726,
    "longitude": 137.6481383844192,
    "is_shadow_confederation": false
  }
]