[
  {
    "rank": 1,
    "team_name": "琉球大学",
    "team_short_name": "琉球",
    "runner_name": "北原",
    "total_distance_km": 100.2,
    "latitude": 35.18636468598642,
    "longitude": 139.0338157722364,
    "is_shadow_confederation": false
  },
  {
    "rank": 2,
    "team_name": "鹿児島大学",
    "team_short_name": "鹿大",
    "runner_name": "東市来",
    "total_distance_km": 66.0,
    "latitude": 35.31381646166465,
    "longitude": 139.33048983219882,
    "is_shadow_confederation": false
  },
  {
    "rank": 3,
    "team_name": "福岡大学",
    "team_short_name": "福岡",
    "runner_name": "久留米",
    "total_distance_km": 64.0,
    "latitude": 35.31597078469359,
    "longitude": 139.3521089217369,
    "is_shadow_confederation": false
  },
  {
    "rank": 4,
    "team_name": "熊本学園大学",
    "team_short_name": "熊学",
    "runner_name": "甲佐",
    "total_distance_km": 63.0,
    "latitude": 35.31692613547917,
    "longitude": 139.36297917905114,
    "is_shadow_confederation": false
  },
  {
    "rank": 5,
    "team_name": "三重大学",
    "team_short_name": "三重",
    "runner_name": "粥見",
    "total_distance_km": 52.5,
    "latitude": 35.334682839917576,
    "longitude": 139.470414907979,
    "is_shadow_confederation": false
  },
  {
    "rank": 6,
    "team_name": "四国大学",
    "team_short_name": "四国",
    "runner_name": "穴吹",
    "total_distance_km": 51.0,
    "latitude": 35.34258238106255,
    "longitude": 139.48251717058085,
    "is_shadow_confederation": false
  },
  {
    "rank": 7,
    "team_name": "上武大学",
    "team_short_name": "上武",
    "runner_name": "佐野",
    "total_distance_km": 49.8,
    "latitude": 35.350764222069735,
    "longitude": 139.49076221350862,
    "is_shadow_confederation": false
  },
  {
    "rank": 8,
    "team_name": "名古屋大学",
    "team_short_name": "名大",
    "runner_name": "美濃加茂",
    "total_distance_km": 49.4,
    "latitude": 35.35425064417051,
    "longitude": 139.4915961415979,
    "is_shadow_confederation": false
  },
  {
    "rank": 9,
    "team_name": "関西大学",
    "team_short_name": "関大",
    "runner_name": "福崎",
    "total_distance_km": 47.0,
    "latitude": 35.37364897596329,
    "longitude": 139.50304823956523,
    "is_shadow_confederation": false
  },
  {
    "rank": 10,
    "team_name": "日本大学",
    "team_short_name": "日大",
    "runner_name": "大子",
    "total_distance_km": 43.8,
    "latitude": 35.39447851767524,
    "longitude": 139.52601997063033,
    "is_shadow_confederation": false
  },
  {
    "rank": 11,
    "team_name": "鳥取大学",
    "team_short_name": "鳥取",
    "runner_name": "川本",
    "total_distance_km": 40.9,
    "latitude": 35.41401857902459,
    "longitude": 139.5401557477082,
    "is_shadow_confederation": false
  },
  {
    "rank": 12,
    "team_name": "広島経済大学",
    "team_short_name": "広経",
    "runner_name": "三次",
    "total_distance_km": 39.9,
    "latitude": 35.4189752441532,
    "longitude": 139.5490693304278,
    "is_shadow_confederation": false
  },
  {
    "rank": 13,
    "team_name": "立命館大学",
    "team_short_name": "立命",
    "runner_name": "東近江",
    "total_distance_km": 37.8,
    "latitude": 35.42550637858348,
    "longitude": 139.56870293930433,
    "is_shadow_confederation": false
  },
  {
    "rank": 14,
    "team_name": "福島大学",
    "team_short_name": "福島",
    "runner_name": "梁川",
    "total_distance_km": 32.5,
    "latitude": 35.45078293217285,
    "longitude": 139.60460126487516,
    "is_shadow_confederation": false
  },
  {
    "rank": 15,
    "team_name": "金沢大学",
    "team_short_name": "金沢",
    "runner_name": "秋ヶ島",
    "total_distance_km": 32.2,
    "latitude": 35.45206244568775,
    "longitude": 139.60751244009074,
    "is_shadow_confederation": false
  },
  {
    "rank": 16,
    "team_name": "山梨学院大学",
    "team_short_name": "山学",
    "runner_name": "長野",
    "total_distance_km": 26.7,
    "latitude": 35.48443940025142,
    "longitude": 139.6469530694337,
    "is_shadow_confederation": false
  },
  {
    "rank": 17,
    "team_name": "東北大学",
    "team_short_name": "東北",
    "runner_name": "帯広",
    "total_distance_km": 19.7,
    "latitude": 35.526314928655744,
    "longitude": 139.70142021443775,
    "is_shadow_confederation": false
  },
  {
    "rank": 18,
    "team_name": "学連選抜",
    "team_short_name": "学連",
    "runner_name": "美幌",
    "total_distance_km": 1.3,
    "latitude": 35.6785993633893,
    "longitude": 139.75712618770785,
    "is_shadow_confederation": false
  }
]