[
  {
    "rank": 1,
    "team_name": "琉球大学",
    "team_short_name": "琉球",
    "runner_name": "大原",
    "total_distance_km": 907.0,
    "latitude": 34.17061355736739,
    "longitude": 132.20734426571258,
    "is_shadow_confederation": false
  },
  {
    "rank": 2,
    "team_name": "鹿児島大学",
    "team_short_name": "鹿大",
    "runner_name": "鹿児島",
    "total_distance_km": 737.9,
    "latitude": 34.53634378155854,
    "longitude": 133.62873206315533,
    "is_shadow_confederation": false
  },
  {
    "rank": 3,
    "team_name": "熊本学園大学",
    "team_short_name": "熊学",
    "runner_name": "犬飼",
    "total_distance_km": 711.4,
    "latitude": 34.64572082574138,
    "longitude": 133.86761747471647,
    "is_shadow_confederation": false
  },
  {
    "rank": 4,
    "team_name": "福岡大学",
    "team_short_name": "福岡",
    "runner_name": "口之津",
    "total_distance_km": 680.2,
    "latitude": 34.74118357610396,
    "longitude": 134.17051856966225,
    "is_shadow_confederation": false
  },
  {
    "rank": 5,
    "team_name": "四国大学",
    "team_short_name": "四国",
    "runner_name": "徳島",
    "total_distance_km": 646.0,
    "latitude": 34.818411657476105,
    "longitude": 134.47416889400762,
    "is_shadow_confederation": false
  },
  {
    "rank": 6,
    "team_name": "名古屋大学",
    "team_short_name": "名大",
    "runner_name": "豊田（愛知）",
    "total_distance_km": 642.7,
    "latitude": 34.82327515637695,
    "longitude": 134.50890029215267,
    "is_shadow_confederation": false
  },
  {
    "rank": 7,
    "team_name": "日本大学",
    "team_short_name": "日大",
    "runner_name": "八王子",
    "total_distance_km": 616.4,
    "latitude": 34.7993163472405,
    "longitude": 134.76448824886782,
    "is_shadow_confederation": false
  },
  {
    "rank": 8,
    "team_name": "上武大学",
    "team_short_name": "上武",
    "runner_name": "伊勢崎",
    "total_distance_km": 614.5,
    "latitude": 34.79497886641301,
    "longitude": 134.78350584380735,
    "is_shadow_confederation": false
  },
  {
    "rank": 9,
    "team_name": "広島経済大学",
    "team_short_name": "広経",
    "runner_name": "高松（香川）",
    "total_distance_km": 607.5,
    "latitude": 34.76015218777891,
    "longitude": 134.84452455818845,
    "is_shadow_confederation": false
  },
  {
    "rank": 10,
    "team_name": "三重大学",
    "team_short_name": "三重",
    "runner_name": "新宮",
    "total_distance_km": 605.3,
    "latitude": 34.74678146010011,
    "longitude": 134.86221435428817,
    "is_shadow_confederation": false
  },
  {
    "rank": 11,
    "team_name": "関西大学",
    "team_short_name": "関大",
    "runner_name": "豊中",
    "total_distance_km": 597.4,
    "latitude": 34.69469676734896,
    "longitude": 134.91937407127136,
    "is_shadow_confederation": false
  },
  {
    "rank": 12,
    "team_name": "鳥取大学",
    "team_short_name": "鳥取",
    "runner_name": "松江",
    "total_distance_km": 593.3,
    "latitude": 34.671651641426,
    "longitude": 134.9537144262884,
    "is_shadow_confederation": false
  },
  {
    "rank": 13,
    "team_name": "山梨学院大学",
    "team_short_name": "山学",
    "runner_name": "静岡",
    "total_distance_km": 592.5,
    "latitude": 34.66746642616626,
    "longitude": 134.96078858558758,
    "is_shadow_confederation": false
  },
  {
    "rank": 14,
    "team_name": "立命館大学",
    "team_short_name": "立命",
    "runner_name": "彦根",
    "total_distance_km": 565.7,
    "latitude": 34.69893616314154,
    "longitude": 135.2079686463374,
    "is_shadow_confederation": false
  },
  {
    "rank": 15,
    "team_name": "福島大学",
    "team_short_name": "福島",
    "runner_name": "福島",
    "total_distance_km": 529.6,
    "latitude": 34.722219581644026,
    "longitude": 135.54841372521102,
    "is_shadow_confederation": false
  },
  {
    "rank": 16,
    "team_name": "金沢大学",
    "team_short_name": "金沢",
    "runner_name": "福井",
    "total_distance_km": 512.1,
    "latitude": 34.825651321462736,
    "longitude": 135.68305730836607,
    "is_shadow_confederation": false
  },
  {
    "rank": 17,
    "team_name": "東北大学",
    "team_short_name": "東北",
    "runner_name": "一関",
    "total_distance_km": 420.9,
    "latitude": 34.8743037558901,
    "longitude": 136.36142024637167,
    "is_shadow_confederation": false
  },
  {
    "rank": 18,
    "team_name": "学連選抜",
    "team_short_name": "学連",
    "runner_name": "上",
    "total_distance_km": 362.1,
    "latitude": 35.124754656418595,
    "longitude": 136.7892194020859,
    "is_shadow_confederation": false
  },
  {
    "rank": null,
    "team_name": "区間記録連合",
    "team_short_name": "区間記録",
    "runner_name": "豊中",
    "total_distance_km": 927.2,
    "latitude": 34.090671940592884,
    "longitude": 132.03130952734858,
    "is_shadow_confederation": true
  }
]