[
  {
    "rank": 1,
    "team_name": "琉球大学",
    "team_short_name": "琉球",
    "runner_name": "北原",
    "total_distance_km": 103.4,
    "latitude": 35.174484109270495,
    "longitude": 139.01363454659597,
    "is_shadow_confederation": false
  },
  {
    "rank": 2,
    "team_name": "鹿児島大学",
    "team_short_name": "鹿大",
    "runner_name": "東市来",
    "total_distance_km": 76.4,
    "latitude": 35.284629261097656,
    "longitude": 139.22676677267197,
    "is_shadow_confederation": false
  },
  {
    "rank": 3,
    "team_name": "熊本学園大学",
    "team_short_name": "熊学",
    "runner_name": "甲佐",
    "total_distance_km": 72.9,
    "latitude": 35.29871498475715,
    "longitude": 139.26078738200246,
    "is_shadow_confederation": false
  },
  {
    "rank": 4,
    "team_name": "福岡大学",
    "team_short_name": "福岡",
    "runner_name": "久留米",
    "total_distance_km": 70.8,
    "latitude": 35.30448831431971,
    "longitude": 139.28232546308692,
    "is_shadow_confederation": false
  },
  {
    "rank": 5,
    "team_name": "四国大学",
    "team_short_name": "四国",
    "runner_name": "穴吹",
    "total_distance_km": 60.1,
    "latitude": 35.31776056987204,
    "longitude": 139.3929245014505,
    "is_shadow_confederation": false
  },
  {
    "rank": 6,
    "team_name": "三重大学",
    "team_short_name": "三重",
    "runner_name": "粥見",
    "total_distance_km": 59.4,
    "latitude": 35.31852815957043,
    "longitude": 139.40056523882905,
    "is_shadow_confederation": false
  },
  {
    "rank": 7,
    "team_name": "名古屋大学",
    "team_short_name": "名大",
    "runner_name": "美濃加茂",
    "total_distance_km": 55.9,
    "latitude": 35.32322777417368,
    "longitude": 139.4369811767349,
    "is_shadow_confederation": false
  },
  {
    "rank": 8,
    "team_name": "関西大学",
    "team_short_name": "関大",
    "runner_name": "福崎",
    "total_distance_km": 54.6,
    "latitude": 35.32692616115975,
    "longitude": 139.45041843559554,
    "is_shadow_confederation": false
  },
  {
    "rank": 9,
    "team_name": "上武大学",
    "team_short_name": "上武",
    "runner_name": "佐野",
    "total_distance_km": 54.4,
    "latitude": 35.327280632319045,
    "longitude": 139.45257513371646,
    "is_shadow_confederation": false
  },
  {
    "rank": 10,
    "team_name": "日本大学",
    "team_short_name": "日大",
    "runner_name": "大子",
    "total_distance_km": 54.2,
    "latitude": 35.32805877281061,
    "longitude": 139.45450742148003,
    "is_shadow_confederation": false
  },
  {
    "rank": 11,
    "team_name": "鳥取大学",
    "team_short_name": "鳥取",
    "runner_name": "川本",
    "total_distance_km": 51.5,
    "latitude": 35.340297250468545,
    "longitude": 139.47800605618633,
    "is_shadow_confederation": false
  },
  {
    "rank": 12,
    "team_name": "広島経済大学",
    "team_short_name": "広経",
    "runner_name": "三次",
    "total_distance_km": 50.5,
    "latitude": 35.34553076234349,
    "longitude": 139.4866495470111,
    "is_shadow_confederation": false
  },
  {
    "rank": 13,
    "team_name": "立命館大学",
    "team_short_name": "立命",
    "runner_name": "東近江",
    "total_distance_km": 48.1,
    "latitude": 35.36472912472001,
    "longitude": 139.4977807884511,
    "is_shadow_confederation": false
  },
  {
    "rank": 14,
    "team_name": "福島大学",
    "team_short_name": "福島",
    "runner_name": "梁川",
    "total_distance_km": 43.2,
    "latitude": 35.39945715968636,
    "longitude": 139.52785941848902,
    "is_shadow_confederation": false
  },
  {
    "rank": 15,
    "team_name": "金沢大学",
    "team_short_name": "金沢",
    "runner_name": "秋ヶ島",
    "total_distance_km": 37.9,
    "latitude": 35.42506527117313,
    "longitude": 139.56774266069885,
    "is_shadow_confederation": false
  },
  {
    "rank": 16,
    "team_name": "山梨学院大学",
    "team_short_name": "山学",
    "runner_name": "長野",
    "total_distance_km": 32.7,
    "latitude": 35.449558023975975,
    "longitude": 139.6030510405588,
    "is_shadow_confederation": false
  },
  {
    "rank": 17,
    "team_name": "東北大学",
    "team_short_name": "東北",
    "runner_name": "帯広",
    "total_distance_km": 23.8,
    "latitude": 35.49845234949444,
    "longitude": 139.67288444824413,
    "is_shadow_confederation": false
  },
  {
    "rank": 18,
    "team_name": "学連選抜",
    "team_short_name": "学連",
    "runner_name": "美幌",
    "total_distance_km": 2.7,
    "latitude": 35.66724817713031,
    "longitude": 139.75042280946656,
    "is_shadow_confederation": false
  }
]