[
  {
    "rank": 1,
    "team_name": "琉球大学",
    "team_short_name": "琉球",
    "runner_name": "西表島",
    "total_distance_km": 857.4,
    "latitude": 34.37694825367021,
    "longitude": 132.55010387209563,
    "is_shadow_confederation": false
  },
  {
    "rank": 2,
    "team_name": "福岡大学",
    "team_short_name": "福岡",
    "runner_name": "大牟田",
    "total_distance_km": 841.0,
    "latitude": 34.44337016981941,
    "longitude": 132.67454937053319,
    "is_shadow_confederation": false
  },
  {
    "rank": 3,
    "team_name": "名古屋大学",
    "team_short_name": "名大",
    "runner_name": "大府",
    "total_distance_km": 839.1,
    "latitude": 34.43782595300003,
    "longitude": 132.69405939771394,
    "is_shadow_confederation": false
  },
  {
    "rank": 4,
    "team_name": "熊本学園大学",
    "team_short_name": "熊学",
    "runner_name": "三角",
    "total_distance_km": 833.3,
    "latitude": 34.407954926208866,
    "longitude": 132.7452040932714,
    "is_shadow_confederation": false
  },
  {
    "rank": 5,
    "team_name": "鹿児島大学",
    "team_short_name": "鹿大",
    "runner_name": "さつま柏原",
    "total_distance_km": 833.0,
    "latitude": 34.40628314189202,
    "longitude": 132.74776890061722,
    "is_shadow_confederation": false
  },
  {
    "rank": 6,
    "team_name": "四国大学",
    "team_short_name": "四国",
    "runner_name": "江川崎",
    "total_distance_km": 831.1,
    "latitude": 34.39758051082607,
    "longitude": 132.76497246133695,
    "is_shadow_confederation": false
  },
  {
    "rank": 7,
    "team_name": "関西大学",
    "team_short_name": "関大",
    "runner_name": "郡家",
    "total_distance_km": 830.2,
    "latitude": 34.399565518263095,
    "longitude": 132.77445018981024,
    "is_shadow_confederation": false
  },
  {
    "rank": 8,
    "team_name": "広島経済大学",
    "team_short_name": "広経",
    "runner_name": "引田",
    "total_distance_km": 824.7,
    "latitude": 34.40675024167532,
    "longitude": 132.82954369179254,
    "is_shadow_confederation": false
  },
  {
    "rank": 9,
    "team_name": "立命館大学",
    "team_short_name": "立命",
    "runner_name": "京都",
    "total_distance_km": 818.2,
    "latitude": 34.39031055545613,
    "longitude": 132.8926820918192,
    "is_shadow_confederation": false
  },
  {
    "rank": 10,
    "team_name": "三重大学",
    "team_short_name": "三重",
    "runner_name": "和歌山",
    "total_distance_km": 813.1,
    "latitude": 34.39008186041644,
    "longitude": 132.93715323250206,
    "is_shadow_confederation": false
  },
  {
    "rank": 11,
    "team_name": "日本大学",
    "team_short_name": "日大",
    "runner_name": "府中（東京）",
    "total_distance_km": 810.9,
    "latitude": 34.40386127286855,
    "longitude": 132.95383360183845,
    "is_shadow_confederation": false
  },
  {
    "rank": 12,
    "team_name": "山梨学院大学",
    "team_short_name": "山学",
    "runner_name": "上田",
    "total_distance_km": 809.6,
    "latitude": 34.40491153839169,
    "longitude": 132.96749393406796,
    "is_shadow_confederation": false
  },
  {
    "rank": 13,
    "team_name": "鳥取大学",
    "team_short_name": "鳥取",
    "runner_name": "玖珂",
    "total_distance_km": 806.7,
    "latitude": 34.402431596999136,
    "longitude": 132.99673733704955,
    "is_shadow_confederation": false
  },
  {
    "rank": 14,
    "team_name": "上武大学",
    "team_short_name": "上武",
    "runner_name": "前橋",
    "total_distance_km": 797.3,
    "latitude": 34.397385845030065,
    "longitude": 133.08607980465166,
    "is_shadow_confederation": false
  },
  {
    "rank": 15,
    "team_name": "金沢大学",
    "team_short_name": "金沢",
    "runner_name": "小松",
    "total_distance_km": 787.6,
    "latitude": 34.40023222450703,
    "longitude": 133.17800105701838,
    "is_shadow_confederation": false
  },
  {
    "rank": 16,
    "team_name": "学連選抜",
    "team_short_name": "学連",
    "runner_name": "飯塚",
    "total_distance_km": 775.0,
    "latitude": 34.45523282086704,
    "longitude": 133.26835597239307,
    "is_shadow_confederation": false
  },
  {
    "rank": 17,
    "team_name": "福島大学",
    "team_short_name": "福島",
    "runner_name": "喜多方",
    "total_distance_km": 767.1,
    "latitude": 34.483598515831126,
    "longitude": 133.342448418259,
    "is_shadow_confederation": false
  },
  {
    "rank": 18,
    "team_name": "東北大学",
    "team_short_name": "東北",
    "runner_name": "秋田",
    "total_distance_km": 710.2,
    "latitude": 34.648392301801145,
    "longitude": 133.88015074755694,
    "is_shadow_confederation": false
  },
  {
    "rank": null,
    "team_name": "区間記録連合",
    "team_short_name": "区間記録",
    "runner_name": "西脇",
    "total_distance_km": 857.4,
    "latitude": 34.37694825367021,
    "longitude": 132.55010387209563,
    "is_shadow_confederation": true
  }
]