[
  {
    "rank": 1,
    "team_name": "琉球大学",
    "team_short_name": "琉球",
    "runner_name": "那覇",
    "total_distance_km": 762.1,
    "latitude": 34.48903803665406,
    "longitude": 133.3953377584786,
    "is_shadow_confederation": false
  },
  {
    "rank": 2,
    "team_name": "名古屋大学",
    "team_short_name": "名大",
    "runner_name": "名古屋",
    "total_distance_km": 751.2,
    "latitude": 34.50626148291765,
    "longitude": 133.5007723953865,
    "is_shadow_confederation": false
  },
  {
    "rank": 3,
    "team_name": "福岡大学",
    "team_short_name": "福岡",
    "runner_name": "口之津",
    "total_distance_km": 747.9,
    "latitude": 34.49946759311758,
    "longitude": 133.53308277714478,
    "is_shadow_confederation": false
  },
  {
    "rank": 4,
    "team_name": "鹿児島大学",
    "team_short_name": "鹿大",
    "runner_name": "鹿児島",
    "total_distance_km": 743.1,
    "latitude": 34.5213354479519,
    "longitude": 133.57679148135983,
    "is_shadow_confederation": false
  },
  {
    "rank": 5,
    "team_name": "四国大学",
    "team_short_name": "四国",
    "runner_name": "新居浜",
    "total_distance_km": 742.6,
    "latitude": 34.52368095107627,
    "longitude": 133.58144175217956,
    "is_shadow_confederation": false
  },
  {
    "rank": 6,
    "team_name": "関西大学",
    "team_short_name": "関大",
    "runner_name": "八尾（大阪）",
    "total_distance_km": 742.4,
    "latitude": 34.52461915232602,
    "longitude": 133.58330186050745,
    "is_shadow_confederation": false
  },
  {
    "rank": 7,
    "team_name": "熊本学園大学",
    "team_short_name": "熊学",
    "runner_name": "犬飼",
    "total_distance_km": 738.0,
    "latitude": 34.53612194854218,
    "longitude": 133.627676225961,
    "is_shadow_confederation": false
  },
  {
    "rank": 8,
    "team_name": "立命館大学",
    "team_short_name": "立命",
    "runner_name": "長浜（滋賀）",
    "total_distance_km": 737.2,
    "latitude": 34.537896612673045,
    "longitude": 133.6361229235157,
    "is_shadow_confederation": false
  },
  {
    "rank": 9,
    "team_name": "広島経済大学",
    "team_short_name": "広経",
    "runner_name": "福山",
    "total_distance_km": 735.4,
    "latitude": 34.54618564182588,
    "longitude": 133.65237467976405,
    "is_shadow_confederation": false
  },
  {
    "rank": 10,
    "team_name": "三重大学",
    "team_short_name": "三重",
    "runner_name": "津",
    "total_distance_km": 730.5,
    "latitude": 34.57055852179033,
    "longitude": 133.69432040025268,
    "is_shadow_confederation": false
  },
  {
    "rank": 11,
    "team_name": "山梨学院大学",
    "team_short_name": "山学",
    "runner_name": "三島",
    "total_distance_km": 724.9,
    "latitude": 34.58806018942067,
    "longitude": 133.74652798677278,
    "is_shadow_confederation": false
  },
  {
    "rank": 12,
    "team_name": "日本大学",
    "team_short_name": "日大",
    "runner_name": "練馬",
    "total_distance_km": 717.4,
    "latitude": 34.631529999365576,
    "longitude": 133.80756768148754,
    "is_shadow_confederation": false
  },
  {
    "rank": 13,
    "team_name": "鳥取大学",
    "team_short_name": "鳥取",
    "runner_name": "米子",
    "total_distance_km": 715.3,
    "latitude": 34.64012773514185,
    "longitude": 133.82779268232693,
    "is_shadow_confederation": false
  },
  {
    "rank": 14,
    "team_name": "金沢大学",
    "team_short_name": "金沢",
    "runner_name": "敦賀",
    "total_distance_km": 710.0,
    "latitude": 34.6486009140284,
    "longitude": 133.88231611835343,
    "is_shadow_confederation": false
  },
  {
    "rank": 15,
    "team_name": "上武大学",
    "team_short_name": "上武",
    "runner_name": "小山",
    "total_distance_km": 707.5,
    "latitude": 34.65610028672697,
    "longitude": 133.90776668037702,
    "is_shadow_confederation": false
  },
  {
    "rank": 16,
    "team_name": "福島大学",
    "team_short_name": "福島",
    "runner_name": "寺泊",
    "total_distance_km": 686.4,
    "latitude": 34.72541622415636,
    "longitude": 134.10584796328482,
    "is_shadow_confederation": false
  },
  {
    "rank": 17,
    "team_name": "学連選抜",
    "team_short_name": "学連",
    "runner_name": "加世田",
    "total_distance_km": 682.0,
    "latitude": 34.73775928320468,
    "longitude": 134.15134575965783,
    "is_shadow_confederation": false
  },
  {
    "rank": 18,
    "team_name": "東北大学",
    "team_short_name": "東北",
    "runner_name": "丸森",
    "total_distance_km": 629.6,
    "latitude": 34.84511484134694,
    "longitude": 134.6357344025654,
    "is_shadow_confederation": false
  },
  {
    "rank": null,
    "team_name": "区間記録連合",
    "team_short_name": "区間記録",
    "runner_name": "新居浜",
    "total_distance_km": 762.1,
    "latitude": 34.48903803665406,
    "longitude": 133.3953377584786,
    "is_shadow_confederation": true
  }
]