[
  {
    "rank": 1,
    "team_name": "名古屋大学",
    "team_short_name": "名大",
    "runner_name": "愛西",
    "total_distance_km": 377.9,
    "latitude": 35.04246914728117,
    "longitude": 136.67429690840981,
    "is_shadow_confederation": false
  },
  {
    "rank": 2,
    "team_name": "四国大学",
    "team_short_name": "四国",
    "runner_name": "松山",
    "total_distance_km": 370.0,
    "latitude": 35.10217327697838,
    "longitude": 136.7082235412676,
    "is_shadow_confederation": false
  },
  {
    "rank": 3,
    "team_name": "立命館大学",
    "team_short_name": "立命",
    "runner_name": "米原",
    "total_distance_km": 368.7,
    "latitude": 35.108947229606756,
    "longitude": 136.7198584490857,
    "is_shadow_confederation": false
  },
  {
    "rank": 4,
    "team_name": "福岡大学",
    "team_short_name": "福岡",
    "runner_name": "朝倉",
    "total_distance_km": 366.9,
    "latitude": 35.114591540057084,
    "longitude": 136.7381599557303,
    "is_shadow_confederation": false
  },
  {
    "rank": 5,
    "team_name": "日本大学",
    "team_short_name": "日大",
    "runner_name": "小田原",
    "total_distance_km": 366.0,
    "latitude": 35.11684658978551,
    "longitude": 136.74764347611946,
    "is_shadow_confederation": false
  },
  {
    "rank": 6,
    "team_name": "琉球大学",
    "team_short_name": "琉球",
    "runner_name": "名護",
    "total_distance_km": 365.9,
    "latitude": 35.11709715086644,
    "longitude": 136.74869720060713,
    "is_shadow_confederation": false
  },
  {
    "rank": 7,
    "team_name": "関西大学",
    "team_short_name": "関大",
    "runner_name": "柏原",
    "total_distance_km": 365.1,
    "latitude": 35.11905978210786,
    "longitude": 136.7571421003013,
    "is_shadow_confederation": false
  },
  {
    "rank": 8,
    "team_name": "熊本学園大学",
    "team_short_name": "熊学",
    "runner_name": "人吉",
    "total_distance_km": 364.6,
    "latitude": 35.12028310476231,
    "longitude": 136.7624213612716,
    "is_shadow_confederation": false
  },
  {
    "rank": 9,
    "team_name": "広島経済大学",
    "team_short_name": "広経",
    "runner_name": "大竹",
    "total_distance_km": 363.7,
    "latitude": 35.122485085540305,
    "longitude": 136.7719240310181,
    "is_shadow_confederation": false
  },
  {
    "rank": 10,
    "team_name": "上武大学",
    "team_short_name": "上武",
    "runner_name": "寄居",
    "total_distance_km": 363.5,
    "latitude": 35.12297441460208,
    "longitude": 136.77403573540622,
    "is_shadow_confederation": false
  },
  {
    "rank": 11,
    "team_name": "鳥取大学",
    "team_short_name": "鳥取",
    "runner_name": "防府",
    "total_distance_km": 362.8,
    "latitude": 35.12413358456934,
    "longitude": 136.78158079407092,
    "is_shadow_confederation": false
  },
  {
    "rank": 12,
    "team_name": "山梨学院大学",
    "team_short_name": "山学",
    "runner_name": "浜松",
    "total_distance_km": 361.3,
    "latitude": 35.125370348228444,
    "longitude": 136.79796421377458,
    "is_shadow_confederation": false
  },
  {
    "rank": 13,
    "team_name": "三重大学",
    "team_short_name": "三重",
    "runner_name": "風屋",
    "total_distance_km": 360.1,
    "latitude": 35.12629388594323,
    "longitude": 136.81108143130757,
    "is_shadow_confederation": false
  },
  {
    "rank": 14,
    "team_name": "鹿児島大学",
    "team_short_name": "鹿大",
    "runner_name": "西米良",
    "total_distance_km": 352.0,
    "latitude": 35.1239319745803,
    "longitude": 136.89919234555762,
    "is_shadow_confederation": false
  },
  {
    "rank": 15,
    "team_name": "金沢大学",
    "team_short_name": "金沢",
    "runner_name": "志賀",
    "total_distance_km": 349.9,
    "latitude": 35.11594845779595,
    "longitude": 136.9191711880643,
    "is_shadow_confederation": false
  },
  {
    "rank": 16,
    "team_name": "福島大学",
    "team_short_name": "福島",
    "runner_name": "長岡",
    "total_distance_km": 341.9,
    "latitude": 35.064373516820396,
    "longitude": 136.9720000996047,
    "is_shadow_confederation": false
  },
  {
    "rank": 17,
    "team_name": "学連選抜",
    "team_short_name": "学連",
    "runner_name": "大村",
    "total_distance_km": 309.8,
    "latitude": 34.89832161733107,
    "longitude": 137.24497581634932,
    "is_shadow_confederation": false
  },
  {
    "rank": 18,
    "team_name": "東北大学",
    "team_short_name": "東北",
    "runner_name": "高畠",
    "total_distance_km": 306.9,
    "latitude": 34.88255741540699,
    "longitude": 137.26737508205602,
    "is_shadow_confederation": false
  },
  {
    "rank": null,
    "team_name": "区間記録連合",
    "team_short_name": "区間記録",
    "runner_name": "風屋",
    "total_distance_km": 395.3,
    "latitude": 34.9162178754756,
    "longitude": 136.57669726940284,
    "is_shadow_confederation": true
  }
]