[
  {
    "rank": 1,
    "team_name": "琉球大学",
    "team_short_name": "琉球",
    "runner_name": "盛山",
    "total_distance_km": 333.1,
    "latitude": 35.013087614505245,
    "longitude": 137.04210284833428,
    "current_leg": 4,
    "is_shadow_confederation": false
  },
  {
    "rank": 2,
    "team_name": "鹿児島大学",
    "team_short_name": "鹿大",
    "runner_name": "加久藤",
    "total_distance_km": 300.3,
    "latitude": 34.844904364048006,
    "longitude": 137.32150988960652,
    "current_leg": 3,
    "is_shadow_confederation": false
  },
  {
    "rank": 3,
    "team_name": "名古屋大学",
    "team_short_name": "名大",
    "runner_name": "大垣",
    "total_distance_km": 299.2,
    "latitude": 34.83628512488335,
    "longitude": 137.327449801084,
    "current_leg": 3,
    "is_shadow_confederation": false
  },
  {
    "rank": 4,
    "team_name": "熊本学園大学",
    "team_short_name": "熊学",
    "runner_name": "八代",
    "total_distance_km": 292.0,
    "latitude": 34.78682257701161,
    "longitude": 137.37715922310574,
    "current_leg": 3,
    "is_shadow_confederation": false
  },
  {
    "rank": 5,
    "team_name": "福岡大学",
    "team_short_name": "福岡",
    "runner_name": "黒木",
    "total_distance_km": 289.5,
    "latitude": 34.76804627381888,
    "longitude": 137.3904432516086,
    "current_leg": 3,
    "is_shadow_confederation": false
  },
  {
    "rank": 6,
    "team_name": "鳥取大学",
    "team_short_name": "鳥取",
    "runner_name": "広瀬",
    "total_distance_km": 287.9,
    "latitude": 34.76163296826563,
    "longitude": 137.40521068884675,
    "current_leg": 3,
    "is_shadow_confederation": false
  },
  {
    "rank": 7,
    "team_name": "金沢大学",
    "team_short_name": "金沢",
    "runner_name": "七尾",
    "total_distance_km": 286.7,
    "latitude": 34.75249412046862,
    "longitude": 137.4121325945101,
    "current_leg": 3,
    "is_shadow_confederation": false
  },
  {
    "rank": 8,
    "team_name": "立命館大学",
    "team_short_name": "立命",
    "runner_name": "京田辺",
    "total_distance_km": 286.3,
    "latitude": 34.74904833020766,
    "longitude": 137.4133860021576,
    "current_leg": 3,
    "is_shadow_confederation": false
  },
  {
    "rank": 9,
    "team_name": "関西大学",
    "team_short_name": "関大",
    "runner_name": "上郡",
    "total_distance_km": 285.6,
    "latitude": 34.743517648847174,
    "longitude": 137.41646899553987,
    "current_leg": 3,
    "is_shadow_confederation": false
  },
  {
    "rank": 10,
    "team_name": "上武大学",
    "team_short_name": "上武",
    "runner_name": "熊谷",
    "total_distance_km": 284.8,
    "latitude": 34.73852729029006,
    "longitude": 137.4227752390757,
    "current_leg": 3,
    "is_shadow_confederation": false
  },
  {
    "rank": 11,
    "team_name": "日本大学",
    "team_short_name": "日大",
    "runner_name": "下館",
    "total_distance_km": 284.4,
    "latitude": 34.73542044637045,
    "longitude": 137.4243377567342,
    "current_leg": 3,
    "is_shadow_confederation": false
  },
  {
    "rank": 12,
    "team_name": "三重大学",
    "team_short_name": "三重",
    "runner_name": "小俣",
    "total_distance_km": 280.7,
    "latitude": 34.72044513754602,
    "longitude": 137.45460287819262,
    "current_leg": 3,
    "is_shadow_confederation": false
  },
  {
    "rank": 13,
    "team_name": "山梨学院大学",
    "team_short_name": "山学",
    "runner_name": "大月",
    "total_distance_km": 280.5,
    "latitude": 34.72057675168403,
    "longitude": 137.45678051452418,
    "current_leg": 3,
    "is_shadow_confederation": false
  },
  {
    "rank": 14,
    "team_name": "四国大学",
    "team_short_name": "四国",
    "runner_name": "御荘",
    "total_distance_km": 280.0,
    "latitude": 34.719457230690196,
    "longitude": 137.46191966992268,
    "current_leg": 3,
    "is_shadow_confederation": false
  },
  {
    "rank": 15,
    "team_name": "広島経済大学",
    "team_short_name": "広経",
    "runner_name": "府中（広島）",
    "total_distance_km": 268.7,
    "latitude": 34.6867556660336,
    "longitude": 137.5565349498581,
    "current_leg": 3,
    "is_shadow_confederation": false
  },
  {
    "rank": 16,
    "team_name": "東北大学",
    "team_short_name": "東北",
    "runner_name": "高畠",
    "total_distance_km": 265.5,
    "latitude": 34.693719607506104,
    "longitude": 137.58765881564867,
    "current_leg": 3,
    "is_shadow_confederation": false
  },
  {
    "rank": 17,
    "team_name": "福島大学",
    "team_short_name": "福島",
    "runner_name": "津川",
    "total_distance_km": 262.6,
    "latitude": 34.684496867970964,
    "longitude": 137.616785721999,
    "current_leg": 3,
    "is_shadow_confederation": false
  },
  {
    "rank": 18,
    "team_name": "学連選抜",
    "team_short_name": "学連",
    "runner_name": "大村",
    "total_distance_km": 255.0,
    "latitude": 34.68859269057389,
    "longitude": 137.69881746331652,
    "current_leg": 3,
    "is_shadow_confederation": false
  },
  {
    "rank": null,
    "team_name": "区間記録連合",
    "team_short_name": "区間記録",
    "runner_name": "風屋",
    "total_distance_km": 366.5,
    "latitude": 35.11559378438083,
    "longitude": 136.74237485368104,
    "current_leg": 4,
    "is_shadow_confederation": true
  }
]