[
  {
    "rank": 1,
    "team_name": "福岡大学",
    "team_short_name": "福岡",
    "runner_name": "久留米",
    "total_distance_km": 57.7,
    "latitude": 35.318177032398005,
    "longitude": 139.4190942291116,
    "is_shadow_confederation": false
  },
  {
    "rank": 2,
    "team_name": "熊本学園大学",
    "team_short_name": "熊学",
    "runner_name": "甲佐",
    "total_distance_km": 55.4,
    "latitude": 35.32530823377008,
    "longitude": 139.44185909047786,
    "is_shadow_confederation": false
  },
  {
    "rank": 3,
    "team_name": "鹿児島大学",
    "team_short_name": "鹿大",
    "runner_name": "東市来",
    "total_distance_km": 54.0,
    "latitude": 35.32910818215653,
    "longitude": 139.45629602279786,
    "is_shadow_confederation": false
  },
  {
    "rank": 4,
    "team_name": "上武大学",
    "team_short_name": "上武",
    "runner_name": "佐野",
    "total_distance_km": 53.5,
    "latitude": 35.331731705521335,
    "longitude": 139.46076752609235,
    "is_shadow_confederation": false
  },
  {
    "rank": 5,
    "team_name": "福島大学",
    "team_short_name": "福島",
    "runner_name": "梁川",
    "total_distance_km": 53.3,
    "latitude": 35.33278111486726,
    "longitude": 139.46255612741018,
    "is_shadow_confederation": false
  },
  {
    "rank": 5,
    "team_name": "金沢大学",
    "team_short_name": "金沢",
    "runner_name": "秋ヶ島",
    "total_distance_km": 53.3,
    "latitude": 35.33278111486726,
    "longitude": 139.46255612741018,
    "is_shadow_confederation": false
  },
  {
    "rank": 7,
    "team_name": "鳥取大学",
    "team_short_name": "鳥取",
    "runner_name": "川本",
    "total_distance_km": 51.9,
    "latitude": 35.337216262768486,
    "longitude": 139.47580809301775,
    "is_shadow_confederation": false
  },
  {
    "rank": 8,
    "team_name": "立命館大学",
    "team_short_name": "立命",
    "runner_name": "東近江",
    "total_distance_km": 51.6,
    "latitude": 35.33949380126661,
    "longitude": 139.4775075242395,
    "is_shadow_confederation": false
  },
  {
    "rank": 8,
    "team_name": "琉球大学",
    "team_short_name": "琉球",
    "runner_name": "北原",
    "total_distance_km": 51.6,
    "latitude": 35.33949380126661,
    "longitude": 139.4775075242395,
    "is_shadow_confederation": false
  },
  {
    "rank": 10,
    "team_name": "名古屋大学",
    "team_short_name": "名大",
    "runner_name": "美濃加茂",
    "total_distance_km": 50.8,
    "latitude": 35.34389843391366,
    "longitude": 139.48402066808526,
    "is_shadow_confederation": false
  },
  {
    "rank": 11,
    "team_name": "日本大学",
    "team_short_name": "日大",
    "runner_name": "大子",
    "total_distance_km": 50.0,
    "latitude": 35.34913820451334,
    "longitude": 139.48988975122535,
    "is_shadow_confederation": false
  },
  {
    "rank": 12,
    "team_name": "広島経済大学",
    "team_short_name": "広経",
    "runner_name": "三次",
    "total_distance_km": 49.8,
    "latitude": 35.350764222069735,
    "longitude": 139.49076221350862,
    "is_shadow_confederation": false
  },
  {
    "rank": 13,
    "team_name": "山梨学院大学",
    "team_short_name": "山学",
    "runner_name": "長野",
    "total_distance_km": 49.7,
    "latitude": 35.35166541258049,
    "longitude": 139.4907816414275,
    "is_shadow_confederation": false
  },
  {
    "rank": 14,
    "team_name": "四国大学",
    "team_short_name": "四国",
    "runner_name": "穴吹",
    "total_distance_km": 49.6,
    "latitude": 35.352563433503065,
    "longitude": 139.4908213236626,
    "is_shadow_confederation": false
  },
  {
    "rank": 15,
    "team_name": "関西大学",
    "team_short_name": "関大",
    "runner_name": "福崎",
    "total_distance_km": 49.4,
    "latitude": 35.35425064417051,
    "longitude": 139.4915961415979,
    "is_shadow_confederation": false
  },
  {
    "rank": 16,
    "team_name": "三重大学",
    "team_short_name": "三重",
    "runner_name": "粥見",
    "total_distance_km": 45.9,
    "latitude": 35.3804251271433,
    "longitude": 139.51137985461494,
    "is_shadow_confederation": false
  },
  {
    "rank": 17,
    "team_name": "東北大学",
    "team_short_name": "東北",
    "runner_name": "帯広",
    "total_distance_km": 33.7,
    "latitude": 35.44406867557012,
    "longitude": 139.59517799641557,
    "is_shadow_confederation": false
  },
  {
    "rank": 18,
    "team_name": "学連選抜",
    "team_short_name": "学連",
    "runner_name": "美幌",
    "total_distance_km": 19.8,
    "latitude": 35.525808938762964,
    "longitude": 139.70050784386765,
    "is_shadow_confederation": false
  }
]