[
  {
    "rank": 1,
    "team_name": "琉球大学",
    "team_short_name": "琉球",
    "runner_name": "仲筋",
    "total_distance_km": 183.7,
    "latitude": 34.9413848187341,
    "longitude": 138.323166309633,
    "is_shadow_confederation": false
  },
  {
    "rank": 2,
    "team_name": "鹿児島大学",
    "team_short_name": "鹿大",
    "runner_name": "川内（鹿児島）",
    "total_distance_km": 128.9,
    "latitude": 35.122502759485,
    "longitude": 138.79828916784567,
    "is_shadow_confederation": false
  },
  {
    "rank": 3,
    "team_name": "熊本学園大学",
    "team_short_name": "熊学",
    "runner_name": "岱明",
    "total_distance_km": 127.1,
    "latitude": 35.11544865570826,
    "longitude": 138.8160555350226,
    "is_shadow_confederation": false
  },
  {
    "rank": 4,
    "team_name": "福岡大学",
    "team_short_name": "福岡",
    "runner_name": "福岡",
    "total_distance_km": 120.1,
    "latitude": 35.105160950284784,
    "longitude": 138.885655902324,
    "is_shadow_confederation": false
  },
  {
    "rank": 5,
    "team_name": "三重大学",
    "team_short_name": "三重",
    "runner_name": "粥見",
    "total_distance_km": 104.3,
    "latitude": 35.17186005659459,
    "longitude": 139.00797511018357,
    "is_shadow_confederation": false
  },
  {
    "rank": 6,
    "team_name": "四国大学",
    "team_short_name": "四国",
    "runner_name": "穴吹",
    "total_distance_km": 102.6,
    "latitude": 35.180601686072585,
    "longitude": 139.0138116728332,
    "is_shadow_confederation": false
  },
  {
    "rank": 7,
    "team_name": "名古屋大学",
    "team_short_name": "名大",
    "runner_name": "美濃加茂",
    "total_distance_km": 102.4,
    "latitude": 35.1823897290314,
    "longitude": 139.0140912216256,
    "is_shadow_confederation": false
  },
  {
    "rank": 8,
    "team_name": "上武大学",
    "team_short_name": "上武",
    "runner_name": "佐野",
    "total_distance_km": 100.7,
    "latitude": 35.184197071195825,
    "longitude": 139.02920288448163,
    "is_shadow_confederation": false
  },
  {
    "rank": 9,
    "team_name": "日本大学",
    "team_short_name": "日大",
    "runner_name": "大子",
    "total_distance_km": 97.5,
    "latitude": 35.20102030940545,
    "longitude": 139.0539321472523,
    "is_shadow_confederation": false
  },
  {
    "rank": 10,
    "team_name": "関西大学",
    "team_short_name": "関大",
    "runner_name": "福崎",
    "total_distance_km": 94.4,
    "latitude": 35.210832833285195,
    "longitude": 139.0640824048503,
    "is_shadow_confederation": false
  },
  {
    "rank": 11,
    "team_name": "立命館大学",
    "team_short_name": "立命",
    "runner_name": "東近江",
    "total_distance_km": 86.4,
    "latitude": 35.246596844032666,
    "longitude": 139.13438197929986,
    "is_shadow_confederation": false
  },
  {
    "rank": 12,
    "team_name": "福島大学",
    "team_short_name": "福島",
    "runner_name": "梁川",
    "total_distance_km": 85.8,
    "latitude": 35.246737470645506,
    "longitude": 139.14082178142343,
    "is_shadow_confederation": false
  },
  {
    "rank": 13,
    "team_name": "鳥取大学",
    "team_short_name": "鳥取",
    "runner_name": "川本",
    "total_distance_km": 82.3,
    "latitude": 35.25719089644169,
    "longitude": 139.17378960781681,
    "is_shadow_confederation": false
  },
  {
    "rank": 14,
    "team_name": "広島経済大学",
    "team_short_name": "広経",
    "runner_name": "三次",
    "total_distance_km": 80.8,
    "latitude": 35.26571760631309,
    "longitude": 139.18619687863048,
    "is_shadow_confederation": false
  },
  {
    "rank": 15,
    "team_name": "金沢大学",
    "team_short_name": "金沢",
    "runner_name": "秋ヶ島",
    "total_distance_km": 66.2,
    "latitude": 35.31325139761875,
    "longitude": 139.32840138206723,
    "is_shadow_confederation": false
  },
  {
    "rank": 16,
    "team_name": "山梨学院大学",
    "team_short_name": "山学",
    "runner_name": "長野",
    "total_distance_km": 58.1,
    "latitude": 35.3180648515318,
    "longitude": 139.41477003874476,
    "is_shadow_confederation": false
  },
  {
    "rank": 17,
    "team_name": "東北大学",
    "team_short_name": "東北",
    "runner_name": "帯広",
    "total_distance_km": 51.9,
    "latitude": 35.337216262768486,
    "longitude": 139.47580809301775,
    "is_shadow_confederation": false
  },
  {
    "rank": 18,
    "team_name": "学連選抜",
    "team_short_name": "学連",
    "runner_name": "美幌",
    "total_distance_km": 5.9,
    "latitude": 35.640653766472035,
    "longitude": 139.74090042308868,
    "is_shadow_confederation": false
  },
  {
    "rank": null,
    "team_name": "区間記録連合",
    "team_short_name": "区間記録",
    "runner_name": "佐野",
    "total_distance_km": 260.0,
    "latitude": 34.683013508022064,
    "longitude": 137.6449031934989,
    "is_shadow_confederation": true
  }
]