[
  {
    "rank": 1,
    "team_name": "琉球大学",
    "team_short_name": "琉球",
    "runner_name": "西表島",
    "total_distance_km": 791.3,
    "latitude": 34.39014755644998,
    "longitude": 133.14009904441824,
    "is_shadow_confederation": false
  },
  {
    "rank": 2,
    "team_name": "名古屋大学",
    "team_short_name": "名大",
    "runner_name": "大府",
    "total_distance_km": 777.9,
    "latitude": 34.44526356021994,
    "longitude": 133.23987709728235,
    "is_shadow_confederation": false
  },
  {
    "rank": 3,
    "team_name": "福岡大学",
    "team_short_name": "福岡",
    "runner_name": "大牟田",
    "total_distance_km": 777.0,
    "latitude": 34.44909281421732,
    "longitude": 133.24838915115282,
    "is_shadow_confederation": false
  },
  {
    "rank": 4,
    "team_name": "関西大学",
    "team_short_name": "関大",
    "runner_name": "郡家",
    "total_distance_km": 772.5,
    "latitude": 34.46519507551803,
    "longitude": 133.29274262844606,
    "is_shadow_confederation": false
  },
  {
    "rank": 5,
    "team_name": "四国大学",
    "team_short_name": "四国",
    "runner_name": "江川崎",
    "total_distance_km": 771.9,
    "latitude": 34.468068129426634,
    "longitude": 133.29826417824822,
    "is_shadow_confederation": false
  },
  {
    "rank": 6,
    "team_name": "鹿児島大学",
    "team_short_name": "鹿大",
    "runner_name": "さつま柏原",
    "total_distance_km": 769.9,
    "latitude": 34.47654538700772,
    "longitude": 133.31591722264585,
    "is_shadow_confederation": false
  },
  {
    "rank": 7,
    "team_name": "広島経済大学",
    "team_short_name": "広経",
    "runner_name": "引田",
    "total_distance_km": 767.4,
    "latitude": 34.484162978766264,
    "longitude": 133.3392544303405,
    "is_shadow_confederation": false
  },
  {
    "rank": 8,
    "team_name": "熊本学園大学",
    "team_short_name": "熊学",
    "runner_name": "三角",
    "total_distance_km": 767.3,
    "latitude": 34.483974824454556,
    "longitude": 133.34031909298,
    "is_shadow_confederation": false
  },
  {
    "rank": 9,
    "team_name": "立命館大学",
    "team_short_name": "立命",
    "runner_name": "京都",
    "total_distance_km": 763.8,
    "latitude": 34.48785207257297,
    "longitude": 133.37701789532204,
    "is_shadow_confederation": false
  },
  {
    "rank": 10,
    "team_name": "三重大学",
    "team_short_name": "三重",
    "runner_name": "津",
    "total_distance_km": 755.5,
    "latitude": 34.505207991435235,
    "longitude": 133.45846502196392,
    "is_shadow_confederation": false
  },
  {
    "rank": 11,
    "team_name": "山梨学院大学",
    "team_short_name": "山学",
    "runner_name": "三島",
    "total_distance_km": 750.7,
    "latitude": 34.50333508665817,
    "longitude": 133.50455463573346,
    "is_shadow_confederation": false
  },
  {
    "rank": 12,
    "team_name": "鳥取大学",
    "team_short_name": "鳥取",
    "runner_name": "米子",
    "total_distance_km": 747.3,
    "latitude": 34.50034930968832,
    "longitude": 133.53952847989245,
    "is_shadow_confederation": false
  },
  {
    "rank": 13,
    "team_name": "日本大学",
    "team_short_name": "日大",
    "runner_name": "練馬",
    "total_distance_km": 744.8,
    "latitude": 34.512853232013214,
    "longitude": 133.561379634543,
    "is_shadow_confederation": false
  },
  {
    "rank": 14,
    "team_name": "金沢大学",
    "team_short_name": "金沢",
    "runner_name": "敦賀",
    "total_distance_km": 736.0,
    "latitude": 34.54272779650355,
    "longitude": 133.64735581967065,
    "is_shadow_confederation": false
  },
  {
    "rank": 15,
    "team_name": "上武大学",
    "team_short_name": "上武",
    "runner_name": "小山",
    "total_distance_km": 733.4,
    "latitude": 34.55554443305923,
    "longitude": 133.66987950251354,
    "is_shadow_confederation": false
  },
  {
    "rank": 16,
    "team_name": "福島大学",
    "team_short_name": "福島",
    "runner_name": "寺泊",
    "total_distance_km": 717.1,
    "latitude": 34.63306960941134,
    "longitude": 133.8102573439045,
    "is_shadow_confederation": false
  },
  {
    "rank": 17,
    "team_name": "学連選抜",
    "team_short_name": "学連",
    "runner_name": "加世田",
    "total_distance_km": 713.4,
    "latitude": 34.64602007069823,
    "longitude": 133.8471918489877,
    "is_shadow_confederation": false
  },
  {
    "rank": 18,
    "team_name": "東北大学",
    "team_short_name": "東北",
    "runner_name": "丸森",
    "total_distance_km": 652.5,
    "latitude": 34.831213484986556,
    "longitude": 134.41001845882536,
    "is_shadow_confederation": false
  },
  {
    "rank": null,
    "team_name": "区間記録連合",
    "team_short_name": "区間記録",
    "runner_name": "西脇",
    "total_distance_km": 803.8,
    "latitude": 34.39859035271189,
    "longitude": 133.0239581239643,
    "is_shadow_confederation": true
  }
]