[
  {
    "rank": 1,
    "team_name": "熊本学園大学",
    "team_short_name": "熊学",
    "runner_name": "岱明",
    "total_distance_km": 202.7,
    "latitude": 34.846570819531756,
    "longitude": 138.16989467175316,
    "is_shadow_confederation": false
  },
  {
    "rank": 2,
    "team_name": "琉球大学",
    "team_short_name": "琉球",
    "runner_name": "仲筋",
    "total_distance_km": 202.0,
    "latitude": 34.84870086645531,
    "longitude": 138.1770991530018,
    "is_shadow_confederation": false
  },
  {
    "rank": 3,
    "team_name": "福岡大学",
    "team_short_name": "福岡",
    "runner_name": "福岡",
    "total_distance_km": 194.6,
    "latitude": 34.882058875284166,
    "longitude": 138.2406909645627,
    "is_shadow_confederation": false
  },
  {
    "rank": 4,
    "team_name": "鹿児島大学",
    "team_short_name": "鹿大",
    "runner_name": "川内（鹿児島）",
    "total_distance_km": 192.4,
    "latitude": 34.89152006174434,
    "longitude": 138.26165100896532,
    "is_shadow_confederation": false
  },
  {
    "rank": 5,
    "team_name": "立命館大学",
    "team_short_name": "立命",
    "runner_name": "福知山",
    "total_distance_km": 188.6,
    "latitude": 34.91344808651929,
    "longitude": 138.28972262437233,
    "is_shadow_confederation": false
  },
  {
    "rank": 6,
    "team_name": "四国大学",
    "team_short_name": "四国",
    "runner_name": "大三島",
    "total_distance_km": 185.0,
    "latitude": 34.937945782785576,
    "longitude": 138.31003084136222,
    "is_shadow_confederation": false
  },
  {
    "rank": 7,
    "team_name": "広島経済大学",
    "team_short_name": "広経",
    "runner_name": "加計",
    "total_distance_km": 184.3,
    "latitude": 34.939170278069916,
    "longitude": 138.31742254340222,
    "is_shadow_confederation": false
  },
  {
    "rank": 8,
    "team_name": "関西大学",
    "team_short_name": "関大",
    "runner_name": "和田山",
    "total_distance_km": 184.2,
    "latitude": 34.93969914199394,
    "longitude": 138.31830896888334,
    "is_shadow_confederation": false
  },
  {
    "rank": 9,
    "team_name": "三重大学",
    "team_short_name": "三重",
    "runner_name": "五條",
    "total_distance_km": 183.0,
    "latitude": 34.94466024227331,
    "longitude": 138.32949106261967,
    "is_shadow_confederation": false
  },
  {
    "rank": 10,
    "team_name": "金沢大学",
    "team_short_name": "金沢",
    "runner_name": "小浜",
    "total_distance_km": 181.1,
    "latitude": 34.949380514549304,
    "longitude": 138.3449727168041,
    "is_shadow_confederation": false
  },
  {
    "rank": 11,
    "team_name": "鳥取大学",
    "team_short_name": "鳥取",
    "runner_name": "鳥取",
    "total_distance_km": 179.8,
    "latitude": 34.948803624513694,
    "longitude": 138.35863266288246,
    "is_shadow_confederation": false
  },
  {
    "rank": 12,
    "team_name": "名古屋大学",
    "team_short_name": "名大",
    "runner_name": "美濃",
    "total_distance_km": 178.0,
    "latitude": 34.95961752041372,
    "longitude": 138.37304373043708,
    "is_shadow_confederation": false
  },
  {
    "rank": 13,
    "team_name": "山梨学院大学",
    "team_short_name": "山学",
    "runner_name": "南信濃",
    "total_distance_km": 169.7,
    "latitude": 35.00642710989969,
    "longitude": 138.4426143224354,
    "is_shadow_confederation": false
  },
  {
    "rank": 14,
    "team_name": "上武大学",
    "team_short_name": "上武",
    "runner_name": "越谷",
    "total_distance_km": 165.4,
    "latitude": 35.023873716407614,
    "longitude": 138.48203828407517,
    "is_shadow_confederation": false
  },
  {
    "rank": 15,
    "team_name": "日本大学",
    "team_short_name": "日大",
    "runner_name": "古河",
    "total_distance_km": 163.6,
    "latitude": 35.03459137774395,
    "longitude": 138.49185253764176,
    "is_shadow_confederation": false
  },
  {
    "rank": 16,
    "team_name": "福島大学",
    "team_short_name": "福島",
    "runner_name": "石川",
    "total_distance_km": 151.9,
    "latitude": 35.109685432072794,
    "longitude": 138.56812991938054,
    "is_shadow_confederation": false
  },
  {
    "rank": 17,
    "team_name": "東北大学",
    "team_short_name": "東北",
    "runner_name": "山形（山形）",
    "total_distance_km": 130.2,
    "latitude": 35.12604715785371,
    "longitude": 138.7846967426967,
    "is_shadow_confederation": false
  },
  {
    "rank": 18,
    "team_name": "学連選抜",
    "team_short_name": "学連",
    "runner_name": "新潟",
    "total_distance_km": 123.5,
    "latitude": 35.10033592453481,
    "longitude": 138.85019239202464,
    "is_shadow_confederation": false
  }
]