[
  {
    "rank": 1,
    "team_name": "熊本学園大学",
    "team_short_name": "熊学",
    "runner_name": "甲佐",
    "total_distance_km": 64.0,
    "latitude": 35.31597078469359,
    "longitude": 139.3521089217369,
    "is_shadow_confederation": false
  },
  {
    "rank": 2,
    "team_name": "琉球大学",
    "team_short_name": "琉球",
    "runner_name": "北原",
    "total_distance_km": 62.9,
    "latitude": 35.3171968783122,
    "longitude": 139.36402810291693,
    "is_shadow_confederation": false
  },
  {
    "rank": 3,
    "team_name": "福岡大学",
    "team_short_name": "福岡",
    "runner_name": "久留米",
    "total_distance_km": 60.8,
    "latitude": 35.31699298017366,
    "longitude": 139.38528376407194,
    "is_shadow_confederation": false
  },
  {
    "rank": 4,
    "team_name": "鹿児島大学",
    "team_short_name": "鹿大",
    "runner_name": "東市来",
    "total_distance_km": 60.0,
    "latitude": 35.31787022554324,
    "longitude": 139.39401603536172,
    "is_shadow_confederation": false
  },
  {
    "rank": 5,
    "team_name": "四国大学",
    "team_short_name": "四国",
    "runner_name": "穴吹",
    "total_distance_km": 58.6,
    "latitude": 35.31855562497749,
    "longitude": 139.40930419517147,
    "is_shadow_confederation": false
  },
  {
    "rank": 6,
    "team_name": "三重大学",
    "team_short_name": "三重",
    "runner_name": "粥見",
    "total_distance_km": 56.3,
    "latitude": 35.32085817282958,
    "longitude": 139.43385972499448,
    "is_shadow_confederation": false
  },
  {
    "rank": 7,
    "team_name": "立命館大学",
    "team_short_name": "立命",
    "runner_name": "東近江",
    "total_distance_km": 54.9,
    "latitude": 35.3263944544208,
    "longitude": 139.44718338841417,
    "is_shadow_confederation": false
  },
  {
    "rank": 8,
    "team_name": "広島経済大学",
    "team_short_name": "広経",
    "runner_name": "三次",
    "total_distance_km": 54.4,
    "latitude": 35.327280632319045,
    "longitude": 139.45257513371646,
    "is_shadow_confederation": false
  },
  {
    "rank": 9,
    "team_name": "関西大学",
    "team_short_name": "関大",
    "runner_name": "福崎",
    "total_distance_km": 54.1,
    "latitude": 35.32858347748357,
    "longitude": 139.45540172213896,
    "is_shadow_confederation": false
  },
  {
    "rank": 10,
    "team_name": "鳥取大学",
    "team_short_name": "鳥取",
    "runner_name": "川本",
    "total_distance_km": 53.8,
    "latitude": 35.33015759150245,
    "longitude": 139.45808462411566,
    "is_shadow_confederation": false
  },
  {
    "rank": 11,
    "team_name": "名古屋大学",
    "team_short_name": "名大",
    "runner_name": "美濃加茂",
    "total_distance_km": 53.3,
    "latitude": 35.33278111486726,
    "longitude": 139.46255612741018,
    "is_shadow_confederation": false
  },
  {
    "rank": 12,
    "team_name": "上武大学",
    "team_short_name": "上武",
    "runner_name": "佐野",
    "total_distance_km": 47.3,
    "latitude": 35.371279657241246,
    "longitude": 139.50145733721607,
    "is_shadow_confederation": false
  },
  {
    "rank": 13,
    "team_name": "日本大学",
    "team_short_name": "日大",
    "runner_name": "大子",
    "total_distance_km": 44.8,
    "latitude": 35.387645168509586,
    "longitude": 139.51885558207192,
    "is_shadow_confederation": false
  },
  {
    "rank": 14,
    "team_name": "金沢大学",
    "team_short_name": "金沢",
    "runner_name": "秋ヶ島",
    "total_distance_km": 43.0,
    "latitude": 35.401232414488824,
    "longitude": 139.52751245911125,
    "is_shadow_confederation": false
  },
  {
    "rank": 15,
    "team_name": "福島大学",
    "team_short_name": "福島",
    "runner_name": "梁川",
    "total_distance_km": 40.9,
    "latitude": 35.41401857902459,
    "longitude": 139.5401557477082,
    "is_shadow_confederation": false
  },
  {
    "rank": 16,
    "team_name": "山梨学院大学",
    "team_short_name": "山学",
    "runner_name": "長野",
    "total_distance_km": 37.9,
    "latitude": 35.42506527117313,
    "longitude": 139.56774266069885,
    "is_shadow_confederation": false
  },
  {
    "rank": 17,
    "team_name": "東北大学",
    "team_short_name": "東北",
    "runner_name": "帯広",
    "total_distance_km": 27.9,
    "latitude": 35.47754624694178,
    "longitude": 139.6370736942214,
    "is_shadow_confederation": false
  },
  {
    "rank": 18,
    "team_name": "学連選抜",
    "team_short_name": "学連",
    "runner_name": "美幌",
    "total_distance_km": 24.9,
    "latitude": 35.49180184701883,
    "longitude": 139.6639981658694,
    "is_shadow_confederation": false
  }
]