[
  {
    "rank": 1,
    "team_name": "琉球大学",
    "team_short_name": "琉球",
    "runner_name": "西表島",
    "total_distance_km": 790.4,
    "latitude": 34.393268882607266,
    "longitude": 133.14891798470816,
    "is_shadow_confederation": false
  },
  {
    "rank": 2,
    "team_name": "鹿児島大学",
    "team_short_name": "鹿大",
    "runner_name": "笠利",
    "total_distance_km": 644.6,
    "latitude": 34.82010494883747,
    "longitude": 134.4892200259981,
    "is_shadow_confederation": false
  },
  {
    "rank": 3,
    "team_name": "熊本学園大学",
    "team_short_name": "熊学",
    "runner_name": "大分",
    "total_distance_km": 612.7,
    "latitude": 34.78877440274826,
    "longitude": 134.80127068180926,
    "is_shadow_confederation": false
  },
  {
    "rank": 4,
    "team_name": "福岡大学",
    "team_short_name": "福岡",
    "runner_name": "博多",
    "total_distance_km": 590.7,
    "latitude": 34.65515064488617,
    "longitude": 134.97308660889522,
    "is_shadow_confederation": false
  },
  {
    "rank": 5,
    "team_name": "四国大学",
    "team_short_name": "四国",
    "runner_name": "徳島",
    "total_distance_km": 555.2,
    "latitude": 34.73347724758946,
    "longitude": 135.31254601893608,
    "is_shadow_confederation": false
  },
  {
    "rank": 6,
    "team_name": "名古屋大学",
    "team_short_name": "名大",
    "runner_name": "豊田（愛知）",
    "total_distance_km": 550.5,
    "latitude": 34.73515718735324,
    "longitude": 135.3625923457825,
    "is_shadow_confederation": false
  },
  {
    "rank": 7,
    "team_name": "上武大学",
    "team_short_name": "上武",
    "runner_name": "伊勢崎",
    "total_distance_km": 541.5,
    "latitude": 34.711214691356446,
    "longitude": 135.4537471106666,
    "is_shadow_confederation": false
  },
  {
    "rank": 8,
    "team_name": "日本大学",
    "team_short_name": "日大",
    "runner_name": "八王子",
    "total_distance_km": 541.2,
    "latitude": 34.709727202365414,
    "longitude": 135.45648200930455,
    "is_shadow_confederation": false
  },
  {
    "rank": 9,
    "team_name": "広島経済大学",
    "team_short_name": "広経",
    "runner_name": "高松（香川）",
    "total_distance_km": 539.8,
    "latitude": 34.7008864583828,
    "longitude": 135.4671106606823,
    "is_shadow_confederation": false
  },
  {
    "rank": 10,
    "team_name": "鳥取大学",
    "team_short_name": "鳥取",
    "runner_name": "境",
    "total_distance_km": 529.5,
    "latitude": 34.72309742339295,
    "longitude": 135.54866181312758,
    "is_shadow_confederation": false
  },
  {
    "rank": 11,
    "team_name": "三重大学",
    "team_short_name": "三重",
    "runner_name": "奈良",
    "total_distance_km": 529.2,
    "latitude": 34.725660843083475,
    "longitude": 135.54968490620857,
    "is_shadow_confederation": false
  },
  {
    "rank": 12,
    "team_name": "関西大学",
    "team_short_name": "関大",
    "runner_name": "枚方",
    "total_distance_km": 526.6,
    "latitude": 34.74245737932695,
    "longitude": 135.56902022082775,
    "is_shadow_confederation": false
  },
  {
    "rank": 13,
    "team_name": "立命館大学",
    "team_short_name": "立命",
    "runner_name": "舞鶴",
    "total_distance_km": 505.0,
    "latitude": 34.87396106862978,
    "longitude": 135.73181702157152,
    "is_shadow_confederation": false
  },
  {
    "rank": 14,
    "team_name": "山梨学院大学",
    "team_short_name": "山学",
    "runner_name": "甲府",
    "total_distance_km": 490.4,
    "latitude": 34.99612873077178,
    "longitude": 135.75309717953368,
    "is_shadow_confederation": false
  },
  {
    "rank": 15,
    "team_name": "福島大学",
    "team_short_name": "福島",
    "runner_name": "福島",
    "total_distance_km": 469.1,
    "latitude": 34.987942707398716,
    "longitude": 135.93161755175228,
    "is_shadow_confederation": false
  },
  {
    "rank": 16,
    "team_name": "金沢大学",
    "team_short_name": "金沢",
    "runner_name": "福井",
    "total_distance_km": 429.7,
    "latitude": 34.9231238534678,
    "longitude": 136.3051523104419,
    "is_shadow_confederation": false
  },
  {
    "rank": 17,
    "team_name": "東北大学",
    "team_short_name": "東北",
    "runner_name": "大館",
    "total_distance_km": 371.0,
    "latitude": 35.094855140689866,
    "longitude": 136.70309566801643,
    "is_shadow_confederation": false
  },
  {
    "rank": 18,
    "team_name": "学連選抜",
    "team_short_name": "学連",
    "runner_name": "大村",
    "total_distance_km": 285.1,
    "latitude": 34.74038703572259,
    "longitude": 137.42039700580648,
    "is_shadow_confederation": false
  },
  {
    "rank": null,
    "team_name": "区間記録連合",
    "team_short_name": "区間記録",
    "runner_name": "西脇",
    "total_distance_km": 817.0,
    "latitude": 34.390546281311764,
    "longitude": 132.90280821528657,
    "is_shadow_confederation": true
  }
]