[
  {
    "rank": 1,
    "team_name": "琉球大学",
    "team_short_name": "琉球",
    "runner_name": "石垣島",
    "total_distance_km": 1020.7,
    "latitude": 34.048665126027,
    "longitude": 131.2010764459248,
    "is_shadow_confederation": false
  },
  {
    "rank": 2,
    "team_name": "福岡大学",
    "team_short_name": "福岡",
    "runner_name": "太宰府",
    "total_distance_km": 985.1,
    "latitude": 34.04800598840893,
    "longitude": 131.50994945465405,
    "is_shadow_confederation": false
  },
  {
    "rank": 3,
    "team_name": "名古屋大学",
    "team_short_name": "名大",
    "runner_name": "岐阜",
    "total_distance_km": 985.0,
    "latitude": 34.048128451526715,
    "longitude": 131.51102245620228,
    "is_shadow_confederation": false
  },
  {
    "rank": 3,
    "team_name": "鹿児島大学",
    "team_short_name": "鹿大",
    "runner_name": "指宿",
    "total_distance_km": 985.0,
    "latitude": 34.048128451526715,
    "longitude": 131.51102245620228,
    "is_shadow_confederation": false
  },
  {
    "rank": 5,
    "team_name": "熊本学園大学",
    "team_short_name": "熊学",
    "runner_name": "日田",
    "total_distance_km": 976.8,
    "latitude": 34.05450475879933,
    "longitude": 131.59494942722998,
    "is_shadow_confederation": false
  },
  {
    "rank": 6,
    "team_name": "関西大学",
    "team_short_name": "関大",
    "runner_name": "大阪",
    "total_distance_km": 972.6,
    "latitude": 34.04551966276434,
    "longitude": 131.63116796247033,
    "is_shadow_confederation": false
  },
  {
    "rank": 7,
    "team_name": "四国大学",
    "team_short_name": "四国",
    "runner_name": "中村",
    "total_distance_km": 972.2,
    "latitude": 34.04767933094602,
    "longitude": 131.63459188351555,
    "is_shadow_confederation": false
  },
  {
    "rank": 8,
    "team_name": "広島経済大学",
    "team_short_name": "広経",
    "runner_name": "滝宮",
    "total_distance_km": 965.8,
    "latitude": 34.07492153770136,
    "longitude": 131.68948495039035,
    "is_shadow_confederation": false
  },
  {
    "rank": 9,
    "team_name": "立命館大学",
    "team_short_name": "立命",
    "runner_name": "園部",
    "total_distance_km": 965.0,
    "latitude": 34.07013588802084,
    "longitude": 131.69596589067896,
    "is_shadow_confederation": false
  },
  {
    "rank": 10,
    "team_name": "日本大学",
    "team_short_name": "日大",
    "runner_name": "海老名",
    "total_distance_km": 954.1,
    "latitude": 34.06309143805991,
    "longitude": 131.79905617862786,
    "is_shadow_confederation": false
  },
  {
    "rank": 11,
    "team_name": "三重大学",
    "team_short_name": "三重",
    "runner_name": "上野",
    "total_distance_km": 953.4,
    "latitude": 34.05720286893992,
    "longitude": 131.80178262670455,
    "is_shadow_confederation": false
  },
  {
    "rank": 12,
    "team_name": "山梨学院大学",
    "team_short_name": "山学",
    "runner_name": "佐久間",
    "total_distance_km": 947.9,
    "latitude": 34.02844991930987,
    "longitude": 131.84584536994987,
    "is_shadow_confederation": false
  },
  {
    "rank": 13,
    "team_name": "鳥取大学",
    "team_short_name": "鳥取",
    "runner_name": "津和野",
    "total_distance_km": 941.1,
    "latitude": 34.03061721007394,
    "longitude": 131.91654532729245,
    "is_shadow_confederation": false
  },
  {
    "rank": 14,
    "team_name": "上武大学",
    "team_short_name": "上武",
    "runner_name": "館林",
    "total_distance_km": 937.2,
    "latitude": 34.04246193942774,
    "longitude": 131.95306471646686,
    "is_shadow_confederation": false
  },
  {
    "rank": 15,
    "team_name": "金沢大学",
    "team_short_name": "金沢",
    "runner_name": "大野（福井）",
    "total_distance_km": 923.9,
    "latitude": 34.09249007234593,
    "longitude": 132.06660503333958,
    "is_shadow_confederation": false
  },
  {
    "rank": 16,
    "team_name": "学連選抜",
    "team_short_name": "学連",
    "runner_name": "恵那",
    "total_distance_km": 909.1,
    "latitude": 34.16561844434549,
    "longitude": 132.18815154083015,
    "is_shadow_confederation": false
  },
  {
    "rank": 17,
    "team_name": "福島大学",
    "team_short_name": "福島",
    "runner_name": "新津",
    "total_distance_km": 902.1,
    "latitude": 34.20056028518224,
    "longitude": 132.2317592540903,
    "is_shadow_confederation": false
  },
  {
    "rank": 18,
    "team_name": "東北大学",
    "team_short_name": "東北",
    "runner_name": "東根",
    "total_distance_km": 833.9,
    "latitude": 34.411298494842576,
    "longitude": 132.74007447857983,
    "is_shadow_confederation": false
  },
  {
    "rank": null,
    "team_name": "区間記録連合",
    "team_short_name": "区間記録",
    "runner_name": "鳩山",
    "total_distance_km": 1034.7,
    "latitude": 34.04780755503983,
    "longitude": 131.0607583357333,
    "is_shadow_confederation": true
  }
]