[
  {
    "rank": 1,
    "team_name": "名古屋大学",
    "team_short_name": "名大",
    "runner_name": "大垣",
    "total_distance_km": 309.5,
    "latitude": 34.89767221286307,
    "longitude": 137.24812348386607,
    "is_shadow_confederation": false
  },
  {
    "rank": 2,
    "team_name": "熊本学園大学",
    "team_short_name": "熊学",
    "runner_name": "八代",
    "total_distance_km": 301.6,
    "latitude": 34.8546219706022,
    "longitude": 137.3136534293913,
    "is_shadow_confederation": false
  },
  {
    "rank": 3,
    "team_name": "四国大学",
    "team_short_name": "四国",
    "runner_name": "御荘",
    "total_distance_km": 301.4,
    "latitude": 34.853251471949264,
    "longitude": 137.31507434096602,
    "is_shadow_confederation": false
  },
  {
    "rank": 4,
    "team_name": "立命館大学",
    "team_short_name": "立命",
    "runner_name": "京田辺",
    "total_distance_km": 301.3,
    "latitude": 34.85256622262279,
    "longitude": 137.31578479675338,
    "is_shadow_confederation": false
  },
  {
    "rank": 5,
    "team_name": "福岡大学",
    "team_short_name": "福岡",
    "runner_name": "黒木",
    "total_distance_km": 301.2,
    "latitude": 34.851880973296325,
    "longitude": 137.31649525254073,
    "is_shadow_confederation": false
  },
  {
    "rank": 6,
    "team_name": "関西大学",
    "team_short_name": "関大",
    "runner_name": "上郡",
    "total_distance_km": 296.9,
    "latitude": 34.821799031178514,
    "longitude": 137.34451506102516,
    "is_shadow_confederation": false
  },
  {
    "rank": 7,
    "team_name": "日本大学",
    "team_short_name": "日大",
    "runner_name": "下館",
    "total_distance_km": 296.6,
    "latitude": 34.819718104353306,
    "longitude": 137.34660919605238,
    "is_shadow_confederation": false
  },
  {
    "rank": 8,
    "team_name": "上武大学",
    "team_short_name": "上武",
    "runner_name": "熊谷",
    "total_distance_km": 296.1,
    "latitude": 34.81624989297797,
    "longitude": 137.35009942109772,
    "is_shadow_confederation": false
  },
  {
    "rank": 9,
    "team_name": "広島経済大学",
    "team_short_name": "広経",
    "runner_name": "府中（広島）",
    "total_distance_km": 295.6,
    "latitude": 34.81278168160263,
    "longitude": 137.35358964614306,
    "is_shadow_confederation": false
  },
  {
    "rank": 10,
    "team_name": "鳥取大学",
    "team_short_name": "鳥取",
    "runner_name": "広瀬",
    "total_distance_km": 295.5,
    "latitude": 34.81208803932756,
    "longitude": 137.35428769115214,
    "is_shadow_confederation": false
  },
  {
    "rank": 11,
    "team_name": "琉球大学",
    "team_short_name": "琉球",
    "runner_name": "盛山",
    "total_distance_km": 294.8,
    "latitude": 34.80704457937779,
    "longitude": 137.35887492242765,
    "is_shadow_confederation": false
  },
  {
    "rank": 12,
    "team_name": "三重大学",
    "team_short_name": "三重",
    "runner_name": "小俣",
    "total_distance_km": 293.0,
    "latitude": 34.793874818977734,
    "longitude": 137.37035422885455,
    "is_shadow_confederation": false
  },
  {
    "rank": 13,
    "team_name": "金沢大学",
    "team_short_name": "金沢",
    "runner_name": "七尾",
    "total_distance_km": 290.3,
    "latitude": 34.77483376566921,
    "longitude": 137.38872771333274,
    "is_shadow_confederation": false
  },
  {
    "rank": 14,
    "team_name": "鹿児島大学",
    "team_short_name": "鹿大",
    "runner_name": "加久藤",
    "total_distance_km": 288.8,
    "latitude": 34.766348012752026,
    "longitude": 137.3976042868934,
    "is_shadow_confederation": false
  },
  {
    "rank": 15,
    "team_name": "山梨学院大学",
    "team_short_name": "山学",
    "runner_name": "大月",
    "total_distance_km": 288.6,
    "latitude": 34.76590618104708,
    "longitude": 137.39972234840502,
    "is_shadow_confederation": false
  },
  {
    "rank": 16,
    "team_name": "福島大学",
    "team_short_name": "福島",
    "runner_name": "津川",
    "total_distance_km": 276.5,
    "latitude": 34.69679211229447,
    "longitude": 137.4875951581816,
    "is_shadow_confederation": false
  },
  {
    "rank": 17,
    "team_name": "東北大学",
    "team_short_name": "東北",
    "runner_name": "高畠",
    "total_distance_km": 248.0,
    "latitude": 34.71237909864028,
    "longitude": 137.75771823071491,
    "is_shadow_confederation": false
  },
  {
    "rank": 18,
    "team_name": "学連選抜",
    "team_short_name": "学連",
    "runner_name": "大村",
    "total_distance_km": 246.0,
    "latitude": 34.720244180467766,
    "longitude": 137.77733744316336,
    "is_shadow_confederation": false
  },
  {
    "rank": null,
    "team_name": "区間記録連合",
    "team_short_name": "区間記録",
    "runner_name": "伊勢崎",
    "total_distance_km": 329.4,
    "latitude": 34.994248465084354,
    "longitude": 137.0748552430193,
    "is_shadow_confederation": true
  }
]