[
  {
    "rank": 1,
    "team_name": "琉球大学",
    "team_short_name": "琉球",
    "runner_name": "西表島",
    "total_distance_km": 807.3,
    "latitude": 34.404002142064016,
    "longitude": 132.99112179326073,
    "is_shadow_confederation": false
  },
  {
    "rank": 2,
    "team_name": "熊本学園大学",
    "team_short_name": "熊学",
    "runner_name": "三角",
    "total_distance_km": 759.5,
    "latitude": 34.49791584542325,
    "longitude": 133.42123482587013,
    "is_shadow_confederation": false
  },
  {
    "rank": 3,
    "team_name": "鹿児島大学",
    "team_short_name": "鹿大",
    "runner_name": "鹿児島",
    "total_distance_km": 740.4,
    "latitude": 34.53359518689369,
    "longitude": 133.60210272902972,
    "is_shadow_confederation": false
  },
  {
    "rank": 4,
    "team_name": "福岡大学",
    "team_short_name": "福岡",
    "runner_name": "口之津",
    "total_distance_km": 739.6,
    "latitude": 34.53567012796459,
    "longitude": 133.6104288635902,
    "is_shadow_confederation": false
  },
  {
    "rank": 5,
    "team_name": "名古屋大学",
    "team_short_name": "名大",
    "runner_name": "名古屋",
    "total_distance_km": 739.2,
    "latitude": 34.536150335785024,
    "longitude": 133.6147316655958,
    "is_shadow_confederation": false
  },
  {
    "rank": 6,
    "team_name": "関西大学",
    "team_short_name": "関大",
    "runner_name": "八尾（大阪）",
    "total_distance_km": 738.6,
    "latitude": 34.5356086267461,
    "longitude": 133.6211879252612,
    "is_shadow_confederation": false
  },
  {
    "rank": 7,
    "team_name": "立命館大学",
    "team_short_name": "立命",
    "runner_name": "長浜（滋賀）",
    "total_distance_km": 730.8,
    "latitude": 34.56859921843943,
    "longitude": 133.69206700502986,
    "is_shadow_confederation": false
  },
  {
    "rank": 8,
    "team_name": "鳥取大学",
    "team_short_name": "鳥取",
    "runner_name": "米子",
    "total_distance_km": 729.5,
    "latitude": 34.576998435510006,
    "longitude": 133.70194519501484,
    "is_shadow_confederation": false
  },
  {
    "rank": 9,
    "team_name": "広島経済大学",
    "team_short_name": "広経",
    "runner_name": "福山",
    "total_distance_km": 727.5,
    "latitude": 34.57665805480127,
    "longitude": 133.72240650088,
    "is_shadow_confederation": false
  },
  {
    "rank": 10,
    "team_name": "四国大学",
    "team_short_name": "四国",
    "runner_name": "新居浜",
    "total_distance_km": 727.1,
    "latitude": 34.576939460363974,
    "longitude": 133.72667358880787,
    "is_shadow_confederation": false
  },
  {
    "rank": 11,
    "team_name": "上武大学",
    "team_short_name": "上武",
    "runner_name": "小山",
    "total_distance_km": 715.3,
    "latitude": 34.64012773514185,
    "longitude": 133.82779268232693,
    "is_shadow_confederation": false
  },
  {
    "rank": 12,
    "team_name": "山梨学院大学",
    "team_short_name": "山学",
    "runner_name": "三島",
    "total_distance_km": 713.7,
    "latitude": 34.645316543910724,
    "longitude": 133.84407532711865,
    "is_shadow_confederation": false
  },
  {
    "rank": 13,
    "team_name": "三重大学",
    "team_short_name": "三重",
    "runner_name": "津",
    "total_distance_km": 709.8,
    "latitude": 34.64887562951703,
    "longitude": 133.88447222895567,
    "is_shadow_confederation": false
  },
  {
    "rank": 14,
    "team_name": "金沢大学",
    "team_short_name": "金沢",
    "runner_name": "敦賀",
    "total_distance_km": 709.4,
    "latitude": 34.64970378020097,
    "longitude": 133.88868027427418,
    "is_shadow_confederation": false
  },
  {
    "rank": 15,
    "team_name": "日本大学",
    "team_short_name": "日大",
    "runner_name": "練馬",
    "total_distance_km": 687.1,
    "latitude": 34.7206369730738,
    "longitude": 134.10104101243522,
    "is_shadow_confederation": false
  },
  {
    "rank": 16,
    "team_name": "学連選抜",
    "team_short_name": "学連",
    "runner_name": "多度津",
    "total_distance_km": 660.3,
    "latitude": 34.84275157276504,
    "longitude": 134.3323065216521,
    "is_shadow_confederation": false
  },
  {
    "rank": 17,
    "team_name": "福島大学",
    "team_short_name": "福島",
    "runner_name": "浪江",
    "total_distance_km": 646.9,
    "latitude": 34.82091005648409,
    "longitude": 134.46549188262364,
    "is_shadow_confederation": false
  },
  {
    "rank": 18,
    "team_name": "東北大学",
    "team_short_name": "東北",
    "runner_name": "丸森",
    "total_distance_km": 638.2,
    "latitude": 34.832264026102095,
    "longitude": 134.55637326783284,
    "is_shadow_confederation": false
  }
]