[
  {
    "rank": 1,
    "team_name": "琉球大学",
    "team_short_name": "琉球",
    "runner_name": "波照間",
    "total_distance_km": 500.9,
    "latitude": 34.90813496884648,
    "longitude": 135.74427530931945,
    "is_shadow_confederation": false
  },
  {
    "rank": 2,
    "team_name": "熊本学園大学",
    "team_short_name": "熊学",
    "runner_name": "熊本",
    "total_distance_km": 444.5,
    "latitude": 34.97837046251507,
    "longitude": 136.16326653830473,
    "is_shadow_confederation": false
  },
  {
    "rank": 3,
    "team_name": "鹿児島大学",
    "team_short_name": "鹿大",
    "runner_name": "西都",
    "total_distance_km": 429.4,
    "latitude": 34.9218510483658,
    "longitude": 136.30784211288997,
    "is_shadow_confederation": false
  },
  {
    "rank": 4,
    "team_name": "福岡大学",
    "team_short_name": "福岡",
    "runner_name": "前原",
    "total_distance_km": 419.1,
    "latitude": 34.86549729618686,
    "longitude": 136.37334596654333,
    "is_shadow_confederation": false
  },
  {
    "rank": 5,
    "team_name": "四国大学",
    "team_short_name": "四国",
    "runner_name": "松山",
    "total_distance_km": 404.9,
    "latitude": 34.87630459248766,
    "longitude": 136.49830505364088,
    "is_shadow_confederation": false
  },
  {
    "rank": 6,
    "team_name": "広島経済大学",
    "team_short_name": "広経",
    "runner_name": "大竹",
    "total_distance_km": 393.6,
    "latitude": 34.9281626705989,
    "longitude": 136.58747013446356,
    "is_shadow_confederation": false
  },
  {
    "rank": 7,
    "team_name": "鳥取大学",
    "team_short_name": "鳥取",
    "runner_name": "防府",
    "total_distance_km": 376.6,
    "latitude": 35.05241292404649,
    "longitude": 136.68164601862648,
    "is_shadow_confederation": false
  },
  {
    "rank": 8,
    "team_name": "名古屋大学",
    "team_short_name": "名大",
    "runner_name": "愛西",
    "total_distance_km": 372.9,
    "latitude": 35.0816510612441,
    "longitude": 136.69218143988553,
    "is_shadow_confederation": false
  },
  {
    "rank": 9,
    "team_name": "関西大学",
    "team_short_name": "関大",
    "runner_name": "柏原",
    "total_distance_km": 368.6,
    "latitude": 35.10946830288586,
    "longitude": 136.7207534419948,
    "is_shadow_confederation": false
  },
  {
    "rank": 10,
    "team_name": "立命館大学",
    "team_short_name": "立命",
    "runner_name": "米原",
    "total_distance_km": 366.5,
    "latitude": 35.11559378438083,
    "longitude": 136.74237485368104,
    "is_shadow_confederation": false
  },
  {
    "rank": 11,
    "team_name": "三重大学",
    "team_short_name": "三重",
    "runner_name": "風屋",
    "total_distance_km": 363.6,
    "latitude": 35.122729750071194,
    "longitude": 136.77297988321214,
    "is_shadow_confederation": false
  },
  {
    "rank": 12,
    "team_name": "金沢大学",
    "team_short_name": "金沢",
    "runner_name": "志賀",
    "total_distance_km": 348.8,
    "latitude": 35.10766180112259,
    "longitude": 136.92313016090608,
    "is_shadow_confederation": false
  },
  {
    "rank": 13,
    "team_name": "日本大学",
    "team_short_name": "日大",
    "runner_name": "小田原",
    "total_distance_km": 344.7,
    "latitude": 35.07775692761202,
    "longitude": 136.9463011908341,
    "is_shadow_confederation": false
  },
  {
    "rank": 14,
    "team_name": "上武大学",
    "team_short_name": "上武",
    "runner_name": "寄居",
    "total_distance_km": 340.1,
    "latitude": 35.0585795252451,
    "longitude": 136.98992591223205,
    "is_shadow_confederation": false
  },
  {
    "rank": 15,
    "team_name": "山梨学院大学",
    "team_short_name": "山学",
    "runner_name": "大月",
    "total_distance_km": 321.3,
    "latitude": 34.958814288343774,
    "longitude": 137.15138037163527,
    "is_shadow_confederation": false
  },
  {
    "rank": 16,
    "team_name": "福島大学",
    "team_short_name": "福島",
    "runner_name": "津川",
    "total_distance_km": 302.7,
    "latitude": 34.86215971319336,
    "longitude": 137.3058384157304,
    "is_shadow_confederation": false
  },
  {
    "rank": 17,
    "team_name": "学連選抜",
    "team_short_name": "学連",
    "runner_name": "大村",
    "total_distance_km": 268.9,
    "latitude": 34.68612045494129,
    "longitude": 137.55449233437162,
    "is_shadow_confederation": false
  },
  {
    "rank": 18,
    "team_name": "東北大学",
    "team_short_name": "東北",
    "runner_name": "高畠",
    "total_distance_km": 251.0,
    "latitude": 34.70693424213162,
    "longitude": 137.72778168922358,
    "is_shadow_confederation": false
  }
]