[
  {
    "rank": 1,
    "team_name": "名古屋大学",
    "team_short_name": "名大",
    "runner_name": "豊田（愛知）",
    "total_distance_km": 641.8,
    "latitude": 34.82543652775542,
    "longitude": 134.5182773058097,
    "is_shadow_confederation": false
  },
  {
    "rank": 2,
    "team_name": "四国大学",
    "team_short_name": "四国",
    "runner_name": "徳島",
    "total_distance_km": 634.4,
    "latitude": 34.83255527751569,
    "longitude": 134.597497994802,
    "is_shadow_confederation": false
  },
  {
    "rank": 3,
    "team_name": "琉球大学",
    "team_short_name": "琉球",
    "runner_name": "久米島",
    "total_distance_km": 633.2,
    "latitude": 34.829129228104065,
    "longitude": 134.60940132798376,
    "is_shadow_confederation": false
  },
  {
    "rank": 4,
    "team_name": "立命館大学",
    "team_short_name": "立命",
    "runner_name": "彦根",
    "total_distance_km": 628.9,
    "latitude": 34.84475210906656,
    "longitude": 134.6433576633749,
    "is_shadow_confederation": false
  },
  {
    "rank": 5,
    "team_name": "熊本学園大学",
    "team_short_name": "熊学",
    "runner_name": "大分",
    "total_distance_km": 628.1,
    "latitude": 34.84433095549627,
    "longitude": 134.6520210723581,
    "is_shadow_confederation": false
  },
  {
    "rank": 6,
    "team_name": "関西大学",
    "team_short_name": "関大",
    "runner_name": "豊中",
    "total_distance_km": 627.9,
    "latitude": 34.843872866410884,
    "longitude": 134.65413601896083,
    "is_shadow_confederation": false
  },
  {
    "rank": 7,
    "team_name": "福岡大学",
    "team_short_name": "福岡",
    "runner_name": "博多",
    "total_distance_km": 627.2,
    "latitude": 34.841692886625985,
    "longitude": 134.66122478281608,
    "is_shadow_confederation": false
  },
  {
    "rank": 8,
    "team_name": "広島経済大学",
    "team_short_name": "広経",
    "runner_name": "高松（香川）",
    "total_distance_km": 624.2,
    "latitude": 34.83314871744229,
    "longitude": 134.6921225240667,
    "is_shadow_confederation": false
  },
  {
    "rank": 9,
    "team_name": "三重大学",
    "team_short_name": "三重",
    "runner_name": "新宮",
    "total_distance_km": 621.0,
    "latitude": 34.82462519574254,
    "longitude": 134.72539601933985,
    "is_shadow_confederation": false
  },
  {
    "rank": 10,
    "team_name": "山梨学院大学",
    "team_short_name": "山学",
    "runner_name": "静岡",
    "total_distance_km": 617.6,
    "latitude": 34.80641345964694,
    "longitude": 134.75459187698632,
    "is_shadow_confederation": false
  },
  {
    "rank": 11,
    "team_name": "鹿児島大学",
    "team_short_name": "鹿大",
    "runner_name": "笠利",
    "total_distance_km": 617.4,
    "latitude": 34.805230607579205,
    "longitude": 134.75624127229992,
    "is_shadow_confederation": false
  },
  {
    "rank": 12,
    "team_name": "日本大学",
    "team_short_name": "日大",
    "runner_name": "八王子",
    "total_distance_km": 616.3,
    "latitude": 34.79872492120663,
    "longitude": 134.76531294652463,
    "is_shadow_confederation": false
  },
  {
    "rank": 13,
    "team_name": "上武大学",
    "team_short_name": "上武",
    "runner_name": "伊勢崎",
    "total_distance_km": 607.4,
    "latitude": 34.759493356760196,
    "longitude": 134.84527000617516,
    "is_shadow_confederation": false
  },
  {
    "rank": 14,
    "team_name": "鳥取大学",
    "team_short_name": "鳥取",
    "runner_name": "松江",
    "total_distance_km": 606.6,
    "latitude": 34.75431376039149,
    "longitude": 134.85133812558166,
    "is_shadow_confederation": false
  },
  {
    "rank": 15,
    "team_name": "金沢大学",
    "team_short_name": "金沢",
    "runner_name": "富山",
    "total_distance_km": 600.3,
    "latitude": 34.71438844263431,
    "longitude": 134.89902332209113,
    "is_shadow_confederation": false
  },
  {
    "rank": 16,
    "team_name": "福島大学",
    "team_short_name": "福島",
    "runner_name": "浪江",
    "total_distance_km": 586.9,
    "latitude": 34.64526494953778,
    "longitude": 135.01129032459428,
    "is_shadow_confederation": false
  },
  {
    "rank": 17,
    "team_name": "学連選抜",
    "team_short_name": "学連",
    "runner_name": "多度津",
    "total_distance_km": 569.7,
    "latitude": 34.678505887858485,
    "longitude": 135.17311620401472,
    "is_shadow_confederation": false
  },
  {
    "rank": 18,
    "team_name": "東北大学",
    "team_short_name": "東北",
    "runner_name": "一関",
    "total_distance_km": 535.0,
    "latitude": 34.69709010701271,
    "longitude": 135.51449888984862,
    "is_shadow_confederation": false
  },
  {
    "rank": null,
    "team_name": "区間記録連合",
    "team_short_name": "区間記録",
    "runner_name": "勝沼",
    "total_distance_km": 641.8,
    "latitude": 34.82543652775542,
    "longitude": 134.5182773058097,
    "is_shadow_confederation": true
  }
]