[
  {
    "rank": 1,
    "team_name": "琉球大学",
    "team_short_name": "琉球",
    "runner_name": "石垣島",
    "total_distance_km": 1001.9,
    "latitude": 34.06730129007558,
    "longitude": 131.36829728621274,
    "is_shadow_confederation": false
  },
  {
    "rank": 2,
    "team_name": "鹿児島大学",
    "team_short_name": "鹿大",
    "runner_name": "さつま柏原",
    "total_distance_km": 828.3,
    "latitude": 34.39986799832569,
    "longitude": 132.79492539529923,
    "is_shadow_confederation": false
  },
  {
    "rank": 3,
    "team_name": "熊本学園大学",
    "team_short_name": "熊学",
    "runner_name": "三角",
    "total_distance_km": 804.4,
    "latitude": 34.40054603231236,
    "longitude": 133.0181192850351,
    "is_shadow_confederation": false
  },
  {
    "rank": 4,
    "team_name": "福岡大学",
    "team_short_name": "福岡",
    "runner_name": "大牟田",
    "total_distance_km": 790.5,
    "latitude": 34.39304538840157,
    "longitude": 133.1478690684236,
    "is_shadow_confederation": false
  },
  {
    "rank": 5,
    "team_name": "四国大学",
    "team_short_name": "四国",
    "runner_name": "江川崎",
    "total_distance_km": 746.5,
    "latitude": 34.502870417396444,
    "longitude": 133.54754063946035,
    "is_shadow_confederation": false
  },
  {
    "rank": 6,
    "team_name": "広島経済大学",
    "team_short_name": "広経",
    "runner_name": "福山",
    "total_distance_km": 731.5,
    "latitude": 34.5640848957858,
    "longitude": 133.68674354337443,
    "is_shadow_confederation": false
  },
  {
    "rank": 7,
    "team_name": "鳥取大学",
    "team_short_name": "鳥取",
    "runner_name": "米子",
    "total_distance_km": 715.4,
    "latitude": 34.639803434593794,
    "longitude": 133.82677501702744,
    "is_shadow_confederation": false
  },
  {
    "rank": 8,
    "team_name": "関西大学",
    "team_short_name": "関大",
    "runner_name": "八尾（大阪）",
    "total_distance_km": 713.6,
    "latitude": 34.645640844458775,
    "longitude": 133.84509299241813,
    "is_shadow_confederation": false
  },
  {
    "rank": 9,
    "team_name": "名古屋大学",
    "team_short_name": "名大",
    "runner_name": "名古屋",
    "total_distance_km": 713.3,
    "latitude": 34.64603507831483,
    "longitude": 133.84828245403338,
    "is_shadow_confederation": false
  },
  {
    "rank": 10,
    "team_name": "三重大学",
    "team_short_name": "三重",
    "runner_name": "津",
    "total_distance_km": 705.0,
    "latitude": 34.656062002505195,
    "longitude": 133.93503643639409,
    "is_shadow_confederation": false
  },
  {
    "rank": 11,
    "team_name": "立命館大学",
    "team_short_name": "立命",
    "runner_name": "長浜（滋賀）",
    "total_distance_km": 685.6,
    "latitude": 34.72749069883209,
    "longitude": 134.11418317647258,
    "is_shadow_confederation": false
  },
  {
    "rank": 12,
    "team_name": "上武大学",
    "team_short_name": "上武",
    "runner_name": "小山",
    "total_distance_km": 669.0,
    "latitude": 34.79619321058987,
    "longitude": 134.26644641917795,
    "is_shadow_confederation": false
  },
  {
    "rank": 13,
    "team_name": "日本大学",
    "team_short_name": "日大",
    "runner_name": "練馬",
    "total_distance_km": 665.3,
    "latitude": 34.820476558599715,
    "longitude": 134.29280661983984,
    "is_shadow_confederation": false
  },
  {
    "rank": 14,
    "team_name": "金沢大学",
    "team_short_name": "金沢",
    "runner_name": "敦賀",
    "total_distance_km": 664.4,
    "latitude": 34.82661999899358,
    "longitude": 134.29922136482372,
    "is_shadow_confederation": false
  },
  {
    "rank": 15,
    "team_name": "山梨学院大学",
    "team_short_name": "山学",
    "runner_name": "三島",
    "total_distance_km": 655.1,
    "latitude": 34.828092922688,
    "longitude": 134.38210178195777,
    "is_shadow_confederation": false
  },
  {
    "rank": 16,
    "team_name": "学連選抜",
    "team_short_name": "学連",
    "runner_name": "多度津",
    "total_distance_km": 616.0,
    "latitude": 34.79695064310502,
    "longitude": 134.767787039495,
    "is_shadow_confederation": false
  },
  {
    "rank": 17,
    "team_name": "福島大学",
    "team_short_name": "福島",
    "runner_name": "浪江",
    "total_distance_km": 589.4,
    "latitude": 34.64817310729927,
    "longitude": 134.98433044944164,
    "is_shadow_confederation": false
  },
  {
    "rank": 18,
    "team_name": "東北大学",
    "team_short_name": "東北",
    "runner_name": "一関",
    "total_distance_km": 499.0,
    "latitude": 34.925256807526836,
    "longitude": 135.74476223804294,
    "is_shadow_confederation": false
  }
]