[
  {
    "rank": 1,
    "team_name": "琉球大学",
    "team_short_name": "琉球",
    "runner_name": "石垣島",
    "total_distance_km": 1003.0,
    "latitude": 34.059967065365555,
    "longitude": 131.360502132858,
    "is_shadow_confederation": false
  },
  {
    "rank": 2,
    "team_name": "鹿児島大学",
    "team_short_name": "鹿大",
    "runner_name": "さつま柏原",
    "total_distance_km": 829.7,
    "latitude": 34.40030257796292,
    "longitude": 132.77979440975085,
    "is_shadow_confederation": false
  },
  {
    "rank": 3,
    "team_name": "熊本学園大学",
    "team_short_name": "熊学",
    "runner_name": "三角",
    "total_distance_km": 805.4,
    "latitude": 34.405915584325115,
    "longitude": 133.00980790664133,
    "is_shadow_confederation": false
  },
  {
    "rank": 4,
    "team_name": "福岡大学",
    "team_short_name": "福岡",
    "runner_name": "大牟田",
    "total_distance_km": 791.5,
    "latitude": 34.38895696303804,
    "longitude": 133.13850743018733,
    "is_shadow_confederation": false
  },
  {
    "rank": 5,
    "team_name": "四国大学",
    "team_short_name": "四国",
    "runner_name": "江川崎",
    "total_distance_km": 748.1,
    "latitude": 34.49918047057687,
    "longitude": 133.53093289619392,
    "is_shadow_confederation": false
  },
  {
    "rank": 6,
    "team_name": "広島経済大学",
    "team_short_name": "広経",
    "runner_name": "福山",
    "total_distance_km": 732.7,
    "latitude": 34.55707671204166,
    "longitude": 133.67678312956218,
    "is_shadow_confederation": false
  },
  {
    "rank": 7,
    "team_name": "鳥取大学",
    "team_short_name": "鳥取",
    "runner_name": "米子",
    "total_distance_km": 716.7,
    "latitude": 34.6351224228057,
    "longitude": 133.81384356046047,
    "is_shadow_confederation": false
  },
  {
    "rank": 8,
    "team_name": "関西大学",
    "team_short_name": "関大",
    "runner_name": "八尾（大阪）",
    "total_distance_km": 714.8,
    "latitude": 34.641749237882124,
    "longitude": 133.83288100882436,
    "is_shadow_confederation": false
  },
  {
    "rank": 9,
    "team_name": "名古屋大学",
    "team_short_name": "名大",
    "runner_name": "名古屋",
    "total_distance_km": 714.6,
    "latitude": 34.64239783897823,
    "longitude": 133.8349163394233,
    "is_shadow_confederation": false
  },
  {
    "rank": 10,
    "team_name": "三重大学",
    "team_short_name": "三重",
    "runner_name": "津",
    "total_distance_km": 705.3,
    "latitude": 34.65610560233553,
    "longitude": 133.93176419748454,
    "is_shadow_confederation": false
  },
  {
    "rank": 11,
    "team_name": "立命館大学",
    "team_short_name": "立命",
    "runner_name": "長浜（滋賀）",
    "total_distance_km": 688.0,
    "latitude": 34.7137306744777,
    "longitude": 134.09588557510673,
    "is_shadow_confederation": false
  },
  {
    "rank": 12,
    "team_name": "上武大学",
    "team_short_name": "上武",
    "runner_name": "小山",
    "total_distance_km": 669.6,
    "latitude": 34.79256439848316,
    "longitude": 134.2620545485888,
    "is_shadow_confederation": false
  },
  {
    "rank": 13,
    "team_name": "日本大学",
    "team_short_name": "日大",
    "runner_name": "練馬",
    "total_distance_km": 666.5,
    "latitude": 34.81193985533622,
    "longitude": 134.28501652077264,
    "is_shadow_confederation": false
  },
  {
    "rank": 14,
    "team_name": "金沢大学",
    "team_short_name": "金沢",
    "runner_name": "敦賀",
    "total_distance_km": 665.9,
    "latitude": 34.8162779352501,
    "longitude": 134.28869549540966,
    "is_shadow_confederation": false
  },
  {
    "rank": 15,
    "team_name": "山梨学院大学",
    "team_short_name": "山学",
    "runner_name": "三島",
    "total_distance_km": 656.6,
    "latitude": 34.8258321113955,
    "longitude": 134.3664417540007,
    "is_shadow_confederation": false
  },
  {
    "rank": 16,
    "team_name": "学連選抜",
    "team_short_name": "学連",
    "runner_name": "多度津",
    "total_distance_km": 617.8,
    "latitude": 34.80758344413952,
    "longitude": 134.75292917314474,
    "is_shadow_confederation": false
  },
  {
    "rank": 17,
    "team_name": "福島大学",
    "team_short_name": "福島",
    "runner_name": "浪江",
    "total_distance_km": 590.4,
    "latitude": 34.65326608227902,
    "longitude": 134.9753721448961,
    "is_shadow_confederation": false
  },
  {
    "rank": 18,
    "team_name": "東北大学",
    "team_short_name": "東北",
    "runner_name": "一関",
    "total_distance_km": 500.6,
    "latitude": 34.91083841705917,
    "longitude": 135.7443521928021,
    "is_shadow_confederation": false
  }
]