[
  {
    "rank": 1,
    "team_name": "名古屋大学",
    "team_short_name": "名大",
    "runner_name": "愛西",
    "total_distance_km": 410.5,
    "latitude": 34.85243819765171,
    "longitude": 136.45226915184327,
    "is_shadow_confederation": false
  },
  {
    "rank": 2,
    "team_name": "四国大学",
    "team_short_name": "四国",
    "runner_name": "松山",
    "total_distance_km": 402.1,
    "latitude": 34.88291353647559,
    "longitude": 136.52608044632055,
    "is_shadow_confederation": false
  },
  {
    "rank": 3,
    "team_name": "立命館大学",
    "team_short_name": "立命",
    "runner_name": "米原",
    "total_distance_km": 401.2,
    "latitude": 34.8891024478055,
    "longitude": 136.5322337265503,
    "is_shadow_confederation": false
  },
  {
    "rank": 4,
    "team_name": "福岡大学",
    "team_short_name": "福岡",
    "runner_name": "朝倉",
    "total_distance_km": 399.8,
    "latitude": 34.89404436722125,
    "longitude": 136.5452066460753,
    "is_shadow_confederation": false
  },
  {
    "rank": 5,
    "team_name": "熊本学園大学",
    "team_short_name": "熊学",
    "runner_name": "人吉",
    "total_distance_km": 399.4,
    "latitude": 34.89725953966983,
    "longitude": 136.5471872846052,
    "is_shadow_confederation": false
  },
  {
    "rank": 6,
    "team_name": "関西大学",
    "team_short_name": "関大",
    "runner_name": "柏原",
    "total_distance_km": 397.9,
    "latitude": 34.910220049771155,
    "longitude": 136.55083741908535,
    "is_shadow_confederation": false
  },
  {
    "rank": 7,
    "team_name": "琉球大学",
    "team_short_name": "琉球",
    "runner_name": "名護",
    "total_distance_km": 396.3,
    "latitude": 34.9144212370785,
    "longitude": 136.5662319441798,
    "is_shadow_confederation": false
  },
  {
    "rank": 8,
    "team_name": "広島経済大学",
    "team_short_name": "広経",
    "runner_name": "大竹",
    "total_distance_km": 396.0,
    "latitude": 34.91426972986068,
    "longitude": 136.5695096735019,
    "is_shadow_confederation": false
  },
  {
    "rank": 9,
    "team_name": "日本大学",
    "team_short_name": "日大",
    "runner_name": "小田原",
    "total_distance_km": 395.6,
    "latitude": 34.914946817833915,
    "longitude": 136.57380020010447,
    "is_shadow_confederation": false
  },
  {
    "rank": 10,
    "team_name": "鳥取大学",
    "team_short_name": "鳥取",
    "runner_name": "防府",
    "total_distance_km": 394.2,
    "latitude": 34.923551030054256,
    "longitude": 136.58437593735246,
    "is_shadow_confederation": false
  },
  {
    "rank": 11,
    "team_name": "三重大学",
    "team_short_name": "三重",
    "runner_name": "風屋",
    "total_distance_km": 393.3,
    "latitude": 34.93032300352758,
    "longitude": 136.5892560599667,
    "is_shadow_confederation": false
  },
  {
    "rank": 12,
    "team_name": "山梨学院大学",
    "team_short_name": "山学",
    "runner_name": "浜松",
    "total_distance_km": 392.1,
    "latitude": 34.937137256229185,
    "longitude": 136.59870167578356,
    "is_shadow_confederation": false
  },
  {
    "rank": 13,
    "team_name": "上武大学",
    "team_short_name": "上武",
    "runner_name": "寄居",
    "total_distance_km": 390.9,
    "latitude": 34.94636575699355,
    "longitude": 136.60555398263105,
    "is_shadow_confederation": false
  },
  {
    "rank": 14,
    "team_name": "鹿児島大学",
    "team_short_name": "鹿大",
    "runner_name": "西米良",
    "total_distance_km": 386.2,
    "latitude": 34.982377036683936,
    "longitude": 136.63036726125566,
    "is_shadow_confederation": false
  },
  {
    "rank": 15,
    "team_name": "金沢大学",
    "team_short_name": "金沢",
    "runner_name": "志賀",
    "total_distance_km": 382.5,
    "latitude": 35.006885943245,
    "longitude": 136.654226,
    "is_shadow_confederation": false
  },
  {
    "rank": 16,
    "team_name": "福島大学",
    "team_short_name": "福島",
    "runner_name": "長岡",
    "total_distance_km": 373.5,
    "latitude": 35.07858806505856,
    "longitude": 136.6867591390207,
    "is_shadow_confederation": false
  },
  {
    "rank": 17,
    "team_name": "学連選抜",
    "team_short_name": "学連",
    "runner_name": "上",
    "total_distance_km": 341.2,
    "latitude": 35.06167574784338,
    "longitude": 136.97893721983132,
    "is_shadow_confederation": false
  },
  {
    "rank": 18,
    "team_name": "東北大学",
    "team_short_name": "東北",
    "runner_name": "大館",
    "total_distance_km": 338.2,
    "latitude": 35.046719820448104,
    "longitude": 137.00472597891792,
    "is_shadow_confederation": false
  },
  {
    "rank": null,
    "team_name": "区間記録連合",
    "team_short_name": "区間記録",
    "runner_name": "風屋",
    "total_distance_km": 410.5,
    "latitude": 34.85243819765171,
    "longitude": 136.45226915184327,
    "is_shadow_confederation": true
  }
]