[
  {
    "rank": 1,
    "team_name": "琉球大学",
    "team_short_name": "琉球",
    "runner_name": "ゴール",
    "total_distance_km": 1082.6,
    "latitude": 33.950916,
    "longitude": 130.924104,
    "is_shadow_confederation": false
  },
  {
    "rank": 2,
    "team_name": "鹿児島大学",
    "team_short_name": "鹿大",
    "runner_name": "ゴール",
    "total_distance_km": 1062.6,
    "latitude": 33.950916,
    "longitude": 130.924104,
    "is_shadow_confederation": false
  },
  {
    "rank": 3,
    "team_name": "熊本学園大学",
    "team_short_name": "熊学",
    "runner_name": "ゴール",
    "total_distance_km": 1065.9,
    "latitude": 33.950916,
    "longitude": 130.924104,
    "is_shadow_confederation": false
  },
  {
    "rank": 4,
    "team_name": "福岡大学",
    "team_short_name": "福岡",
    "runner_name": "ゴール",
    "total_distance_km": 1056.6,
    "latitude": 33.951223666821214,
    "longitude": 130.92840860311622,
    "is_shadow_confederation": false
  },
  {
    "rank": 5,
    "team_name": "名古屋大学",
    "team_short_name": "名大",
    "runner_name": "ゴール",
    "total_distance_km": 1070.0,
    "latitude": 33.950916,
    "longitude": 130.924104,
    "is_shadow_confederation": false
  },
  {
    "rank": 6,
    "team_name": "四国大学",
    "team_short_name": "四国",
    "runner_name": "ゴール",
    "total_distance_km": 1078.4,
    "latitude": 33.950916,
    "longitude": 130.924104,
    "is_shadow_confederation": false
  },
  {
    "rank": 7,
    "team_name": "日本大学",
    "team_short_name": "日大",
    "runner_name": "ゴール",
    "total_distance_km": 1074.2,
    "latitude": 33.950916,
    "longitude": 130.924104,
    "is_shadow_confederation": false
  },
  {
    "rank": 8,
    "team_name": "上武大学",
    "team_short_name": "上武",
    "runner_name": "ゴール",
    "total_distance_km": 1062.8,
    "latitude": 33.950916,
    "longitude": 130.924104,
    "is_shadow_confederation": false
  },
  {
    "rank": 9,
    "team_name": "関西大学",
    "team_short_name": "関大",
    "runner_name": "大阪",
    "total_distance_km": 1067.4,
    "latitude": 33.950916,
    "longitude": 130.924104,
    "is_shadow_confederation": false
  },
  {
    "rank": 10,
    "team_name": "三重大学",
    "team_short_name": "三重",
    "runner_name": "桑名",
    "total_distance_km": 1051.2,
    "latitude": 33.97602846275055,
    "longitude": 130.97471044617893,
    "is_shadow_confederation": false
  },
  {
    "rank": 11,
    "team_name": "広島経済大学",
    "team_short_name": "広経",
    "runner_name": "財田",
    "total_distance_km": 1046.1,
    "latitude": 34.01418293037114,
    "longitude": 130.99851285882346,
    "is_shadow_confederation": false
  },
  {
    "rank": 12,
    "team_name": "山梨学院大学",
    "team_short_name": "山学",
    "runner_name": "勝沼",
    "total_distance_km": 1043.2,
    "latitude": 34.03697408252661,
    "longitude": 131.01067887152362,
    "is_shadow_confederation": false
  },
  {
    "rank": 13,
    "team_name": "鳥取大学",
    "team_short_name": "鳥取",
    "runner_name": "山口（山口）",
    "total_distance_km": 1027.2,
    "latitude": 34.05034042085341,
    "longitude": 131.13794202813412,
    "is_shadow_confederation": false
  },
  {
    "rank": 14,
    "team_name": "立命館大学",
    "team_short_name": "立命",
    "runner_name": "大津（滋賀）",
    "total_distance_km": 1012.6,
    "latitude": 34.04136664472539,
    "longitude": 131.2784477993558,
    "is_shadow_confederation": false
  },
  {
    "rank": 15,
    "team_name": "福島大学",
    "team_short_name": "福島",
    "runner_name": "新津",
    "total_distance_km": 938.4,
    "latitude": 34.035216617017234,
    "longitude": 131.94378202219727,
    "is_shadow_confederation": false
  },
  {
    "rank": 16,
    "team_name": "金沢大学",
    "team_short_name": "金沢",
    "runner_name": "大野（福井）",
    "total_distance_km": 933.3,
    "latitude": 34.06766013242485,
    "longitude": 131.97829531594678,
    "is_shadow_confederation": false
  },
  {
    "rank": 17,
    "team_name": "東北大学",
    "team_short_name": "東北",
    "runner_name": "東根",
    "total_distance_km": 819.6,
    "latitude": 34.395999314916935,
    "longitude": 132.8807001359107,
    "is_shadow_confederation": false
  },
  {
    "rank": 18,
    "team_name": "学連選抜",
    "team_short_name": "学連",
    "runner_name": "飯塚",
    "total_distance_km": 803.6,
    "latitude": 34.397898732778366,
    "longitude": 133.02596676244698,
    "is_shadow_confederation": false
  },
  {
    "rank": null,
    "team_name": "区間記録連合",
    "team_short_name": "区間記録",
    "runner_name": "ゴール",
    "total_distance_km": 1082.6,
    "latitude": 33.950916,
    "longitude": 130.924104,
    "is_shadow_confederation": true
  }
]