[
  {
    "rank": 1,
    "team_name": "名古屋大学",
    "team_short_name": "名大",
    "runner_name": "美濃",
    "total_distance_km": 203.8,
    "latitude": 34.84587975347385,
    "longitude": 138.1581254656272,
    "is_shadow_confederation": false
  },
  {
    "rank": 2,
    "team_name": "四国大学",
    "team_short_name": "四国",
    "runner_name": "大三島",
    "total_distance_km": 201.9,
    "latitude": 34.84857671361402,
    "longitude": 138.17817956248194,
    "is_shadow_confederation": false
  },
  {
    "rank": 3,
    "team_name": "熊本学園大学",
    "team_short_name": "熊学",
    "runner_name": "岱明",
    "total_distance_km": 199.6,
    "latitude": 34.85409167578029,
    "longitude": 138.20174489392952,
    "is_shadow_confederation": false
  },
  {
    "rank": 4,
    "team_name": "福岡大学",
    "team_short_name": "福岡",
    "runner_name": "福岡",
    "total_distance_km": 197.4,
    "latitude": 34.86822714372402,
    "longitude": 138.21684286992877,
    "is_shadow_confederation": false
  },
  {
    "rank": 5,
    "team_name": "琉球大学",
    "team_short_name": "琉球",
    "runner_name": "仲筋",
    "total_distance_km": 197.0,
    "latitude": 34.86903282132896,
    "longitude": 138.22107415777927,
    "is_shadow_confederation": false
  },
  {
    "rank": 6,
    "team_name": "金沢大学",
    "team_short_name": "金沢",
    "runner_name": "小浜",
    "total_distance_km": 196.5,
    "latitude": 34.87036492045982,
    "longitude": 138.22620993730723,
    "is_shadow_confederation": false
  },
  {
    "rank": 7,
    "team_name": "立命館大学",
    "team_short_name": "立命",
    "runner_name": "福知山",
    "total_distance_km": 196.0,
    "latitude": 34.873296549015805,
    "longitude": 138.2301649777746,
    "is_shadow_confederation": false
  },
  {
    "rank": 8,
    "team_name": "関西大学",
    "team_short_name": "関大",
    "runner_name": "和田山",
    "total_distance_km": 194.3,
    "latitude": 34.88309107879557,
    "longitude": 138.24372412577395,
    "is_shadow_confederation": false
  },
  {
    "rank": 9,
    "team_name": "日本大学",
    "team_short_name": "日大",
    "runner_name": "古河",
    "total_distance_km": 193.9,
    "latitude": 34.884503598879604,
    "longitude": 138.24774289968548,
    "is_shadow_confederation": false
  },
  {
    "rank": 10,
    "team_name": "上武大学",
    "team_short_name": "上武",
    "runner_name": "越谷",
    "total_distance_km": 193.7,
    "latitude": 34.88560505664939,
    "longitude": 138.2494749186228,
    "is_shadow_confederation": false
  },
  {
    "rank": 11,
    "team_name": "広島経済大学",
    "team_short_name": "広経",
    "runner_name": "加計",
    "total_distance_km": 193.6,
    "latitude": 34.886155785534285,
    "longitude": 138.25034092809148,
    "is_shadow_confederation": false
  },
  {
    "rank": 12,
    "team_name": "鳥取大学",
    "team_short_name": "鳥取",
    "runner_name": "鳥取",
    "total_distance_km": 193.3,
    "latitude": 34.887807972188966,
    "longitude": 138.25293895649747,
    "is_shadow_confederation": false
  },
  {
    "rank": 13,
    "team_name": "鹿児島大学",
    "team_short_name": "鹿大",
    "runner_name": "川内（鹿児島）",
    "total_distance_km": 191.5,
    "latitude": 34.894041126889945,
    "longitude": 138.2709272857329,
    "is_shadow_confederation": false
  },
  {
    "rank": 14,
    "team_name": "三重大学",
    "team_short_name": "三重",
    "runner_name": "五條",
    "total_distance_km": 191.0,
    "latitude": 34.89619815473694,
    "longitude": 138.2757143297493,
    "is_shadow_confederation": false
  },
  {
    "rank": 15,
    "team_name": "福島大学",
    "team_short_name": "福島",
    "runner_name": "石川",
    "total_distance_km": 185.9,
    "latitude": 34.93167346693624,
    "longitude": 138.30416623954744,
    "is_shadow_confederation": false
  },
  {
    "rank": 16,
    "team_name": "山梨学院大学",
    "team_short_name": "山学",
    "runner_name": "南信濃",
    "total_distance_km": 184.3,
    "latitude": 34.939170278069916,
    "longitude": 138.31742254340222,
    "is_shadow_confederation": false
  },
  {
    "rank": 17,
    "team_name": "東北大学",
    "team_short_name": "東北",
    "runner_name": "山形（山形）",
    "total_distance_km": 156.9,
    "latitude": 35.072520439175086,
    "longitude": 138.54287173847518,
    "is_shadow_confederation": false
  },
  {
    "rank": 18,
    "team_name": "学連選抜",
    "team_short_name": "学連",
    "runner_name": "新潟",
    "total_distance_km": 154.3,
    "latitude": 35.09480654903946,
    "longitude": 138.55120691218548,
    "is_shadow_confederation": false
  },
  {
    "rank": null,
    "team_name": "区間記録連合",
    "team_short_name": "区間記録",
    "runner_name": "佐野",
    "total_distance_km": 228.7,
    "latitude": 34.760721880038666,
    "longitude": 137.94845527579187,
    "is_shadow_confederation": true
  }
]