[
  {
    "rank": 1,
    "team_name": "琉球大学",
    "team_short_name": "琉球",
    "runner_name": "西表島",
    "total_distance_km": 870.4,
    "latitude": 34.390142312202336,
    "longitude": 132.42507063167156,
    "is_shadow_confederation": false
  },
  {
    "rank": 2,
    "team_name": "熊本学園大学",
    "team_short_name": "熊学",
    "runner_name": "三角",
    "total_distance_km": 817.5,
    "latitude": 34.387868175709,
    "longitude": 132.89855518983254,
    "is_shadow_confederation": false
  },
  {
    "rank": 3,
    "team_name": "福岡大学",
    "team_short_name": "福岡",
    "runner_name": "大牟田",
    "total_distance_km": 797.7,
    "latitude": 34.39823735955556,
    "longitude": 133.08191121677868,
    "is_shadow_confederation": false
  },
  {
    "rank": 4,
    "team_name": "名古屋大学",
    "team_short_name": "名大",
    "runner_name": "大府",
    "total_distance_km": 797.3,
    "latitude": 34.397385845030065,
    "longitude": 133.08607980465166,
    "is_shadow_confederation": false
  },
  {
    "rank": 5,
    "team_name": "関西大学",
    "team_short_name": "関大",
    "runner_name": "郡家",
    "total_distance_km": 795.6,
    "latitude": 34.39349165623853,
    "longitude": 133.10192051958336,
    "is_shadow_confederation": false
  },
  {
    "rank": 6,
    "team_name": "鹿児島大学",
    "team_short_name": "鹿大",
    "runner_name": "さつま柏原",
    "total_distance_km": 793.3,
    "latitude": 34.38283795105956,
    "longitude": 133.12117141403252,
    "is_shadow_confederation": false
  },
  {
    "rank": 7,
    "team_name": "鳥取大学",
    "team_short_name": "鳥取",
    "runner_name": "玖珂",
    "total_distance_km": 788.6,
    "latitude": 34.39778832761567,
    "longitude": 133.16757080698704,
    "is_shadow_confederation": false
  },
  {
    "rank": 8,
    "team_name": "広島経済大学",
    "team_short_name": "広経",
    "runner_name": "引田",
    "total_distance_km": 787.6,
    "latitude": 34.40023222450703,
    "longitude": 133.17800105701838,
    "is_shadow_confederation": false
  },
  {
    "rank": 9,
    "team_name": "立命館大学",
    "team_short_name": "立命",
    "runner_name": "京都",
    "total_distance_km": 786.3,
    "latitude": 34.40379222558693,
    "longitude": 133.19146230690828,
    "is_shadow_confederation": false
  },
  {
    "rank": 10,
    "team_name": "四国大学",
    "team_short_name": "四国",
    "runner_name": "江川崎",
    "total_distance_km": 781.6,
    "latitude": 34.416718394846896,
    "longitude": 133.2313799483101,
    "is_shadow_confederation": false
  },
  {
    "rank": 11,
    "team_name": "上武大学",
    "team_short_name": "上武",
    "runner_name": "前橋",
    "total_distance_km": 767.9,
    "latitude": 34.48547991499841,
    "longitude": 133.3341583741762,
    "is_shadow_confederation": false
  },
  {
    "rank": 12,
    "team_name": "山梨学院大学",
    "team_short_name": "山学",
    "runner_name": "上田",
    "total_distance_km": 767.7,
    "latitude": 34.485113180759086,
    "longitude": 133.3362035046609,
    "is_shadow_confederation": false
  },
  {
    "rank": 13,
    "team_name": "三重大学",
    "team_short_name": "三重",
    "runner_name": "和歌山",
    "total_distance_km": 766.4,
    "latitude": 34.48560138630769,
    "longitude": 133.34927176243679,
    "is_shadow_confederation": false
  },
  {
    "rank": 14,
    "team_name": "金沢大学",
    "team_short_name": "金沢",
    "runner_name": "小松",
    "total_distance_km": 764.2,
    "latitude": 34.487242350576395,
    "longitude": 133.37274295499356,
    "is_shadow_confederation": false
  },
  {
    "rank": 15,
    "team_name": "日本大学",
    "team_short_name": "日大",
    "runner_name": "練馬",
    "total_distance_km": 739.2,
    "latitude": 34.536150335785024,
    "longitude": 133.6147316655958,
    "is_shadow_confederation": false
  },
  {
    "rank": 16,
    "team_name": "学連選抜",
    "team_short_name": "学連",
    "runner_name": "加世田",
    "total_distance_km": 718.0,
    "latitude": 34.62845077927404,
    "longitude": 133.80218835665357,
    "is_shadow_confederation": false
  },
  {
    "rank": 17,
    "team_name": "福島大学",
    "team_short_name": "福島",
    "runner_name": "寺泊",
    "total_distance_km": 702.1,
    "latitude": 34.67218517065106,
    "longitude": 133.9569854925468,
    "is_shadow_confederation": false
  },
  {
    "rank": 18,
    "team_name": "東北大学",
    "team_short_name": "東北",
    "runner_name": "秋田",
    "total_distance_km": 697.1,
    "latitude": 34.69003498691501,
    "longitude": 134.00574155506297,
    "is_shadow_confederation": false
  }
]