[
  {
    "rank": 1,
    "team_name": "琉球大学",
    "team_short_name": "琉球",
    "runner_name": "仲筋",
    "total_distance_km": 184.3,
    "latitude": 34.939170278069916,
    "longitude": 138.31742254340222,
    "is_shadow_confederation": false
  },
  {
    "rank": 2,
    "team_name": "鹿児島大学",
    "team_short_name": "鹿大",
    "runner_name": "川内（鹿児島）",
    "total_distance_km": 132.9,
    "latitude": 35.13273895079384,
    "longitude": 138.7563100315364,
    "is_shadow_confederation": false
  },
  {
    "rank": 3,
    "team_name": "熊本学園大学",
    "team_short_name": "熊学",
    "runner_name": "岱明",
    "total_distance_km": 130.5,
    "latitude": 35.12724857486788,
    "longitude": 138.78176455368762,
    "is_shadow_confederation": false
  },
  {
    "rank": 4,
    "team_name": "福岡大学",
    "team_short_name": "福岡",
    "runner_name": "福岡",
    "total_distance_km": 121.1,
    "latitude": 35.10141106262722,
    "longitude": 138.8759756403273,
    "is_shadow_confederation": false
  },
  {
    "rank": 5,
    "team_name": "三重大学",
    "team_short_name": "三重",
    "runner_name": "粥見",
    "total_distance_km": 105.8,
    "latitude": 35.16638497079286,
    "longitude": 139.00360987358198,
    "is_shadow_confederation": false
  },
  {
    "rank": 6,
    "team_name": "四国大学",
    "team_short_name": "四国",
    "runner_name": "穴吹",
    "total_distance_km": 105.4,
    "latitude": 35.16741751704659,
    "longitude": 139.00751581730427,
    "is_shadow_confederation": false
  },
  {
    "rank": 7,
    "team_name": "名古屋大学",
    "team_short_name": "名大",
    "runner_name": "美濃加茂",
    "total_distance_km": 105.3,
    "latitude": 35.168168849826976,
    "longitude": 139.00812221212985,
    "is_shadow_confederation": false
  },
  {
    "rank": 8,
    "team_name": "上武大学",
    "team_short_name": "上武",
    "runner_name": "佐野",
    "total_distance_km": 101.9,
    "latitude": 35.18426528228329,
    "longitude": 139.0181197001656,
    "is_shadow_confederation": false
  },
  {
    "rank": 9,
    "team_name": "日本大学",
    "team_short_name": "日大",
    "runner_name": "大子",
    "total_distance_km": 100.9,
    "latitude": 35.18292230200782,
    "longitude": 139.02784399007416,
    "is_shadow_confederation": false
  },
  {
    "rank": 10,
    "team_name": "関西大学",
    "team_short_name": "関大",
    "runner_name": "福崎",
    "total_distance_km": 96.6,
    "latitude": 35.20819967668495,
    "longitude": 139.05819207207063,
    "is_shadow_confederation": false
  },
  {
    "rank": 11,
    "team_name": "鳥取大学",
    "team_short_name": "鳥取",
    "runner_name": "川本",
    "total_distance_km": 88.0,
    "latitude": 35.23969465967013,
    "longitude": 139.1195955220242,
    "is_shadow_confederation": false
  },
  {
    "rank": 12,
    "team_name": "立命館大学",
    "team_short_name": "立命",
    "runner_name": "東近江",
    "total_distance_km": 87.6,
    "latitude": 35.24178146712236,
    "longitude": 139.1231793028753,
    "is_shadow_confederation": false
  },
  {
    "rank": 13,
    "team_name": "福島大学",
    "team_short_name": "福島",
    "runner_name": "梁川",
    "total_distance_km": 86.8,
    "latitude": 35.24595508202681,
    "longitude": 139.13034686457743,
    "is_shadow_confederation": false
  },
  {
    "rank": 14,
    "team_name": "広島経済大学",
    "team_short_name": "広経",
    "runner_name": "三次",
    "total_distance_km": 84.4,
    "latitude": 35.24733487363157,
    "longitude": 139.1558102814244,
    "is_shadow_confederation": false
  },
  {
    "rank": 15,
    "team_name": "金沢大学",
    "team_short_name": "金沢",
    "runner_name": "秋ヶ島",
    "total_distance_km": 68.3,
    "latitude": 35.30793905962772,
    "longitude": 139.30898240048742,
    "is_shadow_confederation": false
  },
  {
    "rank": 16,
    "team_name": "山梨学院大学",
    "team_short_name": "山学",
    "runner_name": "長野",
    "total_distance_km": 58.7,
    "latitude": 35.31865377966663,
    "longitude": 139.40821102645683,
    "is_shadow_confederation": false
  },
  {
    "rank": 17,
    "team_name": "東北大学",
    "team_short_name": "東北",
    "runner_name": "帯広",
    "total_distance_km": 53.5,
    "latitude": 35.331731705521335,
    "longitude": 139.46076752609235,
    "is_shadow_confederation": false
  },
  {
    "rank": 18,
    "team_name": "学連選抜",
    "team_short_name": "学連",
    "runner_name": "美幌",
    "total_distance_km": 7.6,
    "latitude": 35.62578418338018,
    "longitude": 139.73793108194758,
    "is_shadow_confederation": false
  },
  {
    "rank": null,
    "team_name": "区間記録連合",
    "team_short_name": "区間記録",
    "runner_name": "佐野",
    "total_distance_km": 260.0,
    "latitude": 34.683013508022064,
    "longitude": 137.6449031934989,
    "is_shadow_confederation": true
  }
]