[
  {
    "rank": 1,
    "team_name": "琉球大学",
    "team_short_name": "琉球",
    "runner_name": "北原",
    "total_distance_km": 78.6,
    "latitude": 35.278032911879706,
    "longitude": 139.2043060556051,
    "is_shadow_confederation": false
  },
  {
    "rank": 2,
    "team_name": "鹿児島大学",
    "team_short_name": "鹿大",
    "runner_name": "東市来",
    "total_distance_km": 55.5,
    "latitude": 35.3248921418508,
    "longitude": 139.44088350772927,
    "is_shadow_confederation": false
  },
  {
    "rank": 3,
    "team_name": "熊本学園大学",
    "team_short_name": "熊学",
    "runner_name": "甲佐",
    "total_distance_km": 48.9,
    "latitude": 35.35846867083912,
    "longitude": 139.49353318643625,
    "is_shadow_confederation": false
  },
  {
    "rank": 4,
    "team_name": "福岡大学",
    "team_short_name": "福岡",
    "runner_name": "久留米",
    "total_distance_km": 46.1,
    "latitude": 35.379451153390434,
    "longitude": 139.50952771620538,
    "is_shadow_confederation": false
  },
  {
    "rank": 5,
    "team_name": "三重大学",
    "team_short_name": "三重",
    "runner_name": "粥見",
    "total_distance_km": 39.1,
    "latitude": 35.42112494471507,
    "longitude": 139.5570327659229,
    "is_shadow_confederation": false
  },
  {
    "rank": 6,
    "team_name": "四国大学",
    "team_short_name": "四国",
    "runner_name": "穴吹",
    "total_distance_km": 38.8,
    "latitude": 35.42075585392534,
    "longitude": 139.56029674516006,
    "is_shadow_confederation": false
  },
  {
    "rank": 7,
    "team_name": "上武大学",
    "team_short_name": "上武",
    "runner_name": "佐野",
    "total_distance_km": 37.7,
    "latitude": 35.42594748599383,
    "longitude": 139.5696632179098,
    "is_shadow_confederation": false
  },
  {
    "rank": 8,
    "team_name": "名古屋大学",
    "team_short_name": "名大",
    "runner_name": "美濃加茂",
    "total_distance_km": 36.8,
    "latitude": 35.43240542743518,
    "longitude": 139.5754846257092,
    "is_shadow_confederation": false
  },
  {
    "rank": 9,
    "team_name": "関西大学",
    "team_short_name": "関大",
    "runner_name": "福崎",
    "total_distance_km": 35.0,
    "latitude": 35.4452293023733,
    "longitude": 139.58110725174524,
    "is_shadow_confederation": false
  },
  {
    "rank": 10,
    "team_name": "日本大学",
    "team_short_name": "日大",
    "runner_name": "大子",
    "total_distance_km": 34.5,
    "latitude": 35.44532981434935,
    "longitude": 139.58660242748908,
    "is_shadow_confederation": false
  },
  {
    "rank": 11,
    "team_name": "立命館大学",
    "team_short_name": "立命",
    "runner_name": "東近江",
    "total_distance_km": 32.1,
    "latitude": 35.452488950192716,
    "longitude": 139.60848283182926,
    "is_shadow_confederation": false
  },
  {
    "rank": 12,
    "team_name": "福島大学",
    "team_short_name": "福島",
    "runner_name": "梁川",
    "total_distance_km": 30.7,
    "latitude": 35.45826479835562,
    "longitude": 139.62218586440085,
    "is_shadow_confederation": false
  },
  {
    "rank": 13,
    "team_name": "鳥取大学",
    "team_short_name": "鳥取",
    "runner_name": "川本",
    "total_distance_km": 27.4,
    "latitude": 35.481019466019724,
    "longitude": 139.64057020970924,
    "is_shadow_confederation": false
  },
  {
    "rank": 14,
    "team_name": "広島経済大学",
    "team_short_name": "広経",
    "runner_name": "三次",
    "total_distance_km": 25.1,
    "latitude": 35.49078027157325,
    "longitude": 139.66219381768013,
    "is_shadow_confederation": false
  },
  {
    "rank": 15,
    "team_name": "金沢大学",
    "team_short_name": "金沢",
    "runner_name": "秋ヶ島",
    "total_distance_km": 24.3,
    "latitude": 35.49520474249155,
    "longitude": 139.66906388815931,
    "is_shadow_confederation": false
  },
  {
    "rank": 16,
    "team_name": "山梨学院大学",
    "team_short_name": "山学",
    "runner_name": "長野",
    "total_distance_km": 18.6,
    "latitude": 35.53458127139499,
    "longitude": 139.70789842401783,
    "is_shadow_confederation": false
  },
  {
    "rank": 17,
    "team_name": "東北大学",
    "team_short_name": "東北",
    "runner_name": "帯広",
    "total_distance_km": 13.0,
    "latitude": 35.579168148341346,
    "longitude": 139.73541832637122,
    "is_shadow_confederation": false
  },
  {
    "rank": 18,
    "team_name": "学連選抜",
    "team_short_name": "学連",
    "runner_name": "美幌",
    "total_distance_km": 1.8,
    "latitude": 35.67459922570492,
    "longitude": 139.7545827949395,
    "is_shadow_confederation": false
  }
]