[
  {
    "rank": 1,
    "team_name": "名古屋大学",
    "team_short_name": "名大",
    "runner_name": "美濃",
    "total_distance_km": 70.7,
    "latitude": 35.304408010332345,
    "longitude": 139.2834206071727,
    "current_leg": 1,
    "is_shadow_confederation": false
  },
  {
    "rank": 2,
    "team_name": "山梨学院大学",
    "team_short_name": "山学",
    "runner_name": "佐久間",
    "total_distance_km": 70.5,
    "latitude": 35.30424740235761,
    "longitude": 139.28561089534423,
    "current_leg": 1,
    "is_shadow_confederation": false
  },
  {
    "rank": 3,
    "team_name": "三重大学",
    "team_short_name": "三重",
    "runner_name": "粥見",
    "total_distance_km": 69.7,
    "latitude": 35.30486685134371,
    "longitude": 139.29410972191744,
    "current_leg": 1,
    "is_shadow_confederation": false
  },
  {
    "rank": 4,
    "team_name": "関西大学",
    "team_short_name": "関大",
    "runner_name": "福崎",
    "total_distance_km": 68.8,
    "latitude": 35.30709324080918,
    "longitude": 139.30362562108877,
    "current_leg": 1,
    "is_shadow_confederation": false
  },
  {
    "rank": 5,
    "team_name": "日本大学",
    "team_short_name": "日大",
    "runner_name": "八王子",
    "total_distance_km": 68.2,
    "latitude": 35.30781254177304,
    "longitude": 139.31007107881723,
    "current_leg": 1,
    "is_shadow_confederation": false
  },
  {
    "rank": 6,
    "team_name": "上武大学",
    "team_short_name": "上武",
    "runner_name": "前橋",
    "total_distance_km": 67.4,
    "latitude": 35.310942285540385,
    "longitude": 139.31634405346276,
    "current_leg": 1,
    "is_shadow_confederation": false
  },
  {
    "rank": 7,
    "team_name": "学連選抜",
    "team_short_name": "学連",
    "runner_name": "金山（岐阜）",
    "total_distance_km": 67.3,
    "latitude": 35.310817634999836,
    "longitude": 139.31726835617454,
    "current_leg": 1,
    "is_shadow_confederation": false
  },
  {
    "rank": 7,
    "team_name": "四国大学",
    "team_short_name": "四国",
    "runner_name": "穴吹",
    "total_distance_km": 67.3,
    "latitude": 35.310817634999836,
    "longitude": 139.31726835617454,
    "current_leg": 1,
    "is_shadow_confederation": false
  },
  {
    "rank": 9,
    "team_name": "立命館大学",
    "team_short_name": "立命",
    "runner_name": "東近江",
    "total_distance_km": 66.6,
    "latitude": 35.3120728327218,
    "longitude": 139.3242486036176,
    "current_leg": 1,
    "is_shadow_confederation": false
  },
  {
    "rank": 10,
    "team_name": "広島経済大学",
    "team_short_name": "広経",
    "runner_name": "久世",
    "total_distance_km": 66.4,
    "latitude": 35.31268633357285,
    "longitude": 139.32631293193563,
    "current_leg": 1,
    "is_shadow_confederation": false
  },
  {
    "rank": 11,
    "team_name": "鹿児島大学",
    "team_short_name": "鹿大",
    "runner_name": "肝付前田",
    "total_distance_km": 66.3,
    "latitude": 35.3129688655958,
    "longitude": 139.32735715700144,
    "current_leg": 1,
    "is_shadow_confederation": false
  },
  {
    "rank": 12,
    "team_name": "金沢大学",
    "team_short_name": "金沢",
    "runner_name": "伏木",
    "total_distance_km": 65.9,
    "latitude": 35.314098993687594,
    "longitude": 139.3315340572646,
    "current_leg": 1,
    "is_shadow_confederation": false
  },
  {
    "rank": 13,
    "team_name": "鳥取大学",
    "team_short_name": "鳥取",
    "runner_name": "広瀬",
    "total_distance_km": 65.8,
    "latitude": 35.314381525710544,
    "longitude": 139.33257828233042,
    "current_leg": 1,
    "is_shadow_confederation": false
  },
  {
    "rank": 14,
    "team_name": "熊本学園大学",
    "team_short_name": "熊学",
    "runner_name": "犬飼",
    "total_distance_km": 65.5,
    "latitude": 35.31509735767096,
    "longitude": 139.33572764414095,
    "current_leg": 1,
    "is_shadow_confederation": false
  },
  {
    "rank": 15,
    "team_name": "福岡大学",
    "team_short_name": "福岡",
    "runner_name": "飯塚",
    "total_distance_km": 64.7,
    "latitude": 35.31527286529961,
    "longitude": 139.34446195409942,
    "current_leg": 1,
    "is_shadow_confederation": false
  },
  {
    "rank": 16,
    "team_name": "琉球大学",
    "team_short_name": "琉球",
    "runner_name": "北原",
    "total_distance_km": 63.1,
    "latitude": 35.31665539264615,
    "longitude": 139.3619302551853,
    "current_leg": 1,
    "is_shadow_confederation": false
  },
  {
    "rank": 17,
    "team_name": "福島大学",
    "team_short_name": "福島",
    "runner_name": "高田",
    "total_distance_km": 62.5,
    "latitude": 35.318279849644306,
    "longitude": 139.36822379838011,
    "current_leg": 1,
    "is_shadow_confederation": false
  },
  {
    "rank": 18,
    "team_name": "東北大学",
    "team_short_name": "東北",
    "runner_name": "上富良野",
    "total_distance_km": 49.9,
    "latitude": 35.34993442778732,
    "longitude": 139.4904053213871,
    "current_leg": 1,
    "is_shadow_confederation": false
  },
  {
    "rank": null,
    "team_name": "区間記録連合",
    "team_short_name": "区間記録",
    "runner_name": "梁川",
    "total_distance_km": 78.0,
    "latitude": 35.279813673019476,
    "longitude": 139.21040907700936,
    "current_leg": 1,
    "is_shadow_confederation": true
  }
]