[
  {
    "rank": 1,
    "team_name": "琉球大学",
    "team_short_name": "琉球",
    "runner_name": "北原",
    "total_distance_km": 61.9,
    "latitude": 35.31990430664247,
    "longitude": 139.37451734157492,
    "is_shadow_confederation": false
  },
  {
    "rank": 2,
    "team_name": "熊本学園大学",
    "team_short_name": "熊学",
    "runner_name": "甲佐",
    "total_distance_km": 60.5,
    "latitude": 35.31732194718725,
    "longitude": 139.3885583658056,
    "is_shadow_confederation": false
  },
  {
    "rank": 3,
    "team_name": "鹿児島大学",
    "team_short_name": "鹿大",
    "runner_name": "東市来",
    "total_distance_km": 58.9,
    "latitude": 35.31885008904491,
    "longitude": 139.4060246890275,
    "is_shadow_confederation": false
  },
  {
    "rank": 4,
    "team_name": "福岡大学",
    "team_short_name": "福岡",
    "runner_name": "久留米",
    "total_distance_km": 58.4,
    "latitude": 35.31835931559922,
    "longitude": 139.4114905326008,
    "is_shadow_confederation": false
  },
  {
    "rank": 5,
    "team_name": "四国大学",
    "team_short_name": "四国",
    "runner_name": "穴吹",
    "total_distance_km": 56.0,
    "latitude": 35.322811682254404,
    "longitude": 139.4360055939863,
    "is_shadow_confederation": false
  },
  {
    "rank": 6,
    "team_name": "三重大学",
    "team_short_name": "三重",
    "runner_name": "粥見",
    "total_distance_km": 54.2,
    "latitude": 35.32805877281061,
    "longitude": 139.45450742148003,
    "is_shadow_confederation": false
  },
  {
    "rank": 7,
    "team_name": "立命館大学",
    "team_short_name": "立命",
    "runner_name": "東近江",
    "total_distance_km": 53.0,
    "latitude": 35.33435522888614,
    "longitude": 139.46523902938688,
    "is_shadow_confederation": false
  },
  {
    "rank": 8,
    "team_name": "名古屋大学",
    "team_short_name": "名大",
    "runner_name": "美濃加茂",
    "total_distance_km": 52.8,
    "latitude": 35.33503031221517,
    "longitude": 139.46714247219742,
    "is_shadow_confederation": false
  },
  {
    "rank": 9,
    "team_name": "関西大学",
    "team_short_name": "関大",
    "runner_name": "福崎",
    "total_distance_km": 52.1,
    "latitude": 35.33605813397037,
    "longitude": 139.47412225765882,
    "is_shadow_confederation": false
  },
  {
    "rank": 10,
    "team_name": "鳥取大学",
    "team_short_name": "鳥取",
    "runner_name": "川本",
    "total_distance_km": 51.5,
    "latitude": 35.340297250468545,
    "longitude": 139.47800605618633,
    "is_shadow_confederation": false
  },
  {
    "rank": 11,
    "team_name": "広島経済大学",
    "team_short_name": "広経",
    "runner_name": "三次",
    "total_distance_km": 50.5,
    "latitude": 35.34553076234349,
    "longitude": 139.4866495470111,
    "is_shadow_confederation": false
  },
  {
    "rank": 12,
    "team_name": "上武大学",
    "team_short_name": "上武",
    "runner_name": "佐野",
    "total_distance_km": 47.2,
    "latitude": 35.37206943014859,
    "longitude": 139.50198763799912,
    "is_shadow_confederation": false
  },
  {
    "rank": 13,
    "team_name": "日本大学",
    "team_short_name": "日大",
    "runner_name": "大子",
    "total_distance_km": 44.8,
    "latitude": 35.387645168509586,
    "longitude": 139.51885558207192,
    "is_shadow_confederation": false
  },
  {
    "rank": 14,
    "team_name": "金沢大学",
    "team_short_name": "金沢",
    "runner_name": "秋ヶ島",
    "total_distance_km": 42.7,
    "latitude": 35.403835227590164,
    "longitude": 139.5275186753615,
    "is_shadow_confederation": false
  },
  {
    "rank": 15,
    "team_name": "福島大学",
    "team_short_name": "福島",
    "runner_name": "梁川",
    "total_distance_km": 40.8,
    "latitude": 35.41425968882621,
    "longitude": 139.54121663083532,
    "is_shadow_confederation": false
  },
  {
    "rank": 16,
    "team_name": "山梨学院大学",
    "team_short_name": "山学",
    "runner_name": "長野",
    "total_distance_km": 37.7,
    "latitude": 35.42594748599383,
    "longitude": 139.5696632179098,
    "is_shadow_confederation": false
  },
  {
    "rank": 17,
    "team_name": "東北大学",
    "team_short_name": "東北",
    "runner_name": "帯広",
    "total_distance_km": 26.2,
    "latitude": 35.48552804261049,
    "longitude": 139.65229977400298,
    "is_shadow_confederation": false
  },
  {
    "rank": 18,
    "team_name": "学連選抜",
    "team_short_name": "学連",
    "runner_name": "美幌",
    "total_distance_km": 22.8,
    "latitude": 35.50578891208287,
    "longitude": 139.67925720512386,
    "is_shadow_confederation": false
  }
]