[
  {
    "rank": 1,
    "team_name": "琉球大学",
    "team_short_name": "琉球",
    "runner_name": "波照間",
    "total_distance_km": 535.4,
    "latitude": 34.69737602190695,
    "longitude": 135.5101469058535,
    "is_shadow_confederation": false
  },
  {
    "rank": 2,
    "team_name": "鹿児島大学",
    "team_short_name": "鹿大",
    "runner_name": "西米良",
    "total_distance_km": 408.8,
    "latitude": 34.851962039370584,
    "longitude": 136.47005341550116,
    "is_shadow_confederation": false
  },
  {
    "rank": 3,
    "team_name": "熊本学園大学",
    "team_short_name": "熊学",
    "runner_name": "人吉",
    "total_distance_km": 403.7,
    "latitude": 34.877532522079385,
    "longitude": 136.5109998921177,
    "is_shadow_confederation": false
  },
  {
    "rank": 4,
    "team_name": "福岡大学",
    "team_short_name": "福岡",
    "runner_name": "朝倉",
    "total_distance_km": 380.4,
    "latitude": 35.021203634921235,
    "longitude": 136.66874247928413,
    "is_shadow_confederation": false
  },
  {
    "rank": 5,
    "team_name": "名古屋大学",
    "team_short_name": "名大",
    "runner_name": "愛西",
    "total_distance_km": 351.4,
    "latitude": 35.12286397514201,
    "longitude": 136.90547947521767,
    "is_shadow_confederation": false
  },
  {
    "rank": 6,
    "team_name": "四国大学",
    "team_short_name": "四国",
    "runner_name": "松山",
    "total_distance_km": 349.8,
    "latitude": 35.1156006240009,
    "longitude": 136.92018320503453,
    "is_shadow_confederation": false
  },
  {
    "rank": 7,
    "team_name": "上武大学",
    "team_short_name": "上武",
    "runner_name": "寄居",
    "total_distance_km": 336.6,
    "latitude": 35.03500472257831,
    "longitude": 137.01489097532524,
    "is_shadow_confederation": false
  },
  {
    "rank": 8,
    "team_name": "広島経済大学",
    "team_short_name": "広経",
    "runner_name": "大竹",
    "total_distance_km": 336.2,
    "latitude": 35.03222207031247,
    "longitude": 137.01767835095583,
    "is_shadow_confederation": false
  },
  {
    "rank": 9,
    "team_name": "日本大学",
    "team_short_name": "日大",
    "runner_name": "小田原",
    "total_distance_km": 333.9,
    "latitude": 35.01753834819487,
    "longitude": 137.03530323183537,
    "is_shadow_confederation": false
  },
  {
    "rank": 10,
    "team_name": "三重大学",
    "team_short_name": "三重",
    "runner_name": "風屋",
    "total_distance_km": 333.7,
    "latitude": 35.016149461601806,
    "longitude": 137.0367002936929,
    "is_shadow_confederation": false
  },
  {
    "rank": 11,
    "team_name": "鳥取大学",
    "team_short_name": "鳥取",
    "runner_name": "防府",
    "total_distance_km": 329.3,
    "latitude": 34.99383822285322,
    "longitude": 137.07583058766642,
    "is_shadow_confederation": false
  },
  {
    "rank": 12,
    "team_name": "関西大学",
    "team_short_name": "関大",
    "runner_name": "上郡",
    "total_distance_km": 319.2,
    "latitude": 34.95435570152729,
    "longitude": 137.1735834190589,
    "is_shadow_confederation": false
  },
  {
    "rank": 13,
    "team_name": "立命館大学",
    "team_short_name": "立命",
    "runner_name": "京田辺",
    "total_distance_km": 314.7,
    "latitude": 34.9239242655653,
    "longitude": 137.20315158529317,
    "is_shadow_confederation": false
  },
  {
    "rank": 14,
    "team_name": "山梨学院大学",
    "team_short_name": "山学",
    "runner_name": "大月",
    "total_distance_km": 281.0,
    "latitude": 34.72024771633902,
    "longitude": 137.45133642369527,
    "is_shadow_confederation": false
  },
  {
    "rank": 15,
    "team_name": "福島大学",
    "team_short_name": "福島",
    "runner_name": "津川",
    "total_distance_km": 280.7,
    "latitude": 34.72044513754602,
    "longitude": 137.45460287819262,
    "is_shadow_confederation": false
  },
  {
    "rank": 16,
    "team_name": "金沢大学",
    "team_short_name": "金沢",
    "runner_name": "七尾",
    "total_distance_km": 266.1,
    "latitude": 34.69403978204452,
    "longitude": 137.5811328509731,
    "is_shadow_confederation": false
  },
  {
    "rank": 17,
    "team_name": "東北大学",
    "team_short_name": "東北",
    "runner_name": "山形（山形）",
    "total_distance_km": 207.4,
    "latitude": 34.8383757533453,
    "longitude": 138.12099556098374,
    "is_shadow_confederation": false
  },
  {
    "rank": 18,
    "team_name": "学連選抜",
    "team_short_name": "学連",
    "runner_name": "新潟",
    "total_distance_km": 112.6,
    "latitude": 35.13626136329264,
    "longitude": 138.95446535238824,
    "is_shadow_confederation": false
  },
  {
    "rank": null,
    "team_name": "区間記録連合",
    "team_short_name": "区間記録",
    "runner_name": "桐生",
    "total_distance_km": 535.4,
    "latitude": 34.69737602190695,
    "longitude": 135.5101469058535,
    "is_shadow_confederation": true
  }
]