[
  {
    "rank": 1,
    "team_name": "琉球大学",
    "team_short_name": "琉球",
    "runner_name": "那覇",
    "total_distance_km": 729.9,
    "latitude": 34.57444495921921,
    "longitude": 133.6988672629938,
    "is_shadow_confederation": false
  },
  {
    "rank": 2,
    "team_name": "名古屋大学",
    "team_short_name": "名大",
    "runner_name": "名古屋",
    "total_distance_km": 720.8,
    "latitude": 34.611332221330144,
    "longitude": 133.7811488674004,
    "is_shadow_confederation": false
  },
  {
    "rank": 3,
    "team_name": "四国大学",
    "team_short_name": "四国",
    "runner_name": "新居浜",
    "total_distance_km": 718.9,
    "latitude": 34.62383194913674,
    "longitude": 133.79411936940267,
    "is_shadow_confederation": false
  },
  {
    "rank": 4,
    "team_name": "熊本学園大学",
    "team_short_name": "熊学",
    "runner_name": "犬飼",
    "total_distance_km": 714.1,
    "latitude": 34.644019341718504,
    "longitude": 133.84000466592073,
    "is_shadow_confederation": false
  },
  {
    "rank": 5,
    "team_name": "福岡大学",
    "team_short_name": "福岡",
    "runner_name": "口之津",
    "total_distance_km": 713.8,
    "latitude": 34.644992243362665,
    "longitude": 133.84305766181916,
    "is_shadow_confederation": false
  },
  {
    "rank": 6,
    "team_name": "関西大学",
    "team_short_name": "関大",
    "runner_name": "八尾（大阪）",
    "total_distance_km": 713.0,
    "latitude": 34.646080101164635,
    "longitude": 133.85155426917038,
    "is_shadow_confederation": false
  },
  {
    "rank": 7,
    "team_name": "広島経済大学",
    "team_short_name": "広経",
    "runner_name": "福山",
    "total_distance_km": 712.0,
    "latitude": 34.64470482006851,
    "longitude": 133.86158611847057,
    "is_shadow_confederation": false
  },
  {
    "rank": 8,
    "team_name": "鹿児島大学",
    "team_short_name": "鹿大",
    "runner_name": "鹿児島",
    "total_distance_km": 711.3,
    "latitude": 34.6460553237727,
    "longitude": 133.8686303563644,
    "is_shadow_confederation": false
  },
  {
    "rank": 9,
    "team_name": "立命館大学",
    "team_short_name": "立命",
    "runner_name": "長浜（滋賀）",
    "total_distance_km": 707.3,
    "latitude": 34.656119342230106,
    "longitude": 133.90994833560282,
    "is_shadow_confederation": false
  },
  {
    "rank": 10,
    "team_name": "三重大学",
    "team_short_name": "三重",
    "runner_name": "津",
    "total_distance_km": 703.2,
    "latitude": 34.667039031912886,
    "longitude": 133.9469378684249,
    "is_shadow_confederation": false
  },
  {
    "rank": 11,
    "team_name": "山梨学院大学",
    "team_short_name": "山学",
    "runner_name": "三島",
    "total_distance_km": 700.2,
    "latitude": 34.67553307242825,
    "longitude": 133.97694227116455,
    "is_shadow_confederation": false
  },
  {
    "rank": 12,
    "team_name": "日本大学",
    "team_short_name": "日大",
    "runner_name": "練馬",
    "total_distance_km": 693.3,
    "latitude": 34.70339738819851,
    "longitude": 134.04267244129554,
    "is_shadow_confederation": false
  },
  {
    "rank": 13,
    "team_name": "鳥取大学",
    "team_short_name": "鳥取",
    "runner_name": "米子",
    "total_distance_km": 685.9,
    "latitude": 34.72678390286541,
    "longitude": 134.1110215279729,
    "is_shadow_confederation": false
  },
  {
    "rank": 14,
    "team_name": "上武大学",
    "team_short_name": "上武",
    "runner_name": "小山",
    "total_distance_km": 683.7,
    "latitude": 34.732570558937006,
    "longitude": 134.13396041053093,
    "is_shadow_confederation": false
  },
  {
    "rank": 15,
    "team_name": "金沢大学",
    "team_short_name": "金沢",
    "runner_name": "敦賀",
    "total_distance_km": 680.5,
    "latitude": 34.740468887201985,
    "longitude": 134.16735906912717,
    "is_shadow_confederation": false
  },
  {
    "rank": 16,
    "team_name": "福島大学",
    "team_short_name": "福島",
    "runner_name": "寺泊",
    "total_distance_km": 660.7,
    "latitude": 34.84335998260426,
    "longitude": 134.32804464891507,
    "is_shadow_confederation": false
  },
  {
    "rank": 17,
    "team_name": "学連選抜",
    "team_short_name": "学連",
    "runner_name": "多度津",
    "total_distance_km": 655.2,
    "latitude": 34.82790766577671,
    "longitude": 134.38104350839964,
    "is_shadow_confederation": false
  },
  {
    "rank": 18,
    "team_name": "東北大学",
    "team_short_name": "東北",
    "runner_name": "丸森",
    "total_distance_km": 606.3,
    "latitude": 34.752575537247324,
    "longitude": 134.85384802451392,
    "is_shadow_confederation": false
  },
  {
    "rank": null,
    "team_name": "区間記録連合",
    "team_short_name": "区間記録",
    "runner_name": "新居浜",
    "total_distance_km": 755.2,
    "latitude": 34.5066058962824,
    "longitude": 133.46126153236244,
    "is_shadow_confederation": true
  }
]