[
  {
    "rank": 1,
    "team_name": "琉球大学",
    "team_short_name": "琉球",
    "runner_name": "波照間",
    "total_distance_km": 518.0,
    "latitude": 34.79971979076522,
    "longitude": 135.6292527227432,
    "is_shadow_confederation": false
  },
  {
    "rank": 2,
    "team_name": "熊本学園大学",
    "team_short_name": "熊学",
    "runner_name": "熊本",
    "total_distance_km": 494.7,
    "latitude": 34.96400493446509,
    "longitude": 135.74592018370188,
    "is_shadow_confederation": false
  },
  {
    "rank": 3,
    "team_name": "福岡大学",
    "team_short_name": "福岡",
    "runner_name": "前原",
    "total_distance_km": 478.6,
    "latitude": 34.9940036336349,
    "longitude": 135.85356699136605,
    "is_shadow_confederation": false
  },
  {
    "rank": 4,
    "team_name": "立命館大学",
    "team_short_name": "立命",
    "runner_name": "舞鶴",
    "total_distance_km": 473.9,
    "latitude": 34.987174592982576,
    "longitude": 135.8881186205247,
    "is_shadow_confederation": false
  },
  {
    "rank": 5,
    "team_name": "鹿児島大学",
    "team_short_name": "鹿大",
    "runner_name": "西都",
    "total_distance_km": 472.0,
    "latitude": 34.97790809737398,
    "longitude": 135.9036024547153,
    "is_shadow_confederation": false
  },
  {
    "rank": 6,
    "team_name": "関西大学",
    "team_short_name": "関大",
    "runner_name": "枚方",
    "total_distance_km": 471.1,
    "latitude": 34.97835072449947,
    "longitude": 135.91344403990553,
    "is_shadow_confederation": false
  },
  {
    "rank": 7,
    "team_name": "名古屋大学",
    "team_short_name": "名大",
    "runner_name": "多治見",
    "total_distance_km": 471.0,
    "latitude": 34.97839990529119,
    "longitude": 135.91453754937112,
    "is_shadow_confederation": false
  },
  {
    "rank": 8,
    "team_name": "広島経済大学",
    "team_short_name": "広経",
    "runner_name": "高梁",
    "total_distance_km": 468.4,
    "latitude": 34.99187191789432,
    "longitude": 135.93757386138395,
    "is_shadow_confederation": false
  },
  {
    "rank": 9,
    "team_name": "四国大学",
    "team_short_name": "四国",
    "runner_name": "大洲",
    "total_distance_km": 467.7,
    "latitude": 34.996199654262846,
    "longitude": 135.94315214298442,
    "is_shadow_confederation": false
  },
  {
    "rank": 10,
    "team_name": "鳥取大学",
    "team_short_name": "鳥取",
    "runner_name": "境",
    "total_distance_km": 465.4,
    "latitude": 35.01107625514377,
    "longitude": 135.96060480990212,
    "is_shadow_confederation": false
  },
  {
    "rank": 11,
    "team_name": "上武大学",
    "team_short_name": "上武",
    "runner_name": "桐生",
    "total_distance_km": 460.1,
    "latitude": 35.030713152625545,
    "longitude": 136.01133986865722,
    "is_shadow_confederation": false
  },
  {
    "rank": 12,
    "team_name": "三重大学",
    "team_short_name": "三重",
    "runner_name": "奈良",
    "total_distance_km": 457.8,
    "latitude": 35.026525352774904,
    "longitude": 136.0351668756971,
    "is_shadow_confederation": false
  },
  {
    "rank": 13,
    "team_name": "山梨学院大学",
    "team_short_name": "山学",
    "runner_name": "甲府",
    "total_distance_km": 457.4,
    "latitude": 35.02509095600325,
    "longitude": 136.03918819260622,
    "is_shadow_confederation": false
  },
  {
    "rank": 14,
    "team_name": "金沢大学",
    "team_short_name": "金沢",
    "runner_name": "福井",
    "total_distance_km": 456.7,
    "latitude": 35.02258076165283,
    "longitude": 136.04622549719716,
    "is_shadow_confederation": false
  },
  {
    "rank": 15,
    "team_name": "日本大学",
    "team_short_name": "日大",
    "runner_name": "牛久",
    "total_distance_km": 450.4,
    "latitude": 34.99133045910602,
    "longitude": 136.10367868883694,
    "is_shadow_confederation": false
  },
  {
    "rank": 16,
    "team_name": "福島大学",
    "team_short_name": "福島",
    "runner_name": "福島",
    "total_distance_km": 426.7,
    "latitude": 34.90739705720286,
    "longitude": 136.33003090646957,
    "is_shadow_confederation": false
  },
  {
    "rank": 17,
    "team_name": "東北大学",
    "team_short_name": "東北",
    "runner_name": "大館",
    "total_distance_km": 419.3,
    "latitude": 34.867143420227656,
    "longitude": 136.37245407251174,
    "is_shadow_confederation": false
  },
  {
    "rank": 18,
    "team_name": "学連選抜",
    "team_short_name": "学連",
    "runner_name": "上",
    "total_distance_km": 404.1,
    "latitude": 34.87699201024211,
    "longitude": 136.50667409143793,
    "is_shadow_confederation": false
  }
]