[
  {
    "rank": 1,
    "team_name": "名古屋大学",
    "team_short_name": "名大",
    "runner_name": "多治見",
    "total_distance_km": 502.4,
    "latitude": 34.89461772778304,
    "longitude": 135.74389089190618,
    "is_shadow_confederation": false
  },
  {
    "rank": 2,
    "team_name": "四国大学",
    "team_short_name": "四国",
    "runner_name": "大洲",
    "total_distance_km": 499.6,
    "latitude": 34.91984991110146,
    "longitude": 135.74460847107764,
    "is_shadow_confederation": false
  },
  {
    "rank": 3,
    "team_name": "福岡大学",
    "team_short_name": "福岡",
    "runner_name": "前原",
    "total_distance_km": 498.2,
    "latitude": 34.93246600276067,
    "longitude": 135.74496726066337,
    "is_shadow_confederation": false
  },
  {
    "rank": 4,
    "team_name": "琉球大学",
    "team_short_name": "琉球",
    "runner_name": "波照間",
    "total_distance_km": 497.5,
    "latitude": 34.9387737899578,
    "longitude": 135.74515780834753,
    "is_shadow_confederation": false
  },
  {
    "rank": 5,
    "team_name": "熊本学園大学",
    "team_short_name": "熊学",
    "runner_name": "熊本",
    "total_distance_km": 496.7,
    "latitude": 34.945982688388455,
    "longitude": 135.74537562987734,
    "is_shadow_confederation": false
  },
  {
    "rank": 6,
    "team_name": "立命館大学",
    "team_short_name": "立命",
    "runner_name": "舞鶴",
    "total_distance_km": 492.0,
    "latitude": 34.982307187632934,
    "longitude": 135.75380907179996,
    "is_shadow_confederation": false
  },
  {
    "rank": 7,
    "team_name": "関西大学",
    "team_short_name": "関大",
    "runner_name": "枚方",
    "total_distance_km": 489.9,
    "latitude": 34.99598623739234,
    "longitude": 135.7585713336431,
    "is_shadow_confederation": false
  },
  {
    "rank": 8,
    "team_name": "広島経済大学",
    "team_short_name": "広経",
    "runner_name": "高梁",
    "total_distance_km": 487.9,
    "latitude": 35.00711423197711,
    "longitude": 135.76909423772,
    "is_shadow_confederation": false
  },
  {
    "rank": 9,
    "team_name": "日本大学",
    "team_short_name": "日大",
    "runner_name": "牛久",
    "total_distance_km": 486.5,
    "latitude": 35.00935125757058,
    "longitude": 135.78240177802377,
    "is_shadow_confederation": false
  },
  {
    "rank": 10,
    "team_name": "鳥取大学",
    "team_short_name": "鳥取",
    "runner_name": "境",
    "total_distance_km": 484.8,
    "latitude": 35.000764546036265,
    "longitude": 135.79330051044624,
    "is_shadow_confederation": false
  },
  {
    "rank": 11,
    "team_name": "鹿児島大学",
    "team_short_name": "鹿大",
    "runner_name": "西都",
    "total_distance_km": 483.1,
    "latitude": 34.992003285954404,
    "longitude": 135.8075763817124,
    "is_shadow_confederation": false
  },
  {
    "rank": 12,
    "team_name": "三重大学",
    "team_short_name": "三重",
    "runner_name": "奈良",
    "total_distance_km": 482.5,
    "latitude": 34.989815490077184,
    "longitude": 135.8130257149891,
    "is_shadow_confederation": false
  },
  {
    "rank": 13,
    "team_name": "山梨学院大学",
    "team_short_name": "山学",
    "runner_name": "甲府",
    "total_distance_km": 478.8,
    "latitude": 34.993744745391304,
    "longitude": 135.85160606427752,
    "is_shadow_confederation": false
  },
  {
    "rank": 14,
    "team_name": "上武大学",
    "team_short_name": "上武",
    "runner_name": "桐生",
    "total_distance_km": 475.7,
    "latitude": 35.00029867293214,
    "longitude": 135.8774276225255,
    "is_shadow_confederation": false
  },
  {
    "rank": 15,
    "team_name": "金沢大学",
    "team_short_name": "金沢",
    "runner_name": "福井",
    "total_distance_km": 472.9,
    "latitude": 34.98096076136258,
    "longitude": 135.89469701190578,
    "is_shadow_confederation": false
  },
  {
    "rank": 16,
    "team_name": "福島大学",
    "team_short_name": "福島",
    "runner_name": "福島",
    "total_distance_km": 460.9,
    "latitude": 35.02958556875684,
    "longitude": 136.00268099667974,
    "is_shadow_confederation": false
  },
  {
    "rank": 17,
    "team_name": "学連選抜",
    "team_short_name": "学連",
    "runner_name": "久世",
    "total_distance_km": 437.9,
    "latitude": 34.95233654708854,
    "longitude": 136.22598978493403,
    "is_shadow_confederation": false
  },
  {
    "rank": 18,
    "team_name": "東北大学",
    "team_short_name": "東北",
    "runner_name": "大館",
    "total_distance_km": 415.1,
    "latitude": 34.85182461648117,
    "longitude": 136.40659449345085,
    "is_shadow_confederation": false
  },
  {
    "rank": null,
    "team_name": "区間記録連合",
    "team_short_name": "区間記録",
    "runner_name": "桐生",
    "total_distance_km": 528.8,
    "latitude": 34.728878855849565,
    "longitude": 135.55151069425492,
    "is_shadow_confederation": true
  }
]