[
  {
    "rank": 1,
    "team_name": "琉球大学",
    "team_short_name": "琉球",
    "runner_name": "石垣島",
    "total_distance_km": 1020.1,
    "latitude": 34.04629702398086,
    "longitude": 131.2069186741683,
    "is_shadow_confederation": false
  },
  {
    "rank": 2,
    "team_name": "鹿児島大学",
    "team_short_name": "鹿大",
    "runner_name": "指宿",
    "total_distance_km": 984.1,
    "latitude": 34.04529520337095,
    "longitude": 131.51948404136525,
    "is_shadow_confederation": false
  },
  {
    "rank": 3,
    "team_name": "福岡大学",
    "team_short_name": "福岡",
    "runner_name": "太宰府",
    "total_distance_km": 983.2,
    "latitude": 34.047428113031756,
    "longitude": 131.528666174572,
    "is_shadow_confederation": false
  },
  {
    "rank": 4,
    "team_name": "名古屋大学",
    "team_short_name": "名大",
    "runner_name": "岐阜",
    "total_distance_km": 982.0,
    "latitude": 34.05050756709021,
    "longitude": 131.5410803996835,
    "is_shadow_confederation": false
  },
  {
    "rank": 5,
    "team_name": "熊本学園大学",
    "team_short_name": "熊学",
    "runner_name": "日田",
    "total_distance_km": 972.5,
    "latitude": 34.046125507082486,
    "longitude": 131.63196996767337,
    "is_shadow_confederation": false
  },
  {
    "rank": 6,
    "team_name": "関西大学",
    "team_short_name": "関大",
    "runner_name": "大阪",
    "total_distance_km": 970.8,
    "latitude": 34.05331016445719,
    "longitude": 131.6481064433122,
    "is_shadow_confederation": false
  },
  {
    "rank": 7,
    "team_name": "四国大学",
    "team_short_name": "四国",
    "runner_name": "中村",
    "total_distance_km": 969.3,
    "latitude": 34.0614735783886,
    "longitude": 131.6591400295637,
    "is_shadow_confederation": false
  },
  {
    "rank": 8,
    "team_name": "広島経済大学",
    "team_short_name": "広経",
    "runner_name": "滝宮",
    "total_distance_km": 963.3,
    "latitude": 34.0783281173287,
    "longitude": 131.70774381704805,
    "is_shadow_confederation": false
  },
  {
    "rank": 9,
    "team_name": "立命館大学",
    "team_short_name": "立命",
    "runner_name": "園部",
    "total_distance_km": 959.7,
    "latitude": 34.07255793128716,
    "longitude": 131.74254766742416,
    "is_shadow_confederation": false
  },
  {
    "rank": 10,
    "team_name": "日本大学",
    "team_short_name": "日大",
    "runner_name": "海老名",
    "total_distance_km": 951.9,
    "latitude": 34.048440251998095,
    "longitude": 131.81242135017416,
    "is_shadow_confederation": false
  },
  {
    "rank": 11,
    "team_name": "三重大学",
    "team_short_name": "三重",
    "runner_name": "上野",
    "total_distance_km": 949.7,
    "latitude": 34.03608911443408,
    "longitude": 131.8296719170781,
    "is_shadow_confederation": false
  },
  {
    "rank": 12,
    "team_name": "山梨学院大学",
    "team_short_name": "山学",
    "runner_name": "佐久間",
    "total_distance_km": 944.7,
    "latitude": 34.03487312658288,
    "longitude": 131.87893416925917,
    "is_shadow_confederation": false
  },
  {
    "rank": 13,
    "team_name": "鳥取大学",
    "team_short_name": "鳥取",
    "runner_name": "津和野",
    "total_distance_km": 937.3,
    "latitude": 34.04180257918567,
    "longitude": 131.95232616835258,
    "is_shadow_confederation": false
  },
  {
    "rank": 14,
    "team_name": "上武大学",
    "team_short_name": "上武",
    "runner_name": "館林",
    "total_distance_km": 934.6,
    "latitude": 34.05743883811205,
    "longitude": 131.9728936888688,
    "is_shadow_confederation": false
  },
  {
    "rank": 15,
    "team_name": "金沢大学",
    "team_short_name": "金沢",
    "runner_name": "大野（福井）",
    "total_distance_km": 920.7,
    "latitude": 34.10368772853536,
    "longitude": 132.09785335873855,
    "is_shadow_confederation": false
  },
  {
    "rank": 16,
    "team_name": "学連選抜",
    "team_short_name": "学連",
    "runner_name": "恵那",
    "total_distance_km": 906.6,
    "latitude": 34.17088750355506,
    "longitude": 132.21167014687634,
    "is_shadow_confederation": false
  },
  {
    "rank": 17,
    "team_name": "福島大学",
    "team_short_name": "福島",
    "runner_name": "新津",
    "total_distance_km": 900.0,
    "latitude": 34.21852651993932,
    "longitude": 132.22498838164674,
    "is_shadow_confederation": false
  },
  {
    "rank": 18,
    "team_name": "東北大学",
    "team_short_name": "東北",
    "runner_name": "東根",
    "total_distance_km": 832.4,
    "latitude": 34.402939573258315,
    "longitude": 132.75289851530883,
    "is_shadow_confederation": false
  },
  {
    "rank": null,
    "team_name": "区間記録連合",
    "team_short_name": "区間記録",
    "runner_name": "鳩山",
    "total_distance_km": 1034.7,
    "latitude": 34.04780755503983,
    "longitude": 131.0607583357333,
    "is_shadow_confederation": true
  }
]