[
  {
    "rank": 1,
    "team_name": "名古屋大学",
    "team_short_name": "名大",
    "runner_name": "大垣",
    "total_distance_km": 280.5,
    "latitude": 34.72057675168402,
    "longitude": 137.45678051452416
  },
  {
    "rank": 2,
    "team_name": "関西大学",
    "team_short_name": "関大",
    "runner_name": "上郡",
    "total_distance_km": 279.9,
    "latitude": 34.71898112513981,
    "longitude": 137.46284668072965
  },
  {
    "rank": 3,
    "team_name": "立命館大学",
    "team_short_name": "立命",
    "runner_name": "京田辺",
    "total_distance_km": 278.4,
    "latitude": 34.71007637598309,
    "longitude": 137.47502797977398
  },
  {
    "rank": 4,
    "team_name": "四国大学",
    "team_short_name": "四国",
    "runner_name": "御荘",
    "total_distance_km": 276.1,
    "latitude": 34.69513522407806,
    "longitude": 137.49116529227575
  },
  {
    "rank": 5,
    "team_name": "福岡大学",
    "team_short_name": "福岡",
    "runner_name": "黒木",
    "total_distance_km": 274.9,
    "latitude": 34.68820375759236,
    "longitude": 137.49892047042349
  },
  {
    "rank": 6,
    "team_name": "熊本学園大学",
    "team_short_name": "熊学",
    "runner_name": "八代",
    "total_distance_km": 274.8,
    "latitude": 34.6873110681773,
    "longitude": 137.499072073231
  },
  {
    "rank": 7,
    "team_name": "広島経済大学",
    "team_short_name": "広経",
    "runner_name": "府中（広島）",
    "total_distance_km": 273.4,
    "latitude": 34.67979782048238,
    "longitude": 137.50696355775983
  },
  {
    "rank": 8,
    "team_name": "鳥取大学",
    "team_short_name": "鳥取",
    "runner_name": "広瀬",
    "total_distance_km": 272.9,
    "latitude": 34.67956086636389,
    "longitude": 137.51225466439516
  },
  {
    "rank": 9,
    "team_name": "金沢大学",
    "team_short_name": "金沢",
    "runner_name": "七尾",
    "total_distance_km": 271.2,
    "latitude": 34.68040723838245,
    "longitude": 137.53050206174058
  },
  {
    "rank": 10,
    "team_name": "三重大学",
    "team_short_name": "三重",
    "runner_name": "小俣",
    "total_distance_km": 270.6,
    "latitude": 34.68122777371463,
    "longitude": 137.5369732116332
  },
  {
    "rank": 11,
    "team_name": "上武大学",
    "team_short_name": "上武",
    "runner_name": "熊谷",
    "total_distance_km": 270.1,
    "latitude": 34.682276682344884,
    "longitude": 137.5422518904783
  },
  {
    "rank": 12,
    "team_name": "日本大学",
    "team_short_name": "日大",
    "runner_name": "下館",
    "total_distance_km": 269.9,
    "latitude": 34.68292018651394,
    "longitude": 137.54429061556996
  },
  {
    "rank": 13,
    "team_name": "鹿児島大学",
    "team_short_name": "鹿大",
    "runner_name": "加久藤",
    "total_distance_km": 264.3,
    "latitude": 34.69086545212021,
    "longitude": 137.59995394847357
  },
  {
    "rank": 14,
    "team_name": "琉球大学",
    "team_short_name": "琉球",
    "runner_name": "盛山",
    "total_distance_km": 262.3,
    "latitude": 34.68379302650426,
    "longitude": 137.61989185471447
  },
  {
    "rank": 15,
    "team_name": "山梨学院大学",
    "team_short_name": "山学",
    "runner_name": "大月",
    "total_distance_km": 259.7,
    "latitude": 34.68342727207572,
    "longitude": 137.64813838441918
  },
  {
    "rank": 16,
    "team_name": "福島大学",
    "team_short_name": "福島",
    "runner_name": "津川",
    "total_distance_km": 242.1,
    "latitude": 34.7268963197874,
    "longitude": 137.81439046635504
  },
  {
    "rank": 17,
    "team_name": "学連選抜",
    "team_short_name": "学連",
    "runner_name": "新潟",
    "total_distance_km": 209.7,
    "latitude": 34.82082874589496,
    "longitude": 138.1188460566394
  },
  {
    "rank": 18,
    "team_name": "東北大学",
    "team_short_name": "東北",
    "runner_name": "山形（山形）",
    "total_distance_km": 194.9,
    "latitude": 34.8807881153742,
    "longitude": 138.2378170532573
  }
]