[
  {
    "rank": 1,
    "team_name": "琉球大学",
    "team_short_name": "琉球",
    "runner_name": "大原",
    "total_distance_km": 938.2,
    "latitude": 34.036263848947236,
    "longitude": 131.9455450604334,
    "is_shadow_confederation": false
  },
  {
    "rank": 2,
    "team_name": "鹿児島大学",
    "team_short_name": "鹿大",
    "runner_name": "さつま柏原",
    "total_distance_km": 758.1,
    "latitude": 34.50072651780647,
    "longitude": 133.4337581579792,
    "is_shadow_confederation": false
  },
  {
    "rank": 3,
    "team_name": "熊本学園大学",
    "team_short_name": "熊学",
    "runner_name": "犬飼",
    "total_distance_km": 736.3,
    "latitude": 34.541025742945415,
    "longitude": 133.644816096256,
    "is_shadow_confederation": false
  },
  {
    "rank": 4,
    "team_name": "福岡大学",
    "team_short_name": "福岡",
    "runner_name": "口之津",
    "total_distance_km": 702.4,
    "latitude": 34.67033842265699,
    "longitude": 133.9545943225582,
    "is_shadow_confederation": false
  },
  {
    "rank": 5,
    "team_name": "名古屋大学",
    "team_short_name": "名大",
    "runner_name": "名古屋",
    "total_distance_km": 670.0,
    "latitude": 34.78909325632914,
    "longitude": 134.26168166699526,
    "is_shadow_confederation": false
  },
  {
    "rank": 6,
    "team_name": "四国大学",
    "team_short_name": "四国",
    "runner_name": "新居浜",
    "total_distance_km": 668.6,
    "latitude": 34.79866184437272,
    "longitude": 134.26963235681401,
    "is_shadow_confederation": false
  },
  {
    "rank": 7,
    "team_name": "日本大学",
    "team_short_name": "日大",
    "runner_name": "八王子",
    "total_distance_km": 645.5,
    "latitude": 34.81836565902159,
    "longitude": 134.4796152042026,
    "is_shadow_confederation": false
  },
  {
    "rank": 8,
    "team_name": "上武大学",
    "team_short_name": "上武",
    "runner_name": "伊勢崎",
    "total_distance_km": 643.1,
    "latitude": 34.822163377302765,
    "longitude": 134.50492622182276,
    "is_shadow_confederation": false
  },
  {
    "rank": 9,
    "team_name": "広島経済大学",
    "team_short_name": "広経",
    "runner_name": "高松（香川）",
    "total_distance_km": 631.1,
    "latitude": 34.840144372522715,
    "longitude": 134.62122552571614,
    "is_shadow_confederation": false
  },
  {
    "rank": 10,
    "team_name": "三重大学",
    "team_short_name": "三重",
    "runner_name": "新宮",
    "total_distance_km": 626.3,
    "latitude": 34.838248709650564,
    "longitude": 134.6701044494612,
    "is_shadow_confederation": false
  },
  {
    "rank": 11,
    "team_name": "関西大学",
    "team_short_name": "関大",
    "runner_name": "豊中",
    "total_distance_km": 622.4,
    "latitude": 34.82862906388855,
    "longitude": 134.71091857632192,
    "is_shadow_confederation": false
  },
  {
    "rank": 12,
    "team_name": "鳥取大学",
    "team_short_name": "鳥取",
    "runner_name": "松江",
    "total_distance_km": 618.6,
    "latitude": 34.81272650392213,
    "longitude": 134.74682874505675,
    "is_shadow_confederation": false
  },
  {
    "rank": 13,
    "team_name": "山梨学院大学",
    "team_short_name": "山学",
    "runner_name": "静岡",
    "total_distance_km": 615.8,
    "latitude": 34.79579015767301,
    "longitude": 134.76945233476889,
    "is_shadow_confederation": false
  },
  {
    "rank": 14,
    "team_name": "立命館大学",
    "team_short_name": "立命",
    "runner_name": "彦根",
    "total_distance_km": 587.3,
    "latitude": 34.6462652061795,
    "longitude": 135.00712000590858,
    "is_shadow_confederation": false
  },
  {
    "rank": 15,
    "team_name": "福島大学",
    "team_short_name": "福島",
    "runner_name": "浪江",
    "total_distance_km": 557.0,
    "latitude": 34.72881193494186,
    "longitude": 135.2937671431459,
    "is_shadow_confederation": false
  },
  {
    "rank": 16,
    "team_name": "金沢大学",
    "team_short_name": "金沢",
    "runner_name": "福井",
    "total_distance_km": 536.2,
    "latitude": 34.697947851695425,
    "longitude": 135.50144293786332,
    "is_shadow_confederation": false
  },
  {
    "rank": 17,
    "team_name": "東北大学",
    "team_short_name": "東北",
    "runner_name": "一関",
    "total_distance_km": 447.4,
    "latitude": 34.985145403830316,
    "longitude": 136.13261504637845,
    "is_shadow_confederation": false
  },
  {
    "rank": 18,
    "team_name": "学連選抜",
    "team_short_name": "学連",
    "runner_name": "上",
    "total_distance_km": 388.6,
    "latitude": 34.962457150995405,
    "longitude": 136.62097307383422,
    "is_shadow_confederation": false
  },
  {
    "rank": null,
    "team_name": "区間記録連合",
    "team_short_name": "区間記録",
    "runner_name": "豊中",
    "total_distance_km": 965.4,
    "latitude": 34.072517874105344,
    "longitude": 131.69271502050432,
    "is_shadow_confederation": true
  }
]