[
  {
    "rank": 1,
    "team_name": "名古屋大学",
    "team_short_name": "名大",
    "runner_name": "豊田（愛知）",
    "total_distance_km": 641.4,
    "latitude": 34.826140469297954,
    "longitude": 134.5225656545914,
    "is_shadow_confederation": false
  },
  {
    "rank": 2,
    "team_name": "四国大学",
    "team_short_name": "四国",
    "runner_name": "徳島",
    "total_distance_km": 633.7,
    "latitude": 34.829417463349714,
    "longitude": 134.60413183726618,
    "is_shadow_confederation": false
  },
  {
    "rank": 3,
    "team_name": "琉球大学",
    "team_short_name": "琉球",
    "runner_name": "久米島",
    "total_distance_km": 632.4,
    "latitude": 34.830002725928516,
    "longitude": 134.6179813724093,
    "is_shadow_confederation": false
  },
  {
    "rank": 4,
    "team_name": "立命館大学",
    "team_short_name": "立命",
    "runner_name": "彦根",
    "total_distance_km": 627.6,
    "latitude": 34.84318573278281,
    "longitude": 134.65730843886487,
    "is_shadow_confederation": false
  },
  {
    "rank": 5,
    "team_name": "関西大学",
    "team_short_name": "関大",
    "runner_name": "豊中",
    "total_distance_km": 626.2,
    "latitude": 34.837895257616154,
    "longitude": 134.67111018313486,
    "is_shadow_confederation": false
  },
  {
    "rank": 6,
    "team_name": "熊本学園大学",
    "team_short_name": "熊学",
    "runner_name": "大分",
    "total_distance_km": 625.7,
    "latitude": 34.836127997444066,
    "longitude": 134.67613885150317,
    "is_shadow_confederation": false
  },
  {
    "rank": 7,
    "team_name": "福岡大学",
    "team_short_name": "福岡",
    "runner_name": "博多",
    "total_distance_km": 625.3,
    "latitude": 34.83526013990299,
    "longitude": 134.68037280104218,
    "is_shadow_confederation": false
  },
  {
    "rank": 8,
    "team_name": "広島経済大学",
    "team_short_name": "広経",
    "runner_name": "高松（香川）",
    "total_distance_km": 623.7,
    "latitude": 34.832211697619414,
    "longitude": 134.69746807206766,
    "is_shadow_confederation": false
  },
  {
    "rank": 9,
    "team_name": "三重大学",
    "team_short_name": "三重",
    "runner_name": "新宮",
    "total_distance_km": 620.0,
    "latitude": 34.82075978579958,
    "longitude": 134.73527082731,
    "is_shadow_confederation": false
  },
  {
    "rank": 10,
    "team_name": "山梨学院大学",
    "team_short_name": "山学",
    "runner_name": "静岡",
    "total_distance_km": 617.6,
    "latitude": 34.80641345964694,
    "longitude": 134.75459187698632,
    "is_shadow_confederation": false
  },
  {
    "rank": 11,
    "team_name": "鹿児島大学",
    "team_short_name": "鹿大",
    "runner_name": "笠利",
    "total_distance_km": 617.0,
    "latitude": 34.80286490344372,
    "longitude": 134.75954006292707,
    "is_shadow_confederation": false
  },
  {
    "rank": 12,
    "team_name": "日本大学",
    "team_short_name": "日大",
    "runner_name": "八王子",
    "total_distance_km": 614.5,
    "latitude": 34.79497886641301,
    "longitude": 134.78350584380735,
    "is_shadow_confederation": false
  },
  {
    "rank": 13,
    "team_name": "上武大学",
    "team_short_name": "上武",
    "runner_name": "伊勢崎",
    "total_distance_km": 606.1,
    "latitude": 34.75141672181788,
    "longitude": 134.85552129046877,
    "is_shadow_confederation": false
  },
  {
    "rank": 14,
    "team_name": "鳥取大学",
    "team_short_name": "鳥取",
    "runner_name": "松江",
    "total_distance_km": 604.7,
    "latitude": 34.74303446262772,
    "longitude": 134.86693410398297,
    "is_shadow_confederation": false
  },
  {
    "rank": 15,
    "team_name": "金沢大学",
    "team_short_name": "金沢",
    "runner_name": "富山",
    "total_distance_km": 599.6,
    "latitude": 34.70919787700152,
    "longitude": 134.90336819775084,
    "is_shadow_confederation": false
  },
  {
    "rank": 16,
    "team_name": "福島大学",
    "team_short_name": "福島",
    "runner_name": "浪江",
    "total_distance_km": 586.6,
    "latitude": 34.644377313969784,
    "longitude": 135.0143812560021,
    "is_shadow_confederation": false
  },
  {
    "rank": 17,
    "team_name": "学連選抜",
    "team_short_name": "学連",
    "runner_name": "多度津",
    "total_distance_km": 568.0,
    "latitude": 34.6888115252775,
    "longitude": 135.18612809232448,
    "is_shadow_confederation": false
  },
  {
    "rank": 18,
    "team_name": "東北大学",
    "team_short_name": "東北",
    "runner_name": "一関",
    "total_distance_km": 533.0,
    "latitude": 34.699216593855255,
    "longitude": 135.53585881161868,
    "is_shadow_confederation": false
  },
  {
    "rank": null,
    "team_name": "区間記録連合",
    "team_short_name": "区間記録",
    "runner_name": "勝沼",
    "total_distance_km": 641.4,
    "latitude": 34.826140469297954,
    "longitude": 134.5225656545914,
    "is_shadow_confederation": true
  }
]