[
  {
    "rank": 1,
    "team_name": "熊本学園大学",
    "team_short_name": "熊学",
    "runner_name": "八代",
    "total_distance_km": 269.9,
    "latitude": 34.68292018651395,
    "longitude": 137.54429061557,
    "is_shadow_confederation": false
  },
  {
    "rank": 2,
    "team_name": "琉球大学",
    "team_short_name": "琉球",
    "runner_name": "盛山",
    "total_distance_km": 266.8,
    "latitude": 34.69402180152639,
    "longitude": 137.57349318568458,
    "is_shadow_confederation": false
  },
  {
    "rank": 3,
    "team_name": "立命館大学",
    "team_short_name": "立命",
    "runner_name": "京田辺",
    "total_distance_km": 258.8,
    "latitude": 34.68478514209204,
    "longitude": 137.65782004413757,
    "is_shadow_confederation": false
  },
  {
    "rank": 4,
    "team_name": "福岡大学",
    "team_short_name": "福岡",
    "runner_name": "黒木",
    "total_distance_km": 258.2,
    "latitude": 34.685822407237424,
    "longitude": 137.66424422399047,
    "is_shadow_confederation": false
  },
  {
    "rank": 5,
    "team_name": "関西大学",
    "team_short_name": "関大",
    "runner_name": "上郡",
    "total_distance_km": 249.0,
    "latitude": 34.708846265085356,
    "longitude": 137.74773713593572,
    "is_shadow_confederation": false
  },
  {
    "rank": 5,
    "team_name": "鹿児島大学",
    "team_short_name": "鹿大",
    "runner_name": "加久藤",
    "total_distance_km": 249.0,
    "latitude": 34.708846265085356,
    "longitude": 137.74773713593572,
    "is_shadow_confederation": false
  },
  {
    "rank": 7,
    "team_name": "金沢大学",
    "team_short_name": "金沢",
    "runner_name": "七尾",
    "total_distance_km": 247.7,
    "latitude": 34.713668272002465,
    "longitude": 137.7605970130399,
    "is_shadow_confederation": false
  },
  {
    "rank": 8,
    "team_name": "三重大学",
    "team_short_name": "三重",
    "runner_name": "小俣",
    "total_distance_km": 247.5,
    "latitude": 34.71454010210235,
    "longitude": 137.76250806938455,
    "is_shadow_confederation": false
  },
  {
    "rank": 9,
    "team_name": "広島経済大学",
    "team_short_name": "広経",
    "runner_name": "府中（広島）",
    "total_distance_km": 247.1,
    "latitude": 34.71628376230212,
    "longitude": 137.76633018207392,
    "is_shadow_confederation": false
  },
  {
    "rank": 10,
    "team_name": "名古屋大学",
    "team_short_name": "名大",
    "runner_name": "大垣",
    "total_distance_km": 245.2,
    "latitude": 34.72410669754461,
    "longitude": 137.78454423470492,
    "is_shadow_confederation": false
  },
  {
    "rank": 11,
    "team_name": "鳥取大学",
    "team_short_name": "鳥取",
    "runner_name": "広瀬",
    "total_distance_km": 244.2,
    "latitude": 34.73033162470784,
    "longitude": 137.7924039584434,
    "is_shadow_confederation": false
  },
  {
    "rank": 12,
    "team_name": "四国大学",
    "team_short_name": "四国",
    "runner_name": "御荘",
    "total_distance_km": 243.6,
    "latitude": 34.73101681226142,
    "longitude": 137.7987926788025,
    "is_shadow_confederation": false
  },
  {
    "rank": 13,
    "team_name": "山梨学院大学",
    "team_short_name": "山学",
    "runner_name": "南信濃",
    "total_distance_km": 232.6,
    "latitude": 34.74529526121745,
    "longitude": 137.91070445900965,
    "is_shadow_confederation": false
  },
  {
    "rank": 14,
    "team_name": "上武大学",
    "team_short_name": "上武",
    "runner_name": "越谷",
    "total_distance_km": 225.6,
    "latitude": 34.77006597374692,
    "longitude": 137.9779027919168,
    "is_shadow_confederation": false
  },
  {
    "rank": 15,
    "team_name": "日本大学",
    "team_short_name": "日大",
    "runner_name": "古河",
    "total_distance_km": 224.8,
    "latitude": 34.77320066962879,
    "longitude": 137.98557986937152,
    "is_shadow_confederation": false
  },
  {
    "rank": 16,
    "team_name": "福島大学",
    "team_short_name": "福島",
    "runner_name": "石川",
    "total_distance_km": 215.4,
    "latitude": 34.79881540596336,
    "longitude": 138.07469296278433,
    "is_shadow_confederation": false
  },
  {
    "rank": 17,
    "team_name": "東北大学",
    "team_short_name": "東北",
    "runner_name": "山形（山形）",
    "total_distance_km": 197.7,
    "latitude": 34.866955608727224,
    "longitude": 138.21400992836445,
    "is_shadow_confederation": false
  },
  {
    "rank": 18,
    "team_name": "学連選抜",
    "team_short_name": "学連",
    "runner_name": "新潟",
    "total_distance_km": 182.4,
    "latitude": 34.94971783007889,
    "longitude": 138.33177382822666,
    "is_shadow_confederation": false
  }
]