[
  {
    "rank": 1,
    "team_name": "熊本学園大学",
    "team_short_name": "熊学",
    "runner_name": "岱明",
    "total_distance_km": 237.8,
    "latitude": 34.725064317211704,
    "longitude": 137.86033288477836,
    "is_shadow_confederation": false
  },
  {
    "rank": 2,
    "team_name": "琉球大学",
    "team_short_name": "琉球",
    "runner_name": "仲筋",
    "total_distance_km": 234.9,
    "latitude": 34.73871513851108,
    "longitude": 137.8869666563978,
    "is_shadow_confederation": false
  },
  {
    "rank": 3,
    "team_name": "福岡大学",
    "team_short_name": "福岡",
    "runner_name": "福岡",
    "total_distance_km": 229.5,
    "latitude": 34.758683396682905,
    "longitude": 137.94007364490875,
    "is_shadow_confederation": false
  },
  {
    "rank": 4,
    "team_name": "立命館大学",
    "team_short_name": "立命",
    "runner_name": "福知山",
    "total_distance_km": 227.8,
    "latitude": 34.762894967229514,
    "longitude": 137.95792525713912,
    "is_shadow_confederation": false
  },
  {
    "rank": 5,
    "team_name": "鹿児島大学",
    "team_short_name": "鹿大",
    "runner_name": "川内（鹿児島）",
    "total_distance_km": 222.7,
    "latitude": 34.77648217502154,
    "longitude": 138.00776122829672,
    "is_shadow_confederation": false
  },
  {
    "rank": 6,
    "team_name": "関西大学",
    "team_short_name": "関大",
    "runner_name": "和田山",
    "total_distance_km": 221.4,
    "latitude": 34.77864019529804,
    "longitude": 138.0216365734309,
    "is_shadow_confederation": false
  },
  {
    "rank": 7,
    "team_name": "広島経済大学",
    "team_short_name": "広経",
    "runner_name": "加計",
    "total_distance_km": 219.9,
    "latitude": 34.780764590084594,
    "longitude": 138.0370911265794,
    "is_shadow_confederation": false
  },
  {
    "rank": 8,
    "team_name": "三重大学",
    "team_short_name": "三重",
    "runner_name": "五條",
    "total_distance_km": 218.1,
    "latitude": 34.784219,
    "longitude": 138.05550832416085,
    "is_shadow_confederation": false
  },
  {
    "rank": 9,
    "team_name": "鳥取大学",
    "team_short_name": "鳥取",
    "runner_name": "鳥取",
    "total_distance_km": 216.7,
    "latitude": 34.78793985730699,
    "longitude": 138.06974664074298,
    "is_shadow_confederation": false
  },
  {
    "rank": 10,
    "team_name": "四国大学",
    "team_short_name": "四国",
    "runner_name": "大三島",
    "total_distance_km": 216.2,
    "latitude": 34.791980747097455,
    "longitude": 138.07190477196008,
    "is_shadow_confederation": false
  },
  {
    "rank": 11,
    "team_name": "金沢大学",
    "team_short_name": "金沢",
    "runner_name": "小浜",
    "total_distance_km": 215.2,
    "latitude": 34.80032099506842,
    "longitude": 138.07588711272885,
    "is_shadow_confederation": false
  },
  {
    "rank": 12,
    "team_name": "名古屋大学",
    "team_short_name": "名大",
    "runner_name": "美濃",
    "total_distance_km": 213.3,
    "latitude": 34.81428925102028,
    "longitude": 138.0852989063285,
    "is_shadow_confederation": false
  },
  {
    "rank": 13,
    "team_name": "山梨学院大学",
    "team_short_name": "山学",
    "runner_name": "南信濃",
    "total_distance_km": 202.5,
    "latitude": 34.84718595086923,
    "longitude": 138.17195018220164,
    "is_shadow_confederation": false
  },
  {
    "rank": 14,
    "team_name": "上武大学",
    "team_short_name": "上武",
    "runner_name": "越谷",
    "total_distance_km": 197.1,
    "latitude": 34.86890199263153,
    "longitude": 138.219992046147,
    "is_shadow_confederation": false
  },
  {
    "rank": 15,
    "team_name": "日本大学",
    "team_short_name": "日大",
    "runner_name": "古河",
    "total_distance_km": 193.7,
    "latitude": 34.88560505664939,
    "longitude": 138.2494749186228,
    "is_shadow_confederation": false
  },
  {
    "rank": 16,
    "team_name": "福島大学",
    "team_short_name": "福島",
    "runner_name": "石川",
    "total_distance_km": 184.4,
    "latitude": 34.93895916558075,
    "longitude": 138.3164015534706,
    "is_shadow_confederation": false
  },
  {
    "rank": 17,
    "team_name": "東北大学",
    "team_short_name": "東北",
    "runner_name": "山形（山形）",
    "total_distance_km": 165.5,
    "latitude": 35.02393990278337,
    "longitude": 138.48094549257246,
    "is_shadow_confederation": false
  },
  {
    "rank": 18,
    "team_name": "学連選抜",
    "team_short_name": "学連",
    "runner_name": "新潟",
    "total_distance_km": 152.3,
    "latitude": 35.10813509180156,
    "longitude": 138.56416873280514,
    "is_shadow_confederation": false
  }
]