[
  {
    "rank": 1,
    "team_name": "名古屋大学",
    "team_short_name": "名大",
    "runner_name": "愛西",
    "total_distance_km": 409.6,
    "latitude": 34.850309559386375,
    "longitude": 136.46156649701538,
    "is_shadow_confederation": false
  },
  {
    "rank": 2,
    "team_name": "立命館大学",
    "team_short_name": "立命",
    "runner_name": "米原",
    "total_distance_km": 400.6,
    "latitude": 34.890131091318935,
    "longitude": 136.53836763765014,
    "is_shadow_confederation": false
  },
  {
    "rank": 3,
    "team_name": "四国大学",
    "team_short_name": "四国",
    "runner_name": "松山",
    "total_distance_km": 400.4,
    "latitude": 34.890513094568,
    "longitude": 136.54044931548714,
    "is_shadow_confederation": false
  },
  {
    "rank": 4,
    "team_name": "熊本学園大学",
    "team_short_name": "熊学",
    "runner_name": "人吉",
    "total_distance_km": 397.9,
    "latitude": 34.910220049771155,
    "longitude": 136.55083741908535,
    "is_shadow_confederation": false
  },
  {
    "rank": 5,
    "team_name": "福岡大学",
    "team_short_name": "福岡",
    "runner_name": "朝倉",
    "total_distance_km": 397.5,
    "latitude": 34.912718106416456,
    "longitude": 136.55390650400778,
    "is_shadow_confederation": false
  },
  {
    "rank": 6,
    "team_name": "関西大学",
    "team_short_name": "関大",
    "runner_name": "柏原",
    "total_distance_km": 396.8,
    "latitude": 34.914673749108196,
    "longitude": 136.56076906197632,
    "is_shadow_confederation": false
  },
  {
    "rank": 7,
    "team_name": "琉球大学",
    "team_short_name": "琉球",
    "runner_name": "名護",
    "total_distance_km": 396.1,
    "latitude": 34.91432023226662,
    "longitude": 136.5684170970612,
    "is_shadow_confederation": false
  },
  {
    "rank": 8,
    "team_name": "広島経済大学",
    "team_short_name": "広経",
    "runner_name": "大竹",
    "total_distance_km": 393.9,
    "latitude": 34.92560178670631,
    "longitude": 136.5864154801478,
    "is_shadow_confederation": false
  },
  {
    "rank": 9,
    "team_name": "日本大学",
    "team_short_name": "日大",
    "runner_name": "小田原",
    "total_distance_km": 393.8,
    "latitude": 34.92645541467051,
    "longitude": 136.5867670315864,
    "is_shadow_confederation": false
  },
  {
    "rank": 9,
    "team_name": "鳥取大学",
    "team_short_name": "鳥取",
    "runner_name": "防府",
    "total_distance_km": 393.8,
    "latitude": 34.92645541467051,
    "longitude": 136.5867670315864,
    "is_shadow_confederation": false
  },
  {
    "rank": 11,
    "team_name": "山梨学院大学",
    "team_short_name": "山学",
    "runner_name": "浜松",
    "total_distance_km": 390.7,
    "latitude": 34.94790384045427,
    "longitude": 136.6066960337723,
    "is_shadow_confederation": false
  },
  {
    "rank": 12,
    "team_name": "上武大学",
    "team_short_name": "上武",
    "runner_name": "寄居",
    "total_distance_km": 390.6,
    "latitude": 34.94867288218464,
    "longitude": 136.60726705934292,
    "is_shadow_confederation": false
  },
  {
    "rank": 13,
    "team_name": "三重大学",
    "team_short_name": "三重",
    "runner_name": "風屋",
    "total_distance_km": 390.3,
    "latitude": 34.950980007375726,
    "longitude": 136.60898013605478,
    "is_shadow_confederation": false
  },
  {
    "rank": 14,
    "team_name": "鹿児島大学",
    "team_short_name": "鹿大",
    "runner_name": "西米良",
    "total_distance_km": 384.1,
    "latitude": 34.99600851749738,
    "longitude": 136.64621017688856,
    "is_shadow_confederation": false
  },
  {
    "rank": 15,
    "team_name": "金沢大学",
    "team_short_name": "金沢",
    "runner_name": "志賀",
    "total_distance_km": 382.0,
    "latitude": 35.010271506931296,
    "longitude": 136.65732193293815,
    "is_shadow_confederation": false
  },
  {
    "rank": 16,
    "team_name": "福島大学",
    "team_short_name": "福島",
    "runner_name": "長岡",
    "total_distance_km": 370.8,
    "latitude": 35.09661140035371,
    "longitude": 136.7035905149735,
    "is_shadow_confederation": false
  },
  {
    "rank": 17,
    "team_name": "学連選抜",
    "team_short_name": "学連",
    "runner_name": "上",
    "total_distance_km": 339.7,
    "latitude": 35.056263347565285,
    "longitude": 136.99323280846028,
    "is_shadow_confederation": false
  },
  {
    "rank": 18,
    "team_name": "東北大学",
    "team_short_name": "東北",
    "runner_name": "大館",
    "total_distance_km": 335.4,
    "latitude": 35.026656765780814,
    "longitude": 137.02325310221704,
    "is_shadow_confederation": false
  },
  {
    "rank": null,
    "team_name": "区間記録連合",
    "team_short_name": "区間記録",
    "runner_name": "風屋",
    "total_distance_km": 409.6,
    "latitude": 34.850309559386375,
    "longitude": 136.46156649701538,
    "is_shadow_confederation": true
  }
]