[
  {
    "rank": 1,
    "team_name": "琉球大学",
    "team_short_name": "琉球",
    "runner_name": "那覇",
    "total_distance_km": 670.3,
    "latitude": 34.78711617745963,
    "longitude": 134.25944529909367,
    "is_shadow_confederation": false
  },
  {
    "rank": 2,
    "team_name": "熊本学園大学",
    "team_short_name": "熊学",
    "runner_name": "大分",
    "total_distance_km": 615.5,
    "latitude": 34.79506907827232,
    "longitude": 134.77257924851148,
    "is_shadow_confederation": false
  },
  {
    "rank": 3,
    "team_name": "鹿児島大学",
    "team_short_name": "鹿大",
    "runner_name": "笠利",
    "total_distance_km": 607.3,
    "latitude": 34.758834525741484,
    "longitude": 134.8460154541619,
    "is_shadow_confederation": false
  },
  {
    "rank": 4,
    "team_name": "福岡大学",
    "team_short_name": "福岡",
    "runner_name": "博多",
    "total_distance_km": 604.2,
    "latitude": 34.73985456547485,
    "longitude": 134.87080357148488,
    "is_shadow_confederation": false
  },
  {
    "rank": 5,
    "team_name": "立命館大学",
    "team_short_name": "立命",
    "runner_name": "彦根",
    "total_distance_km": 594.5,
    "latitude": 34.68017367115744,
    "longitude": 134.9456711396608,
    "is_shadow_confederation": false
  },
  {
    "rank": 6,
    "team_name": "関西大学",
    "team_short_name": "関大",
    "runner_name": "豊中",
    "total_distance_km": 591.8,
    "latitude": 34.66269895285667,
    "longitude": 134.96577479051675,
    "is_shadow_confederation": false
  },
  {
    "rank": 7,
    "team_name": "名古屋大学",
    "team_short_name": "名大",
    "runner_name": "豊田（愛知）",
    "total_distance_km": 591.7,
    "latitude": 34.662055382082514,
    "longitude": 134.96653574271016,
    "is_shadow_confederation": false
  },
  {
    "rank": 8,
    "team_name": "四国大学",
    "team_short_name": "四国",
    "runner_name": "徳島",
    "total_distance_km": 589.5,
    "latitude": 34.648585057283405,
    "longitude": 134.9833905599015,
    "is_shadow_confederation": false
  },
  {
    "rank": 9,
    "team_name": "鳥取大学",
    "team_short_name": "鳥取",
    "runner_name": "松江",
    "total_distance_km": 588.8,
    "latitude": 34.64762799269362,
    "longitude": 134.99084175128934,
    "is_shadow_confederation": false
  },
  {
    "rank": 10,
    "team_name": "広島経済大学",
    "team_short_name": "広経",
    "runner_name": "高松（香川）",
    "total_distance_km": 586.1,
    "latitude": 34.64259749364888,
    "longitude": 135.0193629792224,
    "is_shadow_confederation": false
  },
  {
    "rank": 11,
    "team_name": "山梨学院大学",
    "team_short_name": "山学",
    "runner_name": "静岡",
    "total_distance_km": 586.0,
    "latitude": 34.64213455315641,
    "longitude": 135.02029885103764,
    "is_shadow_confederation": false
  },
  {
    "rank": 12,
    "team_name": "三重大学",
    "team_short_name": "三重",
    "runner_name": "新宮",
    "total_distance_km": 582.4,
    "latitude": 34.628193006137266,
    "longitude": 135.05319449916055,
    "is_shadow_confederation": false
  },
  {
    "rank": 13,
    "team_name": "上武大学",
    "team_short_name": "上武",
    "runner_name": "伊勢崎",
    "total_distance_km": 580.9,
    "latitude": 34.62979853889339,
    "longitude": 135.0693868652114,
    "is_shadow_confederation": false
  },
  {
    "rank": 14,
    "team_name": "金沢大学",
    "team_short_name": "金沢",
    "runner_name": "富山",
    "total_distance_km": 576.3,
    "latitude": 34.644221692122386,
    "longitude": 135.11527773470686,
    "is_shadow_confederation": false
  },
  {
    "rank": 15,
    "team_name": "日本大学",
    "team_short_name": "日大",
    "runner_name": "八王子",
    "total_distance_km": 556.9,
    "latitude": 34.72913157467741,
    "longitude": 135.29478800503378,
    "is_shadow_confederation": false
  },
  {
    "rank": 16,
    "team_name": "福島大学",
    "team_short_name": "福島",
    "runner_name": "福島",
    "total_distance_km": 526.3,
    "latitude": 34.744308996164776,
    "longitude": 135.57140788354224,
    "is_shadow_confederation": false
  },
  {
    "rank": 17,
    "team_name": "東北大学",
    "team_short_name": "東北",
    "runner_name": "一関",
    "total_distance_km": 516.6,
    "latitude": 34.80266842584935,
    "longitude": 135.64327136190653,
    "is_shadow_confederation": false
  },
  {
    "rank": 18,
    "team_name": "学連選抜",
    "team_short_name": "学連",
    "runner_name": "久世",
    "total_distance_km": 516.0,
    "latitude": 34.805139933408945,
    "longitude": 135.64910397086115,
    "is_shadow_confederation": false
  }
]