[
  {
    "rank": 1,
    "team_name": "琉球大学",
    "team_short_name": "琉球",
    "runner_name": "波照間",
    "total_distance_km": 510.3,
    "latitude": 34.838168251874954,
    "longitude": 135.69551117885345,
    "is_shadow_confederation": false
  },
  {
    "rank": 2,
    "team_name": "鹿児島大学",
    "team_short_name": "鹿大",
    "runner_name": "西米良",
    "total_distance_km": 398.1,
    "latitude": 34.90843835471436,
    "longitude": 136.55055030368132,
    "is_shadow_confederation": false
  },
  {
    "rank": 3,
    "team_name": "熊本学園大学",
    "team_short_name": "熊学",
    "runner_name": "人吉",
    "total_distance_km": 388.4,
    "latitude": 34.96414978765099,
    "longitude": 136.6217268110577,
    "is_shadow_confederation": false
  },
  {
    "rank": 4,
    "team_name": "福岡大学",
    "team_short_name": "福岡",
    "runner_name": "朝倉",
    "total_distance_km": 366.7,
    "latitude": 35.115092662218956,
    "longitude": 136.74026740470566,
    "is_shadow_confederation": false
  },
  {
    "rank": 5,
    "team_name": "名古屋大学",
    "team_short_name": "名大",
    "runner_name": "愛西",
    "total_distance_km": 338.3,
    "latitude": 35.047476539620625,
    "longitude": 137.00413320228424,
    "is_shadow_confederation": false
  },
  {
    "rank": 6,
    "team_name": "四国大学",
    "team_short_name": "四国",
    "runner_name": "松山",
    "total_distance_km": 335.1,
    "latitude": 35.02492748986824,
    "longitude": 137.02577743919088,
    "is_shadow_confederation": false
  },
  {
    "rank": 7,
    "team_name": "上武大学",
    "team_short_name": "上武",
    "runner_name": "熊谷",
    "total_distance_km": 323.5,
    "latitude": 34.96843454437815,
    "longitude": 137.1305723942558,
    "is_shadow_confederation": false
  },
  {
    "rank": 8,
    "team_name": "広島経済大学",
    "team_short_name": "広経",
    "runner_name": "府中（広島）",
    "total_distance_km": 321.3,
    "latitude": 34.958814288343774,
    "longitude": 137.15138037163527,
    "is_shadow_confederation": false
  },
  {
    "rank": 9,
    "team_name": "日本大学",
    "team_short_name": "日大",
    "runner_name": "下館",
    "total_distance_km": 320.6,
    "latitude": 34.95813952686449,
    "longitude": 137.15899133285245,
    "is_shadow_confederation": false
  },
  {
    "rank": 10,
    "team_name": "三重大学",
    "team_short_name": "三重",
    "runner_name": "小俣",
    "total_distance_km": 319.1,
    "latitude": 34.954065909072526,
    "longitude": 137.17462013097176,
    "is_shadow_confederation": false
  },
  {
    "rank": 11,
    "team_name": "鳥取大学",
    "team_short_name": "鳥取",
    "runner_name": "広瀬",
    "total_distance_km": 316.7,
    "latitude": 34.93968927865748,
    "longitude": 137.19357860680321,
    "is_shadow_confederation": false
  },
  {
    "rank": 12,
    "team_name": "関西大学",
    "team_short_name": "関大",
    "runner_name": "上郡",
    "total_distance_km": 308.9,
    "latitude": 34.89508083126449,
    "longitude": 137.2538604642636,
    "is_shadow_confederation": false
  },
  {
    "rank": 13,
    "team_name": "立命館大学",
    "team_short_name": "立命",
    "runner_name": "京田辺",
    "total_distance_km": 300.7,
    "latitude": 34.84801447420531,
    "longitude": 137.3192971745505,
    "is_shadow_confederation": false
  },
  {
    "rank": 14,
    "team_name": "福島大学",
    "team_short_name": "福島",
    "runner_name": "津川",
    "total_distance_km": 273.9,
    "latitude": 34.68349361704473,
    "longitude": 137.50701323994664,
    "is_shadow_confederation": false
  },
  {
    "rank": 15,
    "team_name": "山梨学院大学",
    "team_short_name": "山学",
    "runner_name": "大月",
    "total_distance_km": 273.3,
    "latitude": 34.67994797886462,
    "longitude": 137.50803221042133,
    "is_shadow_confederation": false
  },
  {
    "rank": 16,
    "team_name": "金沢大学",
    "team_short_name": "金沢",
    "runner_name": "七尾",
    "total_distance_km": 253.8,
    "latitude": 34.688108425201655,
    "longitude": 137.7118979522477,
    "is_shadow_confederation": false
  },
  {
    "rank": 17,
    "team_name": "東北大学",
    "team_short_name": "東北",
    "runner_name": "山形（山形）",
    "total_distance_km": 198.2,
    "latitude": 34.86310147241079,
    "longitude": 138.21122409885206,
    "is_shadow_confederation": false
  },
  {
    "rank": 18,
    "team_name": "学連選抜",
    "team_short_name": "学連",
    "runner_name": "美幌",
    "total_distance_km": 101.5,
    "latitude": 35.184480256317386,
    "longitude": 139.02230191402325,
    "is_shadow_confederation": false
  },
  {
    "rank": null,
    "team_name": "区間記録連合",
    "team_short_name": "区間記録",
    "runner_name": "桐生",
    "total_distance_km": 565.2,
    "latitude": 34.701070492371635,
    "longitude": 135.21277528303625,
    "is_shadow_confederation": true
  }
]