[
  {
    "rank": 1,
    "team_name": "琉球大学",
    "team_short_name": "琉球",
    "runner_name": "那覇",
    "total_distance_km": 693.8,
    "latitude": 34.703027616982126,
    "longitude": 134.03734489766836,
    "is_shadow_confederation": false
  },
  {
    "rank": 2,
    "team_name": "鹿児島大学",
    "team_short_name": "鹿大",
    "runner_name": "笠利",
    "total_distance_km": 598.0,
    "latitude": 34.698072495633916,
    "longitude": 134.91425763133924,
    "is_shadow_confederation": false
  },
  {
    "rank": 3,
    "team_name": "熊本学園大学",
    "team_short_name": "熊学",
    "runner_name": "大分",
    "total_distance_km": 594.3,
    "latitude": 34.678737621216946,
    "longitude": 134.94699053315145,
    "is_shadow_confederation": false
  },
  {
    "rank": 4,
    "team_name": "福岡大学",
    "team_short_name": "福岡",
    "runner_name": "博多",
    "total_distance_km": 567.3,
    "latitude": 34.692314725267316,
    "longitude": 135.192458093852,
    "is_shadow_confederation": false
  },
  {
    "rank": 5,
    "team_name": "四国大学",
    "team_short_name": "四国",
    "runner_name": "徳島",
    "total_distance_km": 545.0,
    "latitude": 34.72021119373584,
    "longitude": 135.4196389746414,
    "is_shadow_confederation": false
  },
  {
    "rank": 6,
    "team_name": "広島経済大学",
    "team_short_name": "広経",
    "runner_name": "高梁",
    "total_distance_km": 525.6,
    "latitude": 34.74862943545303,
    "longitude": 135.5769790965427,
    "is_shadow_confederation": false
  },
  {
    "rank": 7,
    "team_name": "鳥取大学",
    "team_short_name": "鳥取",
    "runner_name": "境",
    "total_distance_km": 513.6,
    "latitude": 34.816044021213365,
    "longitude": 135.6715203147083,
    "is_shadow_confederation": false
  },
  {
    "rank": 8,
    "team_name": "名古屋大学",
    "team_short_name": "名大",
    "runner_name": "多治見",
    "total_distance_km": 511.3,
    "latitude": 34.830929519414546,
    "longitude": 135.68901565542822,
    "is_shadow_confederation": false
  },
  {
    "rank": 9,
    "team_name": "関西大学",
    "team_short_name": "関大",
    "runner_name": "枚方",
    "total_distance_km": 508.2,
    "latitude": 34.85450305716018,
    "longitude": 135.7066389783845,
    "is_shadow_confederation": false
  },
  {
    "rank": 10,
    "team_name": "立命館大学",
    "team_short_name": "立命",
    "runner_name": "舞鶴",
    "total_distance_km": 499.7,
    "latitude": 34.91894876169723,
    "longitude": 135.74458284325007,
    "is_shadow_confederation": false
  },
  {
    "rank": 11,
    "team_name": "三重大学",
    "team_short_name": "三重",
    "runner_name": "奈良",
    "total_distance_km": 493.8,
    "latitude": 34.97211012448894,
    "longitude": 135.7460267439106,
    "is_shadow_confederation": false
  },
  {
    "rank": 12,
    "team_name": "日本大学",
    "team_short_name": "日大",
    "runner_name": "牛久",
    "total_distance_km": 483.0,
    "latitude": 34.991349004804405,
    "longitude": 135.808329792097,
    "is_shadow_confederation": false
  },
  {
    "rank": 13,
    "team_name": "金沢大学",
    "team_short_name": "金沢",
    "runner_name": "福井",
    "total_distance_km": 478.9,
    "latitude": 34.99317841374461,
    "longitude": 135.8507539145656,
    "is_shadow_confederation": false
  },
  {
    "rank": 14,
    "team_name": "上武大学",
    "team_short_name": "上武",
    "runner_name": "桐生",
    "total_distance_km": 478.7,
    "latitude": 34.994192051939734,
    "longitude": 135.8525528738394,
    "is_shadow_confederation": false
  },
  {
    "rank": 15,
    "team_name": "山梨学院大学",
    "team_short_name": "山学",
    "runner_name": "甲府",
    "total_distance_km": 455.2,
    "latitude": 35.01593312576507,
    "longitude": 136.06045686477108,
    "is_shadow_confederation": false
  },
  {
    "rank": 16,
    "team_name": "福島大学",
    "team_short_name": "福島",
    "runner_name": "福島",
    "total_distance_km": 420.9,
    "latitude": 34.8743037558901,
    "longitude": 136.36142024637167,
    "is_shadow_confederation": false
  },
  {
    "rank": 17,
    "team_name": "学連選抜",
    "team_short_name": "学連",
    "runner_name": "上",
    "total_distance_km": 417.8,
    "latitude": 34.85669877281974,
    "longitude": 136.37919737062418,
    "is_shadow_confederation": false
  },
  {
    "rank": 18,
    "team_name": "東北大学",
    "team_short_name": "東北",
    "runner_name": "大館",
    "total_distance_km": 358.6,
    "latitude": 35.12617896987975,
    "longitude": 136.8275197737022,
    "is_shadow_confederation": false
  }
]