[
  {
    "rank": 1,
    "team_name": "琉球大学",
    "team_short_name": "琉球",
    "runner_name": "石垣島",
    "total_distance_km": 993.4,
    "latitude": 34.085881651874836,
    "longitude": 131.43769523928557,
    "is_shadow_confederation": false
  },
  {
    "rank": 2,
    "team_name": "鹿児島大学",
    "team_short_name": "鹿大",
    "runner_name": "さつま柏原",
    "total_distance_km": 795.3,
    "latitude": 34.39268864090057,
    "longitude": 133.10498105549294,
    "is_shadow_confederation": false
  },
  {
    "rank": 3,
    "team_name": "熊本学園大学",
    "team_short_name": "熊学",
    "runner_name": "三角",
    "total_distance_km": 772.0,
    "latitude": 34.46755757988698,
    "longitude": 133.297367131234,
    "is_shadow_confederation": false
  },
  {
    "rank": 4,
    "team_name": "福岡大学",
    "team_short_name": "福岡",
    "runner_name": "口之津",
    "total_distance_km": 739.4,
    "latitude": 34.536017674734545,
    "longitude": 133.612558930723,
    "is_shadow_confederation": false
  },
  {
    "rank": 5,
    "team_name": "名古屋大学",
    "team_short_name": "名大",
    "runner_name": "名古屋",
    "total_distance_km": 714.4,
    "latitude": 34.64304644007434,
    "longitude": 133.83695167002227,
    "is_shadow_confederation": false
  },
  {
    "rank": 6,
    "team_name": "四国大学",
    "team_short_name": "四国",
    "runner_name": "新居浜",
    "total_distance_km": 707.8,
    "latitude": 34.65556910391743,
    "longitude": 133.90461837410018,
    "is_shadow_confederation": false
  },
  {
    "rank": 7,
    "team_name": "日本大学",
    "team_short_name": "日大",
    "runner_name": "練馬",
    "total_distance_km": 686.9,
    "latitude": 34.72217170609516,
    "longitude": 134.10218666517488,
    "is_shadow_confederation": false
  },
  {
    "rank": 8,
    "team_name": "上武大学",
    "team_short_name": "上武",
    "runner_name": "小山",
    "total_distance_km": 686.6,
    "latitude": 34.72433620448067,
    "longitude": 134.10414240549602,
    "is_shadow_confederation": false
  },
  {
    "rank": 9,
    "team_name": "広島経済大学",
    "team_short_name": "広経",
    "runner_name": "福山",
    "total_distance_km": 670.7,
    "latitude": 34.784381592618196,
    "longitude": 134.25660728124004,
    "is_shadow_confederation": false
  },
  {
    "rank": 10,
    "team_name": "関西大学",
    "team_short_name": "関大",
    "runner_name": "八尾（大阪）",
    "total_distance_km": 669.1,
    "latitude": 34.795475209846636,
    "longitude": 134.26580026331536,
    "is_shadow_confederation": false
  },
  {
    "rank": 11,
    "team_name": "三重大学",
    "team_short_name": "三重",
    "runner_name": "津",
    "total_distance_km": 664.3,
    "latitude": 34.82724722957181,
    "longitude": 134.30000645827965,
    "is_shadow_confederation": false
  },
  {
    "rank": 12,
    "team_name": "山梨学院大学",
    "team_short_name": "山学",
    "runner_name": "三島",
    "total_distance_km": 658.2,
    "latitude": 34.833191281555195,
    "longitude": 134.35141493374374,
    "is_shadow_confederation": false
  },
  {
    "rank": 13,
    "team_name": "鳥取大学",
    "team_short_name": "鳥取",
    "runner_name": "松江",
    "total_distance_km": 651.6,
    "latitude": 34.83322210635961,
    "longitude": 134.4192469392941,
    "is_shadow_confederation": false
  },
  {
    "rank": 14,
    "team_name": "立命館大学",
    "team_short_name": "立命",
    "runner_name": "彦根",
    "total_distance_km": 630.2,
    "latitude": 34.84371888308961,
    "longitude": 134.62951128460054,
    "is_shadow_confederation": false
  },
  {
    "rank": 15,
    "team_name": "福島大学",
    "team_short_name": "福島",
    "runner_name": "浪江",
    "total_distance_km": 589.9,
    "latitude": 34.65066551283701,
    "longitude": 134.9798268198991,
    "is_shadow_confederation": false
  },
  {
    "rank": 16,
    "team_name": "金沢大学",
    "team_short_name": "金沢",
    "runner_name": "富山",
    "total_distance_km": 567.9,
    "latitude": 34.689193401525,
    "longitude": 135.18711664115702,
    "is_shadow_confederation": false
  },
  {
    "rank": 17,
    "team_name": "東北大学",
    "team_short_name": "東北",
    "runner_name": "一関",
    "total_distance_km": 479.6,
    "latitude": 34.99074519837397,
    "longitude": 135.84380568480339,
    "is_shadow_confederation": false
  },
  {
    "rank": 18,
    "team_name": "学連選抜",
    "team_short_name": "学連",
    "runner_name": "久世",
    "total_distance_km": 421.7,
    "latitude": 34.88117726986887,
    "longitude": 136.35910768025752,
    "is_shadow_confederation": false
  },
  {
    "rank": null,
    "team_name": "区間記録連合",
    "team_short_name": "区間記録",
    "runner_name": "鳩山",
    "total_distance_km": 1006.0,
    "latitude": 34.05670481583832,
    "longitude": 131.33009095417057,
    "is_shadow_confederation": true
  }
]