[
  {
    "rank": 1,
    "team_name": "琉球大学",
    "team_short_name": "琉球",
    "runner_name": "久米島",
    "total_distance_km": 561.2,
    "latitude": 34.715924043238395,
    "longitude": 135.25085129333917,
    "is_shadow_confederation": false
  },
  {
    "rank": 2,
    "team_name": "熊本学園大学",
    "team_short_name": "熊学",
    "runner_name": "熊本",
    "total_distance_km": 494.9,
    "latitude": 34.96220270985742,
    "longitude": 135.74586572831942,
    "is_shadow_confederation": false
  },
  {
    "rank": 3,
    "team_name": "鹿児島大学",
    "team_short_name": "鹿大",
    "runner_name": "西都",
    "total_distance_km": 478.6,
    "latitude": 34.9940036336349,
    "longitude": 135.85356699136605,
    "is_shadow_confederation": false
  },
  {
    "rank": 4,
    "team_name": "福岡大学",
    "team_short_name": "福岡",
    "runner_name": "前原",
    "total_distance_km": 464.0,
    "latitude": 35.02009098313204,
    "longitude": 135.97118761600055,
    "is_shadow_confederation": false
  },
  {
    "rank": 5,
    "team_name": "四国大学",
    "team_short_name": "四国",
    "runner_name": "大洲",
    "total_distance_km": 449.5,
    "latitude": 34.98633376050722,
    "longitude": 136.11140480051878,
    "is_shadow_confederation": false
  },
  {
    "rank": 6,
    "team_name": "広島経済大学",
    "team_short_name": "広経",
    "runner_name": "高梁",
    "total_distance_km": 431.9,
    "latitude": 34.935559665024094,
    "longitude": 136.28653559290004,
    "is_shadow_confederation": false
  },
  {
    "rank": 7,
    "team_name": "鳥取大学",
    "team_short_name": "鳥取",
    "runner_name": "境",
    "total_distance_km": 421.8,
    "latitude": 34.882047001329326,
    "longitude": 136.35882028163053,
    "is_shadow_confederation": false
  },
  {
    "rank": 8,
    "team_name": "名古屋大学",
    "team_short_name": "名大",
    "runner_name": "多治見",
    "total_distance_km": 418.5,
    "latitude": 34.86033484222965,
    "longitude": 136.37368600983652,
    "is_shadow_confederation": false
  },
  {
    "rank": 9,
    "team_name": "関西大学",
    "team_short_name": "関大",
    "runner_name": "枚方",
    "total_distance_km": 417.0,
    "latitude": 34.85413939077548,
    "longitude": 136.38720692463795,
    "is_shadow_confederation": false
  },
  {
    "rank": 10,
    "team_name": "立命館大学",
    "team_short_name": "立命",
    "runner_name": "米原",
    "total_distance_km": 409.8,
    "latitude": 34.85085209163031,
    "longitude": 136.4594918797959,
    "is_shadow_confederation": false
  },
  {
    "rank": 11,
    "team_name": "三重大学",
    "team_short_name": "三重",
    "runner_name": "風屋",
    "total_distance_km": 403.8,
    "latitude": 34.87739739412007,
    "longitude": 136.50991844194775,
    "is_shadow_confederation": false
  },
  {
    "rank": 12,
    "team_name": "金沢大学",
    "team_short_name": "金沢",
    "runner_name": "志賀",
    "total_distance_km": 388.5,
    "latitude": 34.96330346932319,
    "longitude": 136.62134994244596,
    "is_shadow_confederation": false
  },
  {
    "rank": 13,
    "team_name": "日本大学",
    "team_short_name": "日大",
    "runner_name": "小田原",
    "total_distance_km": 387.8,
    "latitude": 34.96922769761772,
    "longitude": 136.62398802272813,
    "is_shadow_confederation": false
  },
  {
    "rank": 14,
    "team_name": "上武大学",
    "team_short_name": "上武",
    "runner_name": "寄居",
    "total_distance_km": 383.7,
    "latitude": 34.998863467925695,
    "longitude": 136.64888616372167,
    "is_shadow_confederation": false
  },
  {
    "rank": 15,
    "team_name": "山梨学院大学",
    "team_short_name": "山学",
    "runner_name": "浜松",
    "total_distance_km": 367.2,
    "latitude": 35.11383985681427,
    "longitude": 136.73499878226727,
    "is_shadow_confederation": false
  },
  {
    "rank": 16,
    "team_name": "福島大学",
    "team_short_name": "福島",
    "runner_name": "長岡",
    "total_distance_km": 337.8,
    "latitude": 35.043656933596395,
    "longitude": 137.00703897995592,
    "is_shadow_confederation": false
  },
  {
    "rank": 17,
    "team_name": "学連選抜",
    "team_short_name": "学連",
    "runner_name": "大村",
    "total_distance_km": 317.2,
    "latitude": 34.94353232048494,
    "longitude": 137.1907193001392,
    "is_shadow_confederation": false
  },
  {
    "rank": 18,
    "team_name": "東北大学",
    "team_short_name": "東北",
    "runner_name": "高畠",
    "total_distance_km": 279.1,
    "latitude": 34.714503671062026,
    "longitude": 137.46960012155282,
    "is_shadow_confederation": false
  }
]