[
  {
    "rank": 1,
    "team_name": "琉球大学",
    "team_short_name": "琉球",
    "runner_name": "名護",
    "total_distance_km": 393.5,
    "latitude": 34.9290162985631,
    "longitude": 136.58782168590216,
    "is_shadow_confederation": false
  },
  {
    "rank": 2,
    "team_name": "熊本学園大学",
    "team_short_name": "熊学",
    "runner_name": "人吉",
    "total_distance_km": 355.2,
    "latitude": 35.12461973710401,
    "longitude": 136.86432818355675,
    "is_shadow_confederation": false
  },
  {
    "rank": 3,
    "team_name": "鹿児島大学",
    "team_short_name": "鹿大",
    "runner_name": "西米良",
    "total_distance_km": 342.4,
    "latitude": 35.06661920210156,
    "longitude": 136.9672941996055,
    "is_shadow_confederation": false
  },
  {
    "rank": 4,
    "team_name": "福岡大学",
    "team_short_name": "福岡",
    "runner_name": "朝倉",
    "total_distance_km": 339.1,
    "latitude": 35.052820546441666,
    "longitude": 136.99824575202268,
    "is_shadow_confederation": false
  },
  {
    "rank": 5,
    "team_name": "四国大学",
    "team_short_name": "四国",
    "runner_name": "御荘",
    "total_distance_km": 327.0,
    "latitude": 34.98292012672026,
    "longitude": 137.09707588159068,
    "is_shadow_confederation": false
  },
  {
    "rank": 6,
    "team_name": "広島経済大学",
    "team_short_name": "広経",
    "runner_name": "府中（広島）",
    "total_distance_km": 311.5,
    "latitude": 34.90737013011827,
    "longitude": 137.2306860462694,
    "is_shadow_confederation": false
  },
  {
    "rank": 7,
    "team_name": "鳥取大学",
    "team_short_name": "鳥取",
    "runner_name": "広瀬",
    "total_distance_km": 299.4,
    "latitude": 34.83788010824812,
    "longitude": 137.32643062180838,
    "is_shadow_confederation": false
  },
  {
    "rank": 8,
    "team_name": "立命館大学",
    "team_short_name": "立命",
    "runner_name": "京田辺",
    "total_distance_km": 298.3,
    "latitude": 34.829894797622686,
    "longitude": 137.33305090130082,
    "is_shadow_confederation": false
  },
  {
    "rank": 9,
    "team_name": "関西大学",
    "team_short_name": "関大",
    "runner_name": "上郡",
    "total_distance_km": 296.4,
    "latitude": 34.81833081980317,
    "longitude": 137.34800528607053,
    "is_shadow_confederation": false
  },
  {
    "rank": 10,
    "team_name": "名古屋大学",
    "team_short_name": "名大",
    "runner_name": "大垣",
    "total_distance_km": 295.6,
    "latitude": 34.81278168160263,
    "longitude": 137.35358964614306,
    "is_shadow_confederation": false
  },
  {
    "rank": 11,
    "team_name": "三重大学",
    "team_short_name": "三重",
    "runner_name": "小俣",
    "total_distance_km": 292.0,
    "latitude": 34.78682257701161,
    "longitude": 137.37715922310574,
    "is_shadow_confederation": false
  },
  {
    "rank": 12,
    "team_name": "金沢大学",
    "team_short_name": "金沢",
    "runner_name": "七尾",
    "total_distance_km": 280.0,
    "latitude": 34.719457230690196,
    "longitude": 137.46191966992268,
    "is_shadow_confederation": false
  },
  {
    "rank": 13,
    "team_name": "上武大学",
    "team_short_name": "上武",
    "runner_name": "熊谷",
    "total_distance_km": 269.7,
    "latitude": 34.68356369068301,
    "longitude": 137.54632934066163,
    "is_shadow_confederation": false
  },
  {
    "rank": 14,
    "team_name": "日本大学",
    "team_short_name": "日大",
    "runner_name": "下館",
    "total_distance_km": 267.1,
    "latitude": 34.69401409559005,
    "longitude": 137.5702190434181,
    "is_shadow_confederation": false
  },
  {
    "rank": 15,
    "team_name": "山梨学院大学",
    "team_short_name": "山学",
    "runner_name": "大月",
    "total_distance_km": 248.8,
    "latitude": 34.70936296752253,
    "longitude": 137.74982871544043,
    "is_shadow_confederation": false
  },
  {
    "rank": 16,
    "team_name": "福島大学",
    "team_short_name": "福島",
    "runner_name": "津川",
    "total_distance_km": 244.3,
    "latitude": 34.72977714331827,
    "longitude": 137.79154309867937,
    "is_shadow_confederation": false
  },
  {
    "rank": 17,
    "team_name": "東北大学",
    "team_short_name": "東北",
    "runner_name": "山形（山形）",
    "total_distance_km": 196.0,
    "latitude": 34.873296549015805,
    "longitude": 138.2301649777746,
    "is_shadow_confederation": false
  },
  {
    "rank": 18,
    "team_name": "学連選抜",
    "team_short_name": "学連",
    "runner_name": "新潟",
    "total_distance_km": 194.5,
    "latitude": 34.8824029431213,
    "longitude": 138.24170201829978,
    "is_shadow_confederation": false
  }
]