[
  {
    "rank": 1,
    "team_name": "名古屋大学",
    "team_short_name": "名大",
    "runner_name": "大垣",
    "total_distance_km": 303.0,
    "latitude": 34.86358325109758,
    "longitude": 137.3030925334123
  },
  {
    "rank": 2,
    "team_name": "立命館大学",
    "team_short_name": "立命",
    "runner_name": "京田辺",
    "total_distance_km": 298.6,
    "latitude": 34.831500174789056,
    "longitude": 137.33050733891082
  },
  {
    "rank": 2,
    "team_name": "四国大学",
    "team_short_name": "四国",
    "runner_name": "御荘",
    "total_distance_km": 298.6,
    "latitude": 34.831500174789056,
    "longitude": 137.33050733891082
  },
  {
    "rank": 4,
    "team_name": "関西大学",
    "team_short_name": "関大",
    "runner_name": "上郡",
    "total_distance_km": 298.5,
    "latitude": 34.83083122364794,
    "longitude": 137.331182653938
  },
  {
    "rank": 5,
    "team_name": "熊本学園大学",
    "team_short_name": "熊学",
    "runner_name": "八代",
    "total_distance_km": 297.5,
    "latitude": 34.825960884828945,
    "longitude": 137.34032679097075
  },
  {
    "rank": 6,
    "team_name": "金沢大学",
    "team_short_name": "金沢",
    "runner_name": "七尾",
    "total_distance_km": 296.3,
    "latitude": 34.81763717752813,
    "longitude": 137.34870333107958
  },
  {
    "rank": 7,
    "team_name": "上武大学",
    "team_short_name": "上武",
    "runner_name": "熊谷",
    "total_distance_km": 295.0,
    "latitude": 34.80852109009031,
    "longitude": 137.35762080691086
  },
  {
    "rank": 7,
    "team_name": "三重大学",
    "team_short_name": "三重",
    "runner_name": "小俣",
    "total_distance_km": 295.0,
    "latitude": 34.80852109009031,
    "longitude": 137.35762080691086
  },
  {
    "rank": 9,
    "team_name": "日本大学",
    "team_short_name": "日大",
    "runner_name": "下館",
    "total_distance_km": 293.4,
    "latitude": 34.79670900439036,
    "longitude": 137.367653731045
  },
  {
    "rank": 10,
    "team_name": "広島経済大学",
    "team_short_name": "広経",
    "runner_name": "府中（広島）",
    "total_distance_km": 292.9,
    "latitude": 34.79316959478115,
    "longitude": 137.37103472827965
  },
  {
    "rank": 11,
    "team_name": "福岡大学",
    "team_short_name": "福岡",
    "runner_name": "黒木",
    "total_distance_km": 292.8,
    "latitude": 34.79246437058453,
    "longitude": 137.37171522770475
  },
  {
    "rank": 12,
    "team_name": "鳥取大学",
    "team_short_name": "鳥取",
    "runner_name": "広瀬",
    "total_distance_km": 289.0,
    "latitude": 34.76678984445698,
    "longitude": 137.39548622538177
  },
  {
    "rank": 13,
    "team_name": "琉球大学",
    "team_short_name": "琉球",
    "runner_name": "盛山",
    "total_distance_km": 284.8,
    "latitude": 34.73852729029007,
    "longitude": 137.42277523907566
  },
  {
    "rank": 14,
    "team_name": "山梨学院大学",
    "team_short_name": "山学",
    "runner_name": "大月",
    "total_distance_km": 280.1,
    "latitude": 34.7199333362406,
    "longitude": 137.46099265911565
  },
  {
    "rank": 15,
    "team_name": "鹿児島大学",
    "team_short_name": "鹿大",
    "runner_name": "加久藤",
    "total_distance_km": 277.6,
    "latitude": 34.70447193546561,
    "longitude": 137.4803022803061
  },
  {
    "rank": 16,
    "team_name": "福島大学",
    "team_short_name": "福島",
    "runner_name": "津川",
    "total_distance_km": 261.9,
    "latitude": 34.68375672195269,
    "longitude": 137.62425663492488
  },
  {
    "rank": 17,
    "team_name": "学連選抜",
    "team_short_name": "学連",
    "runner_name": "新潟",
    "total_distance_km": 232.7,
    "latitude": 34.74497892336114,
    "longitude": 137.90968186172046
  },
  {
    "rank": 18,
    "team_name": "東北大学",
    "team_short_name": "東北",
    "runner_name": "山形（山形）",
    "total_distance_km": 215.5,
    "latitude": 34.79796107360514,
    "longitude": 138.07434443893132
  }
]