[
  {
    "rank": 1,
    "team_name": "四国大学",
    "team_short_name": "四国",
    "runner_name": "大三島",
    "total_distance_km": 168.1,
    "latitude": 35.01490089850519,
    "longitude": 138.45676048425375,
    "is_shadow_confederation": false
  },
  {
    "rank": 2,
    "team_name": "名古屋大学",
    "team_short_name": "名大",
    "runner_name": "美濃",
    "total_distance_km": 167.5,
    "latitude": 35.01639343761208,
    "longitude": 138.4630491975979,
    "is_shadow_confederation": false
  },
  {
    "rank": 3,
    "team_name": "日本大学",
    "team_short_name": "日大",
    "runner_name": "古河",
    "total_distance_km": 166.9,
    "latitude": 35.01736594147271,
    "longitude": 138.4695159997034,
    "is_shadow_confederation": false
  },
  {
    "rank": 4,
    "team_name": "金沢大学",
    "team_short_name": "金沢",
    "runner_name": "小浜",
    "total_distance_km": 166.7,
    "latitude": 35.017690109426255,
    "longitude": 138.47167160040522,
    "is_shadow_confederation": false
  },
  {
    "rank": 5,
    "team_name": "上武大学",
    "team_short_name": "上武",
    "runner_name": "越谷",
    "total_distance_km": 166.6,
    "latitude": 35.01785219340302,
    "longitude": 138.47274940075613,
    "is_shadow_confederation": false
  },
  {
    "rank": 6,
    "team_name": "立命館大学",
    "team_short_name": "立命",
    "runner_name": "福知山",
    "total_distance_km": 166.5,
    "latitude": 35.0180142773798,
    "longitude": 138.47382720110704,
    "is_shadow_confederation": false
  },
  {
    "rank": 7,
    "team_name": "関西大学",
    "team_short_name": "関大",
    "runner_name": "和田山",
    "total_distance_km": 165.2,
    "latitude": 35.023741343656106,
    "longitude": 138.48422386708063,
    "is_shadow_confederation": false
  },
  {
    "rank": 8,
    "team_name": "福岡大学",
    "team_short_name": "福岡",
    "runner_name": "福岡",
    "total_distance_km": 163.9,
    "latitude": 35.03242868046581,
    "longitude": 138.48988143405944,
    "is_shadow_confederation": false
  },
  {
    "rank": 9,
    "team_name": "琉球大学",
    "team_short_name": "琉球",
    "runner_name": "仲筋",
    "total_distance_km": 163.2,
    "latitude": 35.03740540301833,
    "longitude": 138.4945931417381,
    "is_shadow_confederation": false
  },
  {
    "rank": 10,
    "team_name": "鳥取大学",
    "team_short_name": "鳥取",
    "runner_name": "鳥取",
    "total_distance_km": 162.6,
    "latitude": 35.04198502498571,
    "longitude": 138.49794190363448,
    "is_shadow_confederation": false
  },
  {
    "rank": 11,
    "team_name": "熊本学園大学",
    "team_short_name": "熊学",
    "runner_name": "岱明",
    "total_distance_km": 162.3,
    "latitude": 35.04374531762414,
    "longitude": 138.5002439095284,
    "is_shadow_confederation": false
  },
  {
    "rank": 12,
    "team_name": "三重大学",
    "team_short_name": "三重",
    "runner_name": "五條",
    "total_distance_km": 161.7,
    "latitude": 35.04574993777612,
    "longitude": 138.50618157198932,
    "is_shadow_confederation": false
  },
  {
    "rank": 13,
    "team_name": "広島経済大学",
    "team_short_name": "広経",
    "runner_name": "加計",
    "total_distance_km": 160.5,
    "latitude": 35.048981933636526,
    "longitude": 138.51816459389738,
    "is_shadow_confederation": false
  },
  {
    "rank": 14,
    "team_name": "福島大学",
    "team_short_name": "福島",
    "runner_name": "石川",
    "total_distance_km": 160.4,
    "latitude": 35.04945229043055,
    "longitude": 138.51909962135397,
    "is_shadow_confederation": false
  },
  {
    "rank": 15,
    "team_name": "山梨学院大学",
    "team_short_name": "山学",
    "runner_name": "南信濃",
    "total_distance_km": 159.2,
    "latitude": 35.0553159026638,
    "longitude": 138.5300973533339,
    "is_shadow_confederation": false
  },
  {
    "rank": 16,
    "team_name": "鹿児島大学",
    "team_short_name": "鹿大",
    "runner_name": "川内（鹿児島）",
    "total_distance_km": 156.9,
    "latitude": 35.072520439175086,
    "longitude": 138.54287173847518,
    "is_shadow_confederation": false
  },
  {
    "rank": 17,
    "team_name": "東北大学",
    "team_short_name": "東北",
    "runner_name": "山形（山形）",
    "total_distance_km": 130.0,
    "latitude": 35.1254920401322,
    "longitude": 138.78678269841652,
    "is_shadow_confederation": false
  },
  {
    "rank": 18,
    "team_name": "学連選抜",
    "team_short_name": "学連",
    "runner_name": "美幌",
    "total_distance_km": 120.9,
    "latitude": 35.10255769446513,
    "longitude": 138.8776683219498,
    "is_shadow_confederation": false
  },
  {
    "rank": null,
    "team_name": "区間記録連合",
    "team_short_name": "区間記録",
    "runner_name": "佐野",
    "total_distance_km": 189.9,
    "latitude": 34.90265173271804,
    "longitude": 138.28484853028857,
    "is_shadow_confederation": true
  }
]