[
  {
    "rank": 1,
    "team_name": "琉球大学",
    "team_short_name": "琉球",
    "runner_name": "盛山",
    "total_distance_km": 255.7,
    "latitude": 34.6881863915508,
    "longitude": 137.69119414306198,
    "is_shadow_confederation": false
  },
  {
    "rank": 2,
    "team_name": "鹿児島大学",
    "team_short_name": "鹿大",
    "runner_name": "川内（鹿児島）",
    "total_distance_km": 185.0,
    "latitude": 34.937945782785576,
    "longitude": 138.31003084136222,
    "is_shadow_confederation": false
  },
  {
    "rank": 3,
    "team_name": "熊本学園大学",
    "team_short_name": "熊学",
    "runner_name": "岱明",
    "total_distance_km": 181.0,
    "latitude": 34.94923227854757,
    "longitude": 138.34605256436652,
    "is_shadow_confederation": false
  },
  {
    "rank": 4,
    "team_name": "福岡大学",
    "team_short_name": "福岡",
    "runner_name": "福岡",
    "total_distance_km": 166.9,
    "latitude": 35.01736594147271,
    "longitude": 138.4695159997034,
    "is_shadow_confederation": false
  },
  {
    "rank": 5,
    "team_name": "日本大学",
    "team_short_name": "日大",
    "runner_name": "古河",
    "total_distance_km": 147.9,
    "latitude": 35.11594074857622,
    "longitude": 138.6100642974462,
    "is_shadow_confederation": false
  },
  {
    "rank": 6,
    "team_name": "四国大学",
    "team_short_name": "四国",
    "runner_name": "大三島",
    "total_distance_km": 147.5,
    "latitude": 35.11577321567577,
    "longitude": 138.61444748285783,
    "is_shadow_confederation": false
  },
  {
    "rank": 7,
    "team_name": "名古屋大学",
    "team_short_name": "名大",
    "runner_name": "美濃",
    "total_distance_km": 147.4,
    "latitude": 35.115731332450665,
    "longitude": 138.61554327921073,
    "is_shadow_confederation": false
  },
  {
    "rank": 8,
    "team_name": "上武大学",
    "team_short_name": "上武",
    "runner_name": "越谷",
    "total_distance_km": 147.0,
    "latitude": 35.11574104172248,
    "longitude": 138.61990869571449,
    "is_shadow_confederation": false
  },
  {
    "rank": 9,
    "team_name": "三重大学",
    "team_short_name": "三重",
    "runner_name": "五條",
    "total_distance_km": 144.2,
    "latitude": 35.13054414087562,
    "longitude": 138.63962619391947,
    "is_shadow_confederation": false
  },
  {
    "rank": 10,
    "team_name": "広島経済大学",
    "team_short_name": "広経",
    "runner_name": "加計",
    "total_distance_km": 133.9,
    "latitude": 35.135201820446426,
    "longitude": 138.74575530050055,
    "is_shadow_confederation": false
  },
  {
    "rank": 11,
    "team_name": "関西大学",
    "team_short_name": "関大",
    "runner_name": "和田山",
    "total_distance_km": 130.3,
    "latitude": 35.1264890650784,
    "longitude": 138.78374051835564,
    "is_shadow_confederation": false
  },
  {
    "rank": 12,
    "team_name": "鳥取大学",
    "team_short_name": "鳥取",
    "runner_name": "鳥取",
    "total_distance_km": 128.5,
    "latitude": 35.12105282208687,
    "longitude": 138.8022950432195,
    "is_shadow_confederation": false
  },
  {
    "rank": 13,
    "team_name": "立命館大学",
    "team_short_name": "立命",
    "runner_name": "福知山",
    "total_distance_km": 121.5,
    "latitude": 35.10034512316009,
    "longitude": 138.87195548849112,
    "is_shadow_confederation": false
  },
  {
    "rank": 14,
    "team_name": "福島大学",
    "team_short_name": "福島",
    "runner_name": "石川",
    "total_distance_km": 115.4,
    "latitude": 35.12313164527308,
    "longitude": 138.93048617118788,
    "is_shadow_confederation": false
  },
  {
    "rank": 15,
    "team_name": "金沢大学",
    "team_short_name": "金沢",
    "runner_name": "秋ヶ島",
    "total_distance_km": 98.1,
    "latitude": 35.19584097204872,
    "longitude": 139.0522372812557,
    "is_shadow_confederation": false
  },
  {
    "rank": 16,
    "team_name": "山梨学院大学",
    "team_short_name": "山学",
    "runner_name": "長野",
    "total_distance_km": 87.9,
    "latitude": 35.240216361533186,
    "longitude": 139.120491467237,
    "is_shadow_confederation": false
  },
  {
    "rank": 17,
    "team_name": "東北大学",
    "team_short_name": "東北",
    "runner_name": "帯広",
    "total_distance_km": 73.7,
    "latitude": 35.29607836864676,
    "longitude": 139.25260112725059,
    "is_shadow_confederation": false
  },
  {
    "rank": 18,
    "team_name": "学連選抜",
    "team_short_name": "学連",
    "runner_name": "美幌",
    "total_distance_km": 11.9,
    "latitude": 35.58892991783891,
    "longitude": 139.73589293090072,
    "is_shadow_confederation": false
  },
  {
    "rank": null,
    "team_name": "区間記録連合",
    "team_short_name": "区間記録",
    "runner_name": "伊勢崎",
    "total_distance_km": 290.2,
    "latitude": 34.77412854147259,
    "longitude": 137.38940821275787,
    "is_shadow_confederation": true
  }
]