[
  {
    "rank": 1,
    "team_name": "琉球大学",
    "team_short_name": "琉球",
    "runner_name": "久米島",
    "total_distance_km": 641.8,
    "latitude": 34.82543652775542,
    "longitude": 134.5182773058097,
    "is_shadow_confederation": false
  },
  {
    "rank": 2,
    "team_name": "熊本学園大学",
    "team_short_name": "熊学",
    "runner_name": "大分",
    "total_distance_km": 597.1,
    "latitude": 34.693095260262716,
    "longitude": 134.92200727664382,
    "is_shadow_confederation": false
  },
  {
    "rank": 3,
    "team_name": "福岡大学",
    "team_short_name": "福岡",
    "runner_name": "博多",
    "total_distance_km": 585.4,
    "latitude": 34.639356910201585,
    "longitude": 135.02591408192905,
    "is_shadow_confederation": false
  },
  {
    "rank": 4,
    "team_name": "鹿児島大学",
    "team_short_name": "鹿大",
    "runner_name": "笠利",
    "total_distance_km": 580.0,
    "latitude": 34.63226447582068,
    "longitude": 135.07872640823712,
    "is_shadow_confederation": false
  },
  {
    "rank": 5,
    "team_name": "立命館大学",
    "team_short_name": "立命",
    "runner_name": "彦根",
    "total_distance_km": 572.0,
    "latitude": 34.667431742767825,
    "longitude": 135.15246187932752,
    "is_shadow_confederation": false
  },
  {
    "rank": 6,
    "team_name": "関西大学",
    "team_short_name": "関大",
    "runner_name": "豊中",
    "total_distance_km": 570.4,
    "latitude": 34.67462772719223,
    "longitude": 135.1670911115563,
    "is_shadow_confederation": false
  },
  {
    "rank": 7,
    "team_name": "四国大学",
    "team_short_name": "四国",
    "runner_name": "徳島",
    "total_distance_km": 570.0,
    "latitude": 34.67684381900152,
    "longitude": 135.17053402153252,
    "is_shadow_confederation": false
  },
  {
    "rank": 8,
    "team_name": "鳥取大学",
    "team_short_name": "鳥取",
    "runner_name": "松江",
    "total_distance_km": 569.3,
    "latitude": 34.68072197966777,
    "longitude": 135.17655911399095,
    "is_shadow_confederation": false
  },
  {
    "rank": 9,
    "team_name": "広島経済大学",
    "team_short_name": "広経",
    "runner_name": "高松（香川）",
    "total_distance_km": 566.9,
    "latitude": 34.693972268955534,
    "longitude": 135.19633289548418,
    "is_shadow_confederation": false
  },
  {
    "rank": 10,
    "team_name": "名古屋大学",
    "team_short_name": "名大",
    "runner_name": "豊田（愛知）",
    "total_distance_km": 565.7,
    "latitude": 34.69893616314154,
    "longitude": 135.2079686463374,
    "is_shadow_confederation": false
  },
  {
    "rank": 11,
    "team_name": "山梨学院大学",
    "team_short_name": "山学",
    "runner_name": "静岡",
    "total_distance_km": 561.5,
    "latitude": 34.714873089919706,
    "longitude": 135.2478338391734,
    "is_shadow_confederation": false
  },
  {
    "rank": 12,
    "team_name": "金沢大学",
    "team_short_name": "金沢",
    "runner_name": "富山",
    "total_distance_km": 557.5,
    "latitude": 34.72721373626408,
    "longitude": 135.2886628337066,
    "is_shadow_confederation": false
  },
  {
    "rank": 13,
    "team_name": "三重大学",
    "team_short_name": "三重",
    "runner_name": "新宮",
    "total_distance_km": 557.2,
    "latitude": 34.72817265547075,
    "longitude": 135.2917254193702,
    "is_shadow_confederation": false
  },
  {
    "rank": 14,
    "team_name": "上武大学",
    "team_short_name": "上武",
    "runner_name": "伊勢崎",
    "total_distance_km": 555.4,
    "latitude": 34.733065573849295,
    "longitude": 135.31041992901388,
    "is_shadow_confederation": false
  },
  {
    "rank": 15,
    "team_name": "日本大学",
    "team_short_name": "日大",
    "runner_name": "牛久",
    "total_distance_km": 533.1,
    "latitude": 34.69899978047083,
    "longitude": 135.5347994158229,
    "is_shadow_confederation": false
  },
  {
    "rank": 16,
    "team_name": "福島大学",
    "team_short_name": "福島",
    "runner_name": "福島",
    "total_distance_km": 503.9,
    "latitude": 34.882335031784024,
    "longitude": 135.7382599773255,
    "is_shadow_confederation": false
  },
  {
    "rank": 17,
    "team_name": "東北大学",
    "team_short_name": "東北",
    "runner_name": "一関",
    "total_distance_km": 497.4,
    "latitude": 34.93967490226163,
    "longitude": 135.74518503603875,
    "is_shadow_confederation": false
  },
  {
    "rank": 18,
    "team_name": "学連選抜",
    "team_short_name": "学連",
    "runner_name": "久世",
    "total_distance_km": 495.6,
    "latitude": 34.955894923730604,
    "longitude": 135.74567513448085,
    "is_shadow_confederation": false
  }
]