[
  {
    "rank": 1,
    "team_name": "琉球大学",
    "team_short_name": "琉球",
    "runner_name": "那覇",
    "total_distance_km": 697.4,
    "latitude": 34.68846124129213,
    "longitude": 134.00307904089544,
    "is_shadow_confederation": false
  },
  {
    "rank": 2,
    "team_name": "名古屋大学",
    "team_short_name": "名大",
    "runner_name": "名古屋",
    "total_distance_km": 693.7,
    "latitude": 34.703008548011006,
    "longitude": 134.038436156732,
    "is_shadow_confederation": false
  },
  {
    "rank": 3,
    "team_name": "四国大学",
    "team_short_name": "四国",
    "runner_name": "新居浜",
    "total_distance_km": 690.3,
    "latitude": 34.70703922456647,
    "longitude": 134.07418702995014,
    "is_shadow_confederation": false
  },
  {
    "rank": 4,
    "team_name": "関西大学",
    "team_short_name": "関大",
    "runner_name": "八尾（大阪）",
    "total_distance_km": 687.6,
    "latitude": 34.71680014052041,
    "longitude": 134.09817688058607,
    "is_shadow_confederation": false
  },
  {
    "rank": 5,
    "team_name": "熊本学園大学",
    "team_short_name": "熊学",
    "runner_name": "犬飼",
    "total_distance_km": 686.7,
    "latitude": 34.723631140401594,
    "longitude": 134.10346215305609,
    "is_shadow_confederation": false
  },
  {
    "rank": 6,
    "team_name": "立命館大学",
    "team_short_name": "立命",
    "runner_name": "長浜（滋賀）",
    "total_distance_km": 684.5,
    "latitude": 34.73008228404326,
    "longitude": 134.12577588763816,
    "is_shadow_confederation": false
  },
  {
    "rank": 7,
    "team_name": "福岡大学",
    "team_short_name": "福岡",
    "runner_name": "口之津",
    "total_distance_km": 684.2,
    "latitude": 34.73086910198129,
    "longitude": 134.12890484505618,
    "is_shadow_confederation": false
  },
  {
    "rank": 8,
    "team_name": "広島経済大学",
    "team_short_name": "広経",
    "runner_name": "福山",
    "total_distance_km": 683.2,
    "latitude": 34.73427201589273,
    "longitude": 134.13901597600568,
    "is_shadow_confederation": false
  },
  {
    "rank": 9,
    "team_name": "鹿児島大学",
    "team_short_name": "鹿大",
    "runner_name": "鹿児島",
    "total_distance_km": 678.4,
    "latitude": 34.74659272007481,
    "longitude": 134.18901629124147,
    "is_shadow_confederation": false
  },
  {
    "rank": 10,
    "team_name": "三重大学",
    "team_short_name": "三重",
    "runner_name": "津",
    "total_distance_km": 676.5,
    "latitude": 34.75428354512887,
    "longitude": 134.2074004467762,
    "is_shadow_confederation": false
  },
  {
    "rank": 11,
    "team_name": "山梨学院大学",
    "team_short_name": "山学",
    "runner_name": "三島",
    "total_distance_km": 670.0,
    "latitude": 34.78909325632914,
    "longitude": 134.26168166699526,
    "is_shadow_confederation": false
  },
  {
    "rank": 12,
    "team_name": "日本大学",
    "team_short_name": "日大",
    "runner_name": "練馬",
    "total_distance_km": 667.1,
    "latitude": 34.80817483058498,
    "longitude": 134.28052618335207,
    "is_shadow_confederation": false
  },
  {
    "rank": 13,
    "team_name": "鳥取大学",
    "team_short_name": "鳥取",
    "runner_name": "松江",
    "total_distance_km": 660.0,
    "latitude": 34.84269610086922,
    "longitude": 134.33557623699573,
    "is_shadow_confederation": false
  },
  {
    "rank": 14,
    "team_name": "上武大学",
    "team_short_name": "上武",
    "runner_name": "伊勢崎",
    "total_distance_km": 659.4,
    "latitude": 34.839194529023516,
    "longitude": 134.34055181244904,
    "is_shadow_confederation": false
  },
  {
    "rank": 15,
    "team_name": "金沢大学",
    "team_short_name": "金沢",
    "runner_name": "富山",
    "total_distance_km": 656.5,
    "latitude": 34.825707473261325,
    "longitude": 134.36752437074855,
    "is_shadow_confederation": false
  },
  {
    "rank": 16,
    "team_name": "福島大学",
    "team_short_name": "福島",
    "runner_name": "浪江",
    "total_distance_km": 638.0,
    "latitude": 34.83244945012487,
    "longitude": 134.55853815087409,
    "is_shadow_confederation": false
  },
  {
    "rank": 17,
    "team_name": "学連選抜",
    "team_short_name": "学連",
    "runner_name": "多度津",
    "total_distance_km": 627.3,
    "latitude": 34.84219124281559,
    "longitude": 134.66031374120175,
    "is_shadow_confederation": false
  },
  {
    "rank": 18,
    "team_name": "東北大学",
    "team_short_name": "東北",
    "runner_name": "丸森",
    "total_distance_km": 585.1,
    "latitude": 34.63768845033379,
    "longitude": 135.02844584389348,
    "is_shadow_confederation": false
  },
  {
    "rank": null,
    "team_name": "区間記録連合",
    "team_short_name": "区間記録",
    "runner_name": "新居浜",
    "total_distance_km": 717.4,
    "latitude": 34.631529999365576,
    "longitude": 133.80756768148754,
    "is_shadow_confederation": true
  }
]