[
  {
    "rank": 1,
    "team_name": "名古屋大学",
    "team_short_name": "名大",
    "runner_name": "美濃",
    "total_distance_km": 121.7,
    "latitude": 35.10013906612958,
    "longitude": 138.8697763289252,
    "current_leg": 2,
    "is_shadow_confederation": false
  },
  {
    "rank": 2,
    "team_name": "琉球大学",
    "team_short_name": "琉球",
    "runner_name": "仲筋",
    "total_distance_km": 121.1,
    "latitude": 35.10141106262722,
    "longitude": 138.8759756403273,
    "current_leg": 2,
    "is_shadow_confederation": false
  },
  {
    "rank": 3,
    "team_name": "福岡大学",
    "team_short_name": "福岡",
    "runner_name": "福岡",
    "total_distance_km": 118.3,
    "latitude": 35.11358017758073,
    "longitude": 138.9013095704305,
    "current_leg": 2,
    "is_shadow_confederation": false
  },
  {
    "rank": 4,
    "team_name": "金沢大学",
    "team_short_name": "金沢",
    "runner_name": "小浜",
    "total_distance_km": 117.9,
    "latitude": 35.11565124061634,
    "longitude": 138.90490128568763,
    "current_leg": 2,
    "is_shadow_confederation": false
  },
  {
    "rank": 5,
    "team_name": "立命館大学",
    "team_short_name": "立命",
    "runner_name": "福知山",
    "total_distance_km": 117.5,
    "latitude": 35.11747360829829,
    "longitude": 138.90868470154516,
    "current_leg": 2,
    "is_shadow_confederation": false
  },
  {
    "rank": 6,
    "team_name": "三重大学",
    "team_short_name": "三重",
    "runner_name": "五條",
    "total_distance_km": 116.8,
    "latitude": 35.11949122167843,
    "longitude": 138.91586363292555,
    "current_leg": 2,
    "is_shadow_confederation": false
  },
  {
    "rank": 7,
    "team_name": "山梨学院大学",
    "team_short_name": "山学",
    "runner_name": "南信濃",
    "total_distance_km": 116.5,
    "latitude": 35.12003257175557,
    "longitude": 138.91908810806825,
    "current_leg": 2,
    "is_shadow_confederation": false
  },
  {
    "rank": 8,
    "team_name": "四国大学",
    "team_short_name": "四国",
    "runner_name": "大三島",
    "total_distance_km": 115.7,
    "latitude": 35.122063323517985,
    "longitude": 138.92746272362677,
    "current_leg": 2,
    "is_shadow_confederation": false
  },
  {
    "rank": 9,
    "team_name": "関西大学",
    "team_short_name": "関大",
    "runner_name": "和田山",
    "total_distance_km": 115.5,
    "latitude": 35.12277553802138,
    "longitude": 138.9294783553342,
    "current_leg": 2,
    "is_shadow_confederation": false
  },
  {
    "rank": 10,
    "team_name": "熊本学園大学",
    "team_short_name": "熊学",
    "runner_name": "岱明",
    "total_distance_km": 115.2,
    "latitude": 35.12383017276878,
    "longitude": 138.9324988690889,
    "current_leg": 2,
    "is_shadow_confederation": false
  },
  {
    "rank": 11,
    "team_name": "鳥取大学",
    "team_short_name": "鳥取",
    "runner_name": "鳥取",
    "total_distance_km": 114.2,
    "latitude": 35.128419526803505,
    "longitude": 138.94139630002414,
    "current_leg": 2,
    "is_shadow_confederation": false
  },
  {
    "rank": 12,
    "team_name": "上武大学",
    "team_short_name": "上武",
    "runner_name": "越谷",
    "total_distance_km": 110.2,
    "latitude": 35.14506530148624,
    "longitude": 138.9736378131444,
    "current_leg": 2,
    "is_shadow_confederation": false
  },
  {
    "rank": 13,
    "team_name": "広島経済大学",
    "team_short_name": "広経",
    "runner_name": "加計",
    "total_distance_km": 109.8,
    "latitude": 35.14646972511846,
    "longitude": 138.97738190904712,
    "current_leg": 2,
    "is_shadow_confederation": false
  },
  {
    "rank": 14,
    "team_name": "日本大学",
    "team_short_name": "日大",
    "runner_name": "古河",
    "total_distance_km": 108.6,
    "latitude": 35.149339302313614,
    "longitude": 138.98829649941058,
    "current_leg": 2,
    "is_shadow_confederation": false
  },
  {
    "rank": 15,
    "team_name": "鹿児島大学",
    "team_short_name": "鹿大",
    "runner_name": "川内（鹿児島）",
    "total_distance_km": 107.4,
    "latitude": 35.15649720371935,
    "longitude": 138.99583852053166,
    "current_leg": 2,
    "is_shadow_confederation": false
  },
  {
    "rank": 16,
    "team_name": "東北大学",
    "team_short_name": "東北",
    "runner_name": "帯広",
    "total_distance_km": 95.9,
    "latitude": 35.20978106554282,
    "longitude": 139.06002041321761,
    "current_leg": 1,
    "is_shadow_confederation": false
  },
  {
    "rank": 17,
    "team_name": "福島大学",
    "team_short_name": "福島",
    "runner_name": "梁川",
    "total_distance_km": 95.1,
    "latitude": 35.21278648331944,
    "longitude": 139.0613683718855,
    "current_leg": 1,
    "is_shadow_confederation": false
  },
  {
    "rank": 18,
    "team_name": "学連選抜",
    "team_short_name": "学連",
    "runner_name": "美幌",
    "total_distance_km": 86.4,
    "latitude": 35.246596844032666,
    "longitude": 139.13438197929986,
    "current_leg": 1,
    "is_shadow_confederation": false
  },
  {
    "rank": null,
    "team_name": "区間記録連合",
    "team_short_name": "区間記録",
    "runner_name": "佐野",
    "total_distance_km": 155.8,
    "latitude": 35.081709075340385,
    "longitude": 138.54714027750686,
    "current_leg": 2,
    "is_shadow_confederation": true
  }
]