[
  {
    "rank": 1,
    "team_name": "熊本学園大学",
    "team_short_name": "熊学",
    "runner_name": "岱明",
    "total_distance_km": 173.1,
    "latitude": 34.987603350604424,
    "longitude": 138.41322330701777,
    "is_shadow_confederation": false
  },
  {
    "rank": 2,
    "team_name": "琉球大学",
    "team_short_name": "琉球",
    "runner_name": "仲筋",
    "total_distance_km": 172.8,
    "latitude": 34.989264270542236,
    "longitude": 138.41581663190755,
    "is_shadow_confederation": false
  },
  {
    "rank": 3,
    "team_name": "鹿児島大学",
    "team_short_name": "鹿大",
    "runner_name": "川内（鹿児島）",
    "total_distance_km": 167.1,
    "latitude": 35.01704177351917,
    "longitude": 138.46736039900156,
    "is_shadow_confederation": false
  },
  {
    "rank": 4,
    "team_name": "福岡大学",
    "team_short_name": "福岡",
    "runner_name": "福岡",
    "total_distance_km": 166.5,
    "latitude": 35.0180142773798,
    "longitude": 138.47382720110704,
    "is_shadow_confederation": false
  },
  {
    "rank": 5,
    "team_name": "立命館大学",
    "team_short_name": "立命",
    "runner_name": "福知山",
    "total_distance_km": 164.6,
    "latitude": 35.026460078101216,
    "longitude": 138.48764144969599,
    "is_shadow_confederation": false
  },
  {
    "rank": 6,
    "team_name": "三重大学",
    "team_short_name": "三重",
    "runner_name": "五條",
    "total_distance_km": 161.5,
    "latitude": 35.04613598354459,
    "longitude": 138.5082526086436,
    "is_shadow_confederation": false
  },
  {
    "rank": 7,
    "team_name": "関西大学",
    "team_short_name": "関大",
    "runner_name": "和田山",
    "total_distance_km": 160.3,
    "latitude": 35.04992264722458,
    "longitude": 138.52003464881057,
    "is_shadow_confederation": false
  },
  {
    "rank": 8,
    "team_name": "広島経済大学",
    "team_short_name": "広経",
    "runner_name": "加計",
    "total_distance_km": 158.4,
    "latitude": 35.060521867610156,
    "longitude": 138.536154672033,
    "is_shadow_confederation": false
  },
  {
    "rank": 9,
    "team_name": "四国大学",
    "team_short_name": "四国",
    "runner_name": "大三島",
    "total_distance_km": 157.8,
    "latitude": 35.064851840773834,
    "longitude": 138.54003059642704,
    "is_shadow_confederation": false
  },
  {
    "rank": 10,
    "team_name": "名古屋大学",
    "team_short_name": "名大",
    "runner_name": "美濃",
    "total_distance_km": 156.6,
    "latitude": 35.07494459761993,
    "longitude": 138.5443182890945,
    "is_shadow_confederation": false
  },
  {
    "rank": 11,
    "team_name": "鳥取大学",
    "team_short_name": "鳥取",
    "runner_name": "鳥取",
    "total_distance_km": 155.4,
    "latitude": 35.08522822568046,
    "longitude": 138.54808979680476,
    "is_shadow_confederation": false
  },
  {
    "rank": 12,
    "team_name": "金沢大学",
    "team_short_name": "金沢",
    "runner_name": "小浜",
    "total_distance_km": 153.8,
    "latitude": 35.09902307658135,
    "longitude": 138.55308812572093,
    "is_shadow_confederation": false
  },
  {
    "rank": 13,
    "team_name": "山梨学院大学",
    "team_short_name": "山学",
    "runner_name": "南信濃",
    "total_distance_km": 147.5,
    "latitude": 35.11577321567577,
    "longitude": 138.61444748285783,
    "is_shadow_confederation": false
  },
  {
    "rank": 14,
    "team_name": "上武大学",
    "team_short_name": "上武",
    "runner_name": "越谷",
    "total_distance_km": 142.5,
    "latitude": 35.13611681222116,
    "longitude": 138.65700108992365,
    "is_shadow_confederation": false
  },
  {
    "rank": 15,
    "team_name": "日本大学",
    "team_short_name": "日大",
    "runner_name": "古河",
    "total_distance_km": 139.1,
    "latitude": 35.14559860364983,
    "longitude": 138.6912659899392,
    "is_shadow_confederation": false
  },
  {
    "rank": 16,
    "team_name": "福島大学",
    "team_short_name": "福島",
    "runner_name": "石川",
    "total_distance_km": 131.0,
    "latitude": 35.12850404649609,
    "longitude": 138.77649593338734,
    "is_shadow_confederation": false
  },
  {
    "rank": 17,
    "team_name": "東北大学",
    "team_short_name": "東北",
    "runner_name": "帯広",
    "total_distance_km": 110.8,
    "latitude": 35.14121969190941,
    "longitude": 138.96905957707764,
    "is_shadow_confederation": false
  },
  {
    "rank": 18,
    "team_name": "学連選抜",
    "team_short_name": "学連",
    "runner_name": "美幌",
    "total_distance_km": 98.7,
    "latitude": 35.19203207465343,
    "longitude": 139.0476224480491,
    "is_shadow_confederation": false
  }
]