[
  {
    "rank": 1,
    "team_name": "琉球大学",
    "team_short_name": "琉球",
    "runner_name": "盛山",
    "total_distance_km": 330.0,
    "latitude": 34.996709918471126,
    "longitude": 137.06900317513654,
    "is_shadow_confederation": false
  },
  {
    "rank": 2,
    "team_name": "熊本学園大学",
    "team_short_name": "熊学",
    "runner_name": "八代",
    "total_distance_km": 317.5,
    "latitude": 34.945760350820485,
    "longitude": 137.1888912465177,
    "is_shadow_confederation": false
  },
  {
    "rank": 3,
    "team_name": "立命館大学",
    "team_short_name": "立命",
    "runner_name": "京田辺",
    "total_distance_km": 311.8,
    "latitude": 34.909565272557714,
    "longitude": 137.22891530015644,
    "is_shadow_confederation": false
  },
  {
    "rank": 4,
    "team_name": "福岡大学",
    "team_short_name": "福岡",
    "runner_name": "黒木",
    "total_distance_km": 305.3,
    "latitude": 34.873808984640604,
    "longitude": 137.28123219263446,
    "is_shadow_confederation": false
  },
  {
    "rank": 5,
    "team_name": "四国大学",
    "team_short_name": "四国",
    "runner_name": "御荘",
    "total_distance_km": 301.1,
    "latitude": 34.8511245843626,
    "longitude": 137.31708445949454,
    "is_shadow_confederation": false
  },
  {
    "rank": 6,
    "team_name": "関西大学",
    "team_short_name": "関大",
    "runner_name": "上郡",
    "total_distance_km": 300.8,
    "latitude": 34.84879200174463,
    "longitude": 137.31874399578652,
    "is_shadow_confederation": false
  },
  {
    "rank": 7,
    "team_name": "鹿児島大学",
    "team_short_name": "鹿大",
    "runner_name": "加久藤",
    "total_distance_km": 300.0,
    "latitude": 34.84257178143003,
    "longitude": 137.3231694258985,
    "is_shadow_confederation": false
  },
  {
    "rank": 8,
    "team_name": "三重大学",
    "team_short_name": "三重",
    "runner_name": "小俣",
    "total_distance_km": 298.2,
    "latitude": 34.829426584610076,
    "longitude": 137.33398502498224,
    "is_shadow_confederation": false
  },
  {
    "rank": 9,
    "team_name": "名古屋大学",
    "team_short_name": "名大",
    "runner_name": "大垣",
    "total_distance_km": 297.9,
    "latitude": 34.828021945572225,
    "longitude": 137.33678739602644,
    "is_shadow_confederation": false
  },
  {
    "rank": 10,
    "team_name": "広島経済大学",
    "team_short_name": "広経",
    "runner_name": "府中（広島）",
    "total_distance_km": 296.3,
    "latitude": 34.817637177528105,
    "longitude": 137.3487033310796,
    "is_shadow_confederation": false
  },
  {
    "rank": 11,
    "team_name": "鳥取大学",
    "team_short_name": "鳥取",
    "runner_name": "広瀬",
    "total_distance_km": 293.7,
    "latitude": 34.798923770459076,
    "longitude": 137.36577255776987,
    "is_shadow_confederation": false
  },
  {
    "rank": 12,
    "team_name": "金沢大学",
    "team_short_name": "金沢",
    "runner_name": "七尾",
    "total_distance_km": 292.3,
    "latitude": 34.78893824960145,
    "longitude": 137.37511772483037,
    "is_shadow_confederation": false
  },
  {
    "rank": 13,
    "team_name": "山梨学院大学",
    "team_short_name": "山学",
    "runner_name": "大月",
    "total_distance_km": 289.9,
    "latitude": 34.77163332986008,
    "longitude": 137.390394160055,
    "is_shadow_confederation": false
  },
  {
    "rank": 14,
    "team_name": "上武大学",
    "team_short_name": "上武",
    "runner_name": "熊谷",
    "total_distance_km": 287.7,
    "latitude": 34.760161081609375,
    "longitude": 137.4064721234022,
    "is_shadow_confederation": false
  },
  {
    "rank": 15,
    "team_name": "日本大学",
    "team_short_name": "日大",
    "runner_name": "下館",
    "total_distance_km": 281.8,
    "latitude": 34.721616479710086,
    "longitude": 137.44290700355705,
    "is_shadow_confederation": false
  },
  {
    "rank": 16,
    "team_name": "福島大学",
    "team_short_name": "福島",
    "runner_name": "津川",
    "total_distance_km": 265.8,
    "latitude": 34.693923634931046,
    "longitude": 137.58439981404086,
    "is_shadow_confederation": false
  },
  {
    "rank": 17,
    "team_name": "東北大学",
    "team_short_name": "東北",
    "runner_name": "高畠",
    "total_distance_km": 252.4,
    "latitude": 34.696555534921146,
    "longitude": 137.72278368386478,
    "is_shadow_confederation": false
  },
  {
    "rank": 18,
    "team_name": "学連選抜",
    "team_short_name": "学連",
    "runner_name": "大村",
    "total_distance_km": 235.3,
    "latitude": 34.73687630912185,
    "longitude": 137.88320960825246,
    "is_shadow_confederation": false
  }
]