[
  {
    "rank": 1,
    "team_name": "名古屋大学",
    "team_short_name": "名大",
    "runner_name": "豊田（愛知）",
    "total_distance_km": 605.9,
    "latitude": 34.75025790638844,
    "longitude": 134.85719455642362,
    "is_shadow_confederation": false
  },
  {
    "rank": 2,
    "team_name": "四国大学",
    "team_short_name": "四国",
    "runner_name": "徳島",
    "total_distance_km": 600.2,
    "latitude": 34.7136469332582,
    "longitude": 134.89964401861394,
    "is_shadow_confederation": false
  },
  {
    "rank": 3,
    "team_name": "琉球大学",
    "team_short_name": "琉球",
    "runner_name": "久米島",
    "total_distance_km": 598.0,
    "latitude": 34.698072495633916,
    "longitude": 134.91425763133924,
    "is_shadow_confederation": false
  },
  {
    "rank": 4,
    "team_name": "熊本学園大学",
    "team_short_name": "熊学",
    "runner_name": "大分",
    "total_distance_km": 596.2,
    "latitude": 34.68870637713853,
    "longitude": 134.93026779893134,
    "is_shadow_confederation": false
  },
  {
    "rank": 5,
    "team_name": "立命館大学",
    "team_short_name": "立命",
    "runner_name": "彦根",
    "total_distance_km": 595.9,
    "latitude": 34.68724341609713,
    "longitude": 134.9330213063605,
    "is_shadow_confederation": false
  },
  {
    "rank": 6,
    "team_name": "関西大学",
    "team_short_name": "関大",
    "runner_name": "豊中",
    "total_distance_km": 594.6,
    "latitude": 34.68069821874217,
    "longitude": 134.94478388855435,
    "is_shadow_confederation": false
  },
  {
    "rank": 7,
    "team_name": "広島経済大学",
    "team_short_name": "広経",
    "runner_name": "高松（香川）",
    "total_distance_km": 594.5,
    "latitude": 34.68017367115744,
    "longitude": 134.9456711396608,
    "is_shadow_confederation": false
  },
  {
    "rank": 8,
    "team_name": "福岡大学",
    "team_short_name": "福岡",
    "runner_name": "博多",
    "total_distance_km": 594.3,
    "latitude": 34.678737621216946,
    "longitude": 134.94699053315145,
    "is_shadow_confederation": false
  },
  {
    "rank": 9,
    "team_name": "山梨学院大学",
    "team_short_name": "山学",
    "runner_name": "静岡",
    "total_distance_km": 586.8,
    "latitude": 34.64496907101512,
    "longitude": 135.01232063506356,
    "is_shadow_confederation": false
  },
  {
    "rank": 10,
    "team_name": "日本大学",
    "team_short_name": "日大",
    "runner_name": "八王子",
    "total_distance_km": 586.2,
    "latitude": 34.643060434141354,
    "longitude": 135.01842710740715,
    "is_shadow_confederation": false
  },
  {
    "rank": 11,
    "team_name": "三重大学",
    "team_short_name": "三重",
    "runner_name": "新宮",
    "total_distance_km": 585.7,
    "latitude": 34.640745731679,
    "longitude": 135.02310646648334,
    "is_shadow_confederation": false
  },
  {
    "rank": 12,
    "team_name": "鹿児島大学",
    "team_short_name": "鹿大",
    "runner_name": "笠利",
    "total_distance_km": 583.6,
    "latitude": 34.62878278512304,
    "longitude": 135.04024285129802,
    "is_shadow_confederation": false
  },
  {
    "rank": 13,
    "team_name": "鳥取大学",
    "team_short_name": "鳥取",
    "runner_name": "松江",
    "total_distance_km": 580.5,
    "latitude": 34.63080395484039,
    "longitude": 135.07356868680048,
    "is_shadow_confederation": false
  },
  {
    "rank": 14,
    "team_name": "上武大学",
    "team_short_name": "上武",
    "runner_name": "伊勢崎",
    "total_distance_km": 576.7,
    "latitude": 34.64301905820227,
    "longitude": 135.11140412983366,
    "is_shadow_confederation": false
  },
  {
    "rank": 15,
    "team_name": "金沢大学",
    "team_short_name": "金沢",
    "runner_name": "富山",
    "total_distance_km": 573.2,
    "latitude": 34.66092687050183,
    "longitude": 135.14215059936643,
    "is_shadow_confederation": false
  },
  {
    "rank": 16,
    "team_name": "福島大学",
    "team_short_name": "福島",
    "runner_name": "浪江",
    "total_distance_km": 561.3,
    "latitude": 34.7155737254655,
    "longitude": 135.2498454752839,
    "is_shadow_confederation": false
  },
  {
    "rank": 17,
    "team_name": "学連選抜",
    "team_short_name": "学連",
    "runner_name": "久世",
    "total_distance_km": 537.0,
    "latitude": 34.69775832456483,
    "longitude": 135.49289404513343,
    "is_shadow_confederation": false
  },
  {
    "rank": 18,
    "team_name": "東北大学",
    "team_short_name": "東北",
    "runner_name": "一関",
    "total_distance_km": 509.7,
    "latitude": 34.84257655743519,
    "longitude": 135.69931151238302,
    "is_shadow_confederation": false
  },
  {
    "rank": null,
    "team_name": "区間記録連合",
    "team_short_name": "区間記録",
    "runner_name": "勝沼",
    "total_distance_km": 623.2,
    "latitude": 34.83112211152772,
    "longitude": 134.7027240532772,
    "is_shadow_confederation": true
  }
]