[
  {
    "rank": 1,
    "team_name": "琉球大学",
    "team_short_name": "琉球",
    "runner_name": "仲筋",
    "total_distance_km": 213.3,
    "latitude": 34.81428925102028,
    "longitude": 138.0852989063285,
    "current_leg": 3,
    "is_shadow_confederation": false
  },
  {
    "rank": 2,
    "team_name": "名古屋大学",
    "team_short_name": "名大",
    "runner_name": "美濃",
    "total_distance_km": 198.5,
    "latitude": 34.86070651755186,
    "longitude": 138.20970059824015,
    "current_leg": 2,
    "is_shadow_confederation": false
  },
  {
    "rank": 3,
    "team_name": "山梨学院大学",
    "team_short_name": "山学",
    "runner_name": "南信濃",
    "total_distance_km": 186.6,
    "latitude": 34.925865456708436,
    "longitude": 138.3013772484561,
    "current_leg": 2,
    "is_shadow_confederation": false
  },
  {
    "rank": 4,
    "team_name": "三重大学",
    "team_short_name": "三重",
    "runner_name": "五條",
    "total_distance_km": 185.3,
    "latitude": 34.93622414926992,
    "longitude": 138.30771512544743,
    "current_leg": 2,
    "is_shadow_confederation": false
  },
  {
    "rank": 5,
    "team_name": "福岡大学",
    "team_short_name": "福岡",
    "runner_name": "福岡",
    "total_distance_km": 184.9,
    "latitude": 34.93825959014833,
    "longitude": 138.31105697670566,
    "current_leg": 2,
    "is_shadow_confederation": false
  },
  {
    "rank": 6,
    "team_name": "熊本学園大学",
    "team_short_name": "熊学",
    "runner_name": "岱明",
    "total_distance_km": 184.4,
    "latitude": 34.93895916558075,
    "longitude": 138.3164015534706,
    "current_leg": 2,
    "is_shadow_confederation": false
  },
  {
    "rank": 7,
    "team_name": "立命館大学",
    "team_short_name": "立命",
    "runner_name": "福知山",
    "total_distance_km": 183.6,
    "latitude": 34.941450871703616,
    "longitude": 138.32425801843468,
    "current_leg": 2,
    "is_shadow_confederation": false
  },
  {
    "rank": 8,
    "team_name": "上武大学",
    "team_short_name": "上武",
    "runner_name": "越谷",
    "total_distance_km": 182.6,
    "latitude": 34.948037873241766,
    "longitude": 138.33098306665,
    "current_leg": 2,
    "is_shadow_confederation": false
  },
  {
    "rank": 9,
    "team_name": "鹿児島大学",
    "team_short_name": "鹿大",
    "runner_name": "川内（鹿児島）",
    "total_distance_km": 182.2,
    "latitude": 34.950918704489965,
    "longitude": 138.33325768503633,
    "current_leg": 2,
    "is_shadow_confederation": false
  },
  {
    "rank": 10,
    "team_name": "金沢大学",
    "team_short_name": "金沢",
    "runner_name": "小浜",
    "total_distance_km": 182.0,
    "latitude": 34.95114064974302,
    "longitude": 138.33537360487665,
    "current_leg": 2,
    "is_shadow_confederation": false
  },
  {
    "rank": 11,
    "team_name": "日本大学",
    "team_short_name": "日大",
    "runner_name": "古河",
    "total_distance_km": 181.8,
    "latitude": 34.95084145813709,
    "longitude": 138.33751953921873,
    "current_leg": 2,
    "is_shadow_confederation": false
  },
  {
    "rank": 12,
    "team_name": "四国大学",
    "team_short_name": "四国",
    "runner_name": "大三島",
    "total_distance_km": 180.6,
    "latitude": 34.94863933454064,
    "longitude": 138.35037195461607,
    "current_leg": 2,
    "is_shadow_confederation": false
  },
  {
    "rank": 13,
    "team_name": "鳥取大学",
    "team_short_name": "鳥取",
    "runner_name": "鳥取",
    "total_distance_km": 179.5,
    "latitude": 34.950308970274676,
    "longitude": 138.36136104892938,
    "current_leg": 2,
    "is_shadow_confederation": false
  },
  {
    "rank": 14,
    "team_name": "関西大学",
    "team_short_name": "関大",
    "runner_name": "和田山",
    "total_distance_km": 179.4,
    "latitude": 34.950810752195004,
    "longitude": 138.36227051094502,
    "current_leg": 2,
    "is_shadow_confederation": false
  },
  {
    "rank": 15,
    "team_name": "広島経済大学",
    "team_short_name": "広経",
    "runner_name": "加計",
    "total_distance_km": 174.2,
    "latitude": 34.980419970703736,
    "longitude": 138.40508451874663,
    "current_leg": 2,
    "is_shadow_confederation": false
  },
  {
    "rank": 16,
    "team_name": "福島大学",
    "team_short_name": "福島",
    "runner_name": "石川",
    "total_distance_km": 152.8,
    "latitude": 35.10619716646251,
    "longitude": 138.5592172495859,
    "current_leg": 2,
    "is_shadow_confederation": false
  },
  {
    "rank": 17,
    "team_name": "東北大学",
    "team_short_name": "東北",
    "runner_name": "山形（山形）",
    "total_distance_km": 148.3,
    "latitude": 35.11610828147666,
    "longitude": 138.60568111203457,
    "current_leg": 2,
    "is_shadow_confederation": false
  },
  {
    "rank": 18,
    "team_name": "学連選抜",
    "team_short_name": "学連",
    "runner_name": "新潟",
    "total_distance_km": 144.1,
    "latitude": 35.130874503397294,
    "longitude": 138.64064702802318,
    "current_leg": 2,
    "is_shadow_confederation": false
  },
  {
    "rank": null,
    "team_name": "区間記録連合",
    "team_short_name": "区間記録",
    "runner_name": "佐野",
    "total_distance_km": 194.6,
    "latitude": 34.882058875284166,
    "longitude": 138.2406909645627,
    "current_leg": 2,
    "is_shadow_confederation": true
  }
]