[
  {
    "rank": 1,
    "team_name": "琉球大学",
    "team_short_name": "琉球",
    "runner_name": "仲筋",
    "total_distance_km": 187.0,
    "latitude": 34.924195333039954,
    "longitude": 138.29779336854483,
    "is_shadow_confederation": false
  },
  {
    "rank": 2,
    "team_name": "鹿児島大学",
    "team_short_name": "鹿大",
    "runner_name": "川内（鹿児島）",
    "total_distance_km": 137.9,
    "latitude": 35.14312378431011,
    "longitude": 138.70335812583212,
    "is_shadow_confederation": false
  },
  {
    "rank": 3,
    "team_name": "熊本学園大学",
    "team_short_name": "熊学",
    "runner_name": "岱明",
    "total_distance_km": 133.1,
    "latitude": 35.13323152472436,
    "longitude": 138.75419908532922,
    "is_shadow_confederation": false
  },
  {
    "rank": 4,
    "team_name": "福岡大学",
    "team_short_name": "福岡",
    "runner_name": "福岡",
    "total_distance_km": 123.1,
    "latitude": 35.09968288458857,
    "longitude": 138.8545069240307,
    "is_shadow_confederation": false
  },
  {
    "rank": 5,
    "team_name": "名古屋大学",
    "team_short_name": "名大",
    "runner_name": "美濃加茂",
    "total_distance_km": 109.9,
    "latitude": 35.146112434324316,
    "longitude": 138.97637989814,
    "is_shadow_confederation": false
  },
  {
    "rank": 6,
    "team_name": "四国大学",
    "team_short_name": "四国",
    "runner_name": "穴吹",
    "total_distance_km": 109.2,
    "latitude": 35.14916341319797,
    "longitude": 138.98301393329365,
    "is_shadow_confederation": false
  },
  {
    "rank": 7,
    "team_name": "三重大学",
    "team_short_name": "三重",
    "runner_name": "粥見",
    "total_distance_km": 108.6,
    "latitude": 35.149339302313614,
    "longitude": 138.98829649941058,
    "is_shadow_confederation": false
  },
  {
    "rank": 8,
    "team_name": "上武大学",
    "team_short_name": "上武",
    "runner_name": "佐野",
    "total_distance_km": 104.7,
    "latitude": 35.17171115322894,
    "longitude": 139.0122544735485,
    "is_shadow_confederation": false
  },
  {
    "rank": 9,
    "team_name": "日本大学",
    "team_short_name": "日大",
    "runner_name": "大子",
    "total_distance_km": 104.5,
    "latitude": 35.171860551402915,
    "longitude": 139.0101705747441,
    "is_shadow_confederation": false
  },
  {
    "rank": 10,
    "team_name": "関西大学",
    "team_short_name": "関大",
    "runner_name": "福崎",
    "total_distance_km": 99.4,
    "latitude": 35.188863742547525,
    "longitude": 139.04179544827448,
    "is_shadow_confederation": false
  },
  {
    "rank": 11,
    "team_name": "鳥取大学",
    "team_short_name": "鳥取",
    "runner_name": "川本",
    "total_distance_km": 93.0,
    "latitude": 35.219127782647455,
    "longitude": 139.07412319884236,
    "is_shadow_confederation": false
  },
  {
    "rank": 12,
    "team_name": "広島経済大学",
    "team_short_name": "広経",
    "runner_name": "三次",
    "total_distance_km": 91.0,
    "latitude": 35.22560283602375,
    "longitude": 139.0935561435529,
    "is_shadow_confederation": false
  },
  {
    "rank": 13,
    "team_name": "立命館大学",
    "team_short_name": "立命",
    "runner_name": "東近江",
    "total_distance_km": 89.7,
    "latitude": 35.22963962145603,
    "longitude": 139.10657341327564,
    "is_shadow_confederation": false
  },
  {
    "rank": 14,
    "team_name": "福島大学",
    "team_short_name": "福島",
    "runner_name": "梁川",
    "total_distance_km": 88.3,
    "latitude": 35.23792031724728,
    "longitude": 139.11712205641655,
    "is_shadow_confederation": false
  },
  {
    "rank": 15,
    "team_name": "金沢大学",
    "team_short_name": "金沢",
    "runner_name": "秋ヶ島",
    "total_distance_km": 68.7,
    "latitude": 35.30734061741646,
    "longitude": 139.30468294321892,
    "is_shadow_confederation": false
  },
  {
    "rank": 16,
    "team_name": "山梨学院大学",
    "team_short_name": "山学",
    "runner_name": "長野",
    "total_distance_km": 63.2,
    "latitude": 35.316384649813116,
    "longitude": 139.36088133131952,
    "is_shadow_confederation": false
  },
  {
    "rank": 17,
    "team_name": "東北大学",
    "team_short_name": "東北",
    "runner_name": "帯広",
    "total_distance_km": 55.8,
    "latitude": 35.323643866092965,
    "longitude": 139.43795675948348,
    "is_shadow_confederation": false
  },
  {
    "rank": 18,
    "team_name": "学連選抜",
    "team_short_name": "学連",
    "runner_name": "美幌",
    "total_distance_km": 8.1,
    "latitude": 35.62146230902115,
    "longitude": 139.73938205832977,
    "is_shadow_confederation": false
  },
  {
    "rank": null,
    "team_name": "区間記録連合",
    "team_short_name": "区間記録",
    "runner_name": "佐野",
    "total_distance_km": 260.0,
    "latitude": 34.683013508022064,
    "longitude": 137.6449031934989,
    "is_shadow_confederation": true
  }
]