[
  {
    "rank": 1,
    "team_name": "琉球大学",
    "team_short_name": "琉球",
    "runner_name": "大原",
    "total_distance_km": 922.1,
    "latitude": 34.09851882639881,
    "longitude": 132.08461343758927,
    "is_shadow_confederation": false
  },
  {
    "rank": 2,
    "team_name": "鹿児島大学",
    "team_short_name": "鹿大",
    "runner_name": "さつま柏原",
    "total_distance_km": 774.3,
    "latitude": 34.458096972485166,
    "longitude": 133.27514406724677,
    "is_shadow_confederation": false
  },
  {
    "rank": 3,
    "team_name": "熊本学園大学",
    "team_short_name": "熊学",
    "runner_name": "犬飼",
    "total_distance_km": 747.2,
    "latitude": 34.50049696840857,
    "longitude": 133.54060262699113,
    "is_shadow_confederation": false
  },
  {
    "rank": 4,
    "team_name": "福岡大学",
    "team_short_name": "福岡",
    "runner_name": "口之津",
    "total_distance_km": 733.6,
    "latitude": 34.55558826063768,
    "longitude": 133.6677009994899,
    "is_shadow_confederation": false
  },
  {
    "rank": 5,
    "team_name": "四国大学",
    "team_short_name": "四国",
    "runner_name": "新居浜",
    "total_distance_km": 696.3,
    "latitude": 34.69423164190935,
    "longitude": 134.012841592843,
    "is_shadow_confederation": false
  },
  {
    "rank": 6,
    "team_name": "広島経済大学",
    "team_short_name": "広経",
    "runner_name": "福山",
    "total_distance_km": 676.3,
    "latitude": 34.75530882162848,
    "longitude": 134.2091962152849,
    "is_shadow_confederation": false
  },
  {
    "rank": 7,
    "team_name": "鳥取大学",
    "team_short_name": "鳥取",
    "runner_name": "米子",
    "total_distance_km": 661.4,
    "latitude": 34.84279578805911,
    "longitude": 134.32099338697475,
    "is_shadow_confederation": false
  },
  {
    "rank": 8,
    "team_name": "名古屋大学",
    "team_short_name": "名大",
    "runner_name": "名古屋",
    "total_distance_km": 660.0,
    "latitude": 34.84269610086922,
    "longitude": 134.33557623699573,
    "is_shadow_confederation": false
  },
  {
    "rank": 8,
    "team_name": "関西大学",
    "team_short_name": "関大",
    "runner_name": "八尾（大阪）",
    "total_distance_km": 660.0,
    "latitude": 34.84269610086922,
    "longitude": 134.33557623699573,
    "is_shadow_confederation": false
  },
  {
    "rank": 10,
    "team_name": "三重大学",
    "team_short_name": "三重",
    "runner_name": "新宮",
    "total_distance_km": 651.7,
    "latitude": 34.83305877463334,
    "longitude": 134.4181718192419,
    "is_shadow_confederation": false
  },
  {
    "rank": 11,
    "team_name": "立命館大学",
    "team_short_name": "立命",
    "runner_name": "彦根",
    "total_distance_km": 637.5,
    "latitude": 34.83321885441817,
    "longitude": 134.5639239809272,
    "is_shadow_confederation": false
  },
  {
    "rank": 12,
    "team_name": "上武大学",
    "team_short_name": "上武",
    "runner_name": "伊勢崎",
    "total_distance_km": 617.3,
    "latitude": 34.80463918154533,
    "longitude": 134.7570659699567,
    "is_shadow_confederation": false
  },
  {
    "rank": 13,
    "team_name": "金沢大学",
    "team_short_name": "金沢",
    "runner_name": "富山",
    "total_distance_km": 616.5,
    "latitude": 34.79990777327437,
    "longitude": 134.76366355121104,
    "is_shadow_confederation": false
  },
  {
    "rank": 14,
    "team_name": "日本大学",
    "team_short_name": "日大",
    "runner_name": "八王子",
    "total_distance_km": 615.8,
    "latitude": 34.79579015767301,
    "longitude": 134.76945233476889,
    "is_shadow_confederation": false
  },
  {
    "rank": 15,
    "team_name": "山梨学院大学",
    "team_short_name": "山学",
    "runner_name": "静岡",
    "total_distance_km": 599.8,
    "latitude": 34.71068089575375,
    "longitude": 134.9021268047052,
    "is_shadow_confederation": false
  },
  {
    "rank": 16,
    "team_name": "学連選抜",
    "team_short_name": "学連",
    "runner_name": "多度津",
    "total_distance_km": 561.6,
    "latitude": 34.714522772146815,
    "longitude": 135.24682802111815,
    "is_shadow_confederation": false
  },
  {
    "rank": 17,
    "team_name": "福島大学",
    "team_short_name": "福島",
    "runner_name": "浪江",
    "total_distance_km": 542.7,
    "latitude": 34.71842643871382,
    "longitude": 135.44424092777027,
    "is_shadow_confederation": false
  },
  {
    "rank": 18,
    "team_name": "東北大学",
    "team_short_name": "東北",
    "runner_name": "一関",
    "total_distance_km": 460.3,
    "latitude": 35.03043125665837,
    "longitude": 136.00917515066286,
    "is_shadow_confederation": false
  }
]