[
  {
    "rank": 1,
    "team_name": "琉球大学",
    "team_short_name": "琉球",
    "runner_name": "盛山",
    "total_distance_km": 259.0,
    "latitude": 34.684456631465856,
    "longitude": 137.65567405370308,
    "is_shadow_confederation": false
  },
  {
    "rank": 2,
    "team_name": "鹿児島大学",
    "team_short_name": "鹿大",
    "runner_name": "川内（鹿児島）",
    "total_distance_km": 187.1,
    "latitude": 34.92399268508156,
    "longitude": 138.29672696255847,
    "is_shadow_confederation": false
  },
  {
    "rank": 3,
    "team_name": "熊本学園大学",
    "team_short_name": "熊学",
    "runner_name": "岱明",
    "total_distance_km": 181.8,
    "latitude": 34.95084145813709,
    "longitude": 138.33751953921873,
    "is_shadow_confederation": false
  },
  {
    "rank": 4,
    "team_name": "福岡大学",
    "team_short_name": "福岡",
    "runner_name": "福岡",
    "total_distance_km": 168.2,
    "latitude": 35.014452502282694,
    "longitude": 138.4558106038865,
    "is_shadow_confederation": false
  },
  {
    "rank": 5,
    "team_name": "名古屋大学",
    "team_short_name": "名大",
    "runner_name": "美濃",
    "total_distance_km": 155.3,
    "latitude": 35.0860990276182,
    "longitude": 138.54837296364494,
    "is_shadow_confederation": false
  },
  {
    "rank": 6,
    "team_name": "四国大学",
    "team_short_name": "四国",
    "runner_name": "大三島",
    "total_distance_km": 151.5,
    "latitude": 35.111177858336106,
    "longitude": 138.5721183352282,
    "is_shadow_confederation": false
  },
  {
    "rank": 7,
    "team_name": "日本大学",
    "team_short_name": "日大",
    "runner_name": "古河",
    "total_distance_km": 147.9,
    "latitude": 35.11594074857622,
    "longitude": 138.6100642974462,
    "is_shadow_confederation": false
  },
  {
    "rank": 8,
    "team_name": "三重大学",
    "team_short_name": "三重",
    "runner_name": "五條",
    "total_distance_km": 147.6,
    "latitude": 35.11581509890089,
    "longitude": 138.6133516865049,
    "is_shadow_confederation": false
  },
  {
    "rank": 8,
    "team_name": "上武大学",
    "team_short_name": "上武",
    "runner_name": "越谷",
    "total_distance_km": 147.6,
    "latitude": 35.11581509890089,
    "longitude": 138.6133516865049,
    "is_shadow_confederation": false
  },
  {
    "rank": 10,
    "team_name": "広島経済大学",
    "team_short_name": "広経",
    "runner_name": "加計",
    "total_distance_km": 133.9,
    "latitude": 35.135201820446426,
    "longitude": 138.74575530050055,
    "is_shadow_confederation": false
  },
  {
    "rank": 11,
    "team_name": "鳥取大学",
    "team_short_name": "鳥取",
    "runner_name": "鳥取",
    "total_distance_km": 131.7,
    "latitude": 35.13026170677559,
    "longitude": 138.76911986496694,
    "is_shadow_confederation": false
  },
  {
    "rank": 12,
    "team_name": "関西大学",
    "team_short_name": "関大",
    "runner_name": "和田山",
    "total_distance_km": 131.6,
    "latitude": 35.13001061244995,
    "longitude": 138.770173589027,
    "is_shadow_confederation": false
  },
  {
    "rank": 13,
    "team_name": "立命館大学",
    "team_short_name": "立命",
    "runner_name": "福知山",
    "total_distance_km": 122.6,
    "latitude": 35.099329892341984,
    "longitude": 138.85996039186176,
    "is_shadow_confederation": false
  },
  {
    "rank": 14,
    "team_name": "福島大学",
    "team_short_name": "福島",
    "runner_name": "石川",
    "total_distance_km": 119.5,
    "latitude": 35.10651630713389,
    "longitude": 138.89190177253494,
    "is_shadow_confederation": false
  },
  {
    "rank": 15,
    "team_name": "金沢大学",
    "team_short_name": "金沢",
    "runner_name": "秋ヶ島",
    "total_distance_km": 99.5,
    "latitude": 35.188419444536926,
    "longitude": 139.04088592252683,
    "is_shadow_confederation": false
  },
  {
    "rank": 16,
    "team_name": "山梨学院大学",
    "team_short_name": "山学",
    "runner_name": "長野",
    "total_distance_km": 89.7,
    "latitude": 35.22963962145603,
    "longitude": 139.10657341327564,
    "is_shadow_confederation": false
  },
  {
    "rank": 17,
    "team_name": "東北大学",
    "team_short_name": "東北",
    "runner_name": "帯広",
    "total_distance_km": 74.5,
    "latitude": 35.29327455211698,
    "longitude": 139.24450568774986,
    "is_shadow_confederation": false
  },
  {
    "rank": 18,
    "team_name": "学連選抜",
    "team_short_name": "学連",
    "runner_name": "美幌",
    "total_distance_km": 16.8,
    "latitude": 35.54923911110844,
    "longitude": 139.71552621125974,
    "is_shadow_confederation": false
  },
  {
    "rank": null,
    "team_name": "区間記録連合",
    "team_short_name": "区間記録",
    "runner_name": "伊勢崎",
    "total_distance_km": 290.2,
    "latitude": 34.77412854147259,
    "longitude": 137.38940821275787,
    "is_shadow_confederation": true
  }
]