[
  {
    "rank": 1,
    "team_name": "琉球大学",
    "team_short_name": "琉球",
    "runner_name": "波照間",
    "total_distance_km": 514.2,
    "latitude": 34.812554456087724,
    "longitude": 135.6666017977251,
    "is_shadow_confederation": false
  },
  {
    "rank": 2,
    "team_name": "熊本学園大学",
    "team_short_name": "熊学",
    "runner_name": "熊本",
    "total_distance_km": 494.7,
    "latitude": 34.96400493446509,
    "longitude": 135.74592018370188,
    "is_shadow_confederation": false
  },
  {
    "rank": 3,
    "team_name": "福岡大学",
    "team_short_name": "福岡",
    "runner_name": "前原",
    "total_distance_km": 477.5,
    "latitude": 35.00062413491558,
    "longitude": 135.8589036832524,
    "is_shadow_confederation": false
  },
  {
    "rank": 4,
    "team_name": "鹿児島大学",
    "team_short_name": "鹿大",
    "runner_name": "西都",
    "total_distance_km": 472.0,
    "latitude": 34.97790809737398,
    "longitude": 135.9036024547153,
    "is_shadow_confederation": false
  },
  {
    "rank": 5,
    "team_name": "立命館大学",
    "team_short_name": "立命",
    "runner_name": "舞鶴",
    "total_distance_km": 469.2,
    "latitude": 34.98749548671669,
    "longitude": 135.9306666223427,
    "is_shadow_confederation": false
  },
  {
    "rank": 6,
    "team_name": "名古屋大学",
    "team_short_name": "名大",
    "runner_name": "多治見",
    "total_distance_km": 468.6,
    "latitude": 34.99066799576137,
    "longitude": 135.93594332667888,
    "is_shadow_confederation": false
  },
  {
    "rank": 7,
    "team_name": "関西大学",
    "team_short_name": "関大",
    "runner_name": "枚方",
    "total_distance_km": 468.3,
    "latitude": 34.992473878960794,
    "longitude": 135.93838912873647,
    "is_shadow_confederation": false
  },
  {
    "rank": 8,
    "team_name": "四国大学",
    "team_short_name": "四国",
    "runner_name": "大洲",
    "total_distance_km": 465.2,
    "latitude": 35.01231982099288,
    "longitude": 135.96219121594459,
    "is_shadow_confederation": false
  },
  {
    "rank": 9,
    "team_name": "広島経済大学",
    "team_short_name": "広経",
    "runner_name": "高梁",
    "total_distance_km": 463.9,
    "latitude": 35.02049271105119,
    "longitude": 135.9721684816235,
    "is_shadow_confederation": false
  },
  {
    "rank": 10,
    "team_name": "鳥取大学",
    "team_short_name": "鳥取",
    "runner_name": "境",
    "total_distance_km": 462.0,
    "latitude": 35.025403826427905,
    "longitude": 135.99187388278767,
    "is_shadow_confederation": false
  },
  {
    "rank": 11,
    "team_name": "上武大学",
    "team_short_name": "上武",
    "runner_name": "桐生",
    "total_distance_km": 459.4,
    "latitude": 35.03169978851065,
    "longitude": 136.0189163816375,
    "is_shadow_confederation": false
  },
  {
    "rank": 12,
    "team_name": "三重大学",
    "team_short_name": "三重",
    "runner_name": "奈良",
    "total_distance_km": 455.4,
    "latitude": 35.01694428401771,
    "longitude": 136.05864282962804,
    "is_shadow_confederation": false
  },
  {
    "rank": 12,
    "team_name": "山梨学院大学",
    "team_short_name": "山学",
    "runner_name": "甲府",
    "total_distance_km": 455.4,
    "latitude": 35.01694428401771,
    "longitude": 136.05864282962804,
    "is_shadow_confederation": false
  },
  {
    "rank": 14,
    "team_name": "金沢大学",
    "team_short_name": "金沢",
    "runner_name": "福井",
    "total_distance_km": 453.0,
    "latitude": 35.00481038498607,
    "longitude": 136.0804112513448,
    "is_shadow_confederation": false
  },
  {
    "rank": 15,
    "team_name": "日本大学",
    "team_short_name": "日大",
    "runner_name": "牛久",
    "total_distance_km": 446.8,
    "latitude": 34.98393574368739,
    "longitude": 136.13901778296588,
    "is_shadow_confederation": false
  },
  {
    "rank": 16,
    "team_name": "福島大学",
    "team_short_name": "福島",
    "runner_name": "福島",
    "total_distance_km": 424.6,
    "latitude": 34.89142205581393,
    "longitude": 136.33647011786465,
    "is_shadow_confederation": false
  },
  {
    "rank": 17,
    "team_name": "東北大学",
    "team_short_name": "東北",
    "runner_name": "大館",
    "total_distance_km": 416.7,
    "latitude": 34.85285437990844,
    "longitude": 136.39007206084102,
    "is_shadow_confederation": false
  },
  {
    "rank": 18,
    "team_name": "学連選抜",
    "team_short_name": "学連",
    "runner_name": "上",
    "total_distance_km": 404.1,
    "latitude": 34.87699201024211,
    "longitude": 136.50667409143793,
    "is_shadow_confederation": false
  }
]