[
  {
    "rank": 1,
    "team_name": "琉球大学",
    "team_short_name": "琉球",
    "runner_name": "那覇",
    "total_distance_km": 721.3,
    "latitude": 34.60832769583003,
    "longitude": 133.77708555075012,
    "is_shadow_confederation": false
  },
  {
    "rank": 2,
    "team_name": "鹿児島大学",
    "team_short_name": "鹿大",
    "runner_name": "笠利",
    "total_distance_km": 625.4,
    "latitude": 34.83545208739942,
    "longitude": 134.67930464440357,
    "is_shadow_confederation": false
  },
  {
    "rank": 3,
    "team_name": "熊本学園大学",
    "team_short_name": "熊学",
    "runner_name": "大分",
    "total_distance_km": 615.2,
    "latitude": 34.795042014714525,
    "longitude": 134.77585722710023,
    "is_shadow_confederation": false
  },
  {
    "rank": 4,
    "team_name": "福岡大学",
    "team_short_name": "福岡",
    "runner_name": "博多",
    "total_distance_km": 589.6,
    "latitude": 34.64910517117181,
    "longitude": 134.9824996249009,
    "is_shadow_confederation": false
  },
  {
    "rank": 5,
    "team_name": "四国大学",
    "team_short_name": "四国",
    "runner_name": "徳島",
    "total_distance_km": 563.7,
    "latitude": 34.707166098916005,
    "longitude": 135.22570584195768,
    "is_shadow_confederation": false
  },
  {
    "rank": 6,
    "team_name": "広島経済大学",
    "team_short_name": "広経",
    "runner_name": "高松（香川）",
    "total_distance_km": 546.5,
    "latitude": 34.72390753610042,
    "longitude": 135.40388646704915,
    "is_shadow_confederation": false
  },
  {
    "rank": 7,
    "team_name": "鳥取大学",
    "team_short_name": "鳥取",
    "runner_name": "境",
    "total_distance_km": 533.6,
    "latitude": 34.69791123327657,
    "longitude": 135.52950376593503,
    "is_shadow_confederation": false
  },
  {
    "rank": 8,
    "team_name": "名古屋大学",
    "team_short_name": "名大",
    "runner_name": "多治見",
    "total_distance_km": 532.7,
    "latitude": 34.69984248899447,
    "longitude": 135.53904428038484,
    "is_shadow_confederation": false
  },
  {
    "rank": 9,
    "team_name": "関西大学",
    "team_short_name": "関大",
    "runner_name": "枚方",
    "total_distance_km": 527.4,
    "latitude": 34.73751973442608,
    "longitude": 135.56265312025582,
    "is_shadow_confederation": false
  },
  {
    "rank": 10,
    "team_name": "立命館大学",
    "team_short_name": "立命",
    "runner_name": "舞鶴",
    "total_distance_km": 520.7,
    "latitude": 34.778110130143624,
    "longitude": 135.61646785800963,
    "is_shadow_confederation": false
  },
  {
    "rank": 11,
    "team_name": "三重大学",
    "team_short_name": "三重",
    "runner_name": "奈良",
    "total_distance_km": 509.8,
    "latitude": 34.84184183984181,
    "longitude": 135.6986781234614,
    "is_shadow_confederation": false
  },
  {
    "rank": 12,
    "team_name": "日本大学",
    "team_short_name": "日大",
    "runner_name": "牛久",
    "total_distance_km": 499.4,
    "latitude": 34.921652209909915,
    "longitude": 135.74465972673275,
    "is_shadow_confederation": false
  },
  {
    "rank": 13,
    "team_name": "金沢大学",
    "team_short_name": "金沢",
    "runner_name": "福井",
    "total_distance_km": 498.4,
    "latitude": 34.93066370395221,
    "longitude": 135.74491600500826,
    "is_shadow_confederation": false
  },
  {
    "rank": 14,
    "team_name": "上武大学",
    "team_short_name": "上武",
    "runner_name": "桐生",
    "total_distance_km": 498.2,
    "latitude": 34.93246600276067,
    "longitude": 135.74496726066337,
    "is_shadow_confederation": false
  },
  {
    "rank": 15,
    "team_name": "山梨学院大学",
    "team_short_name": "山学",
    "runner_name": "甲府",
    "total_distance_km": 473.3,
    "latitude": 34.98241018951135,
    "longitude": 135.89068582351985,
    "is_shadow_confederation": false
  },
  {
    "rank": 16,
    "team_name": "学連選抜",
    "team_short_name": "学連",
    "runner_name": "久世",
    "total_distance_km": 438.3,
    "latitude": 34.9537296835125,
    "longitude": 136.22198070301314,
    "is_shadow_confederation": false
  },
  {
    "rank": 17,
    "team_name": "福島大学",
    "team_short_name": "福島",
    "runner_name": "福島",
    "total_distance_km": 437.5,
    "latitude": 34.95022665007836,
    "longitude": 136.22952237119222,
    "is_shadow_confederation": false
  },
  {
    "rank": 18,
    "team_name": "東北大学",
    "team_short_name": "東北",
    "runner_name": "大館",
    "total_distance_km": 370.1,
    "latitude": 35.10165220369927,
    "longitude": 136.70732854835853,
    "is_shadow_confederation": false
  }
]