[
  {
    "rank": 1,
    "team_name": "琉球大学",
    "team_short_name": "琉球",
    "runner_name": "波照間",
    "total_distance_km": 448.7,
    "latitude": 34.98516530368033,
    "longitude": 136.1189555104228,
    "is_shadow_confederation": false
  },
  {
    "rank": 2,
    "team_name": "熊本学園大学",
    "team_short_name": "熊学",
    "runner_name": "人吉",
    "total_distance_km": 405.2,
    "latitude": 34.87508527317766,
    "longitude": 136.49542327552453,
    "is_shadow_confederation": false
  },
  {
    "rank": 3,
    "team_name": "鹿児島大学",
    "team_short_name": "鹿大",
    "runner_name": "西米良",
    "total_distance_km": 390.4,
    "latitude": 34.95021096564537,
    "longitude": 136.60840911048416,
    "is_shadow_confederation": false
  },
  {
    "rank": 4,
    "team_name": "福岡大学",
    "team_short_name": "福岡",
    "runner_name": "朝倉",
    "total_distance_km": 379.7,
    "latitude": 35.02680285920861,
    "longitude": 136.67164080279005,
    "is_shadow_confederation": false
  },
  {
    "rank": 5,
    "team_name": "四国大学",
    "team_short_name": "四国",
    "runner_name": "松山",
    "total_distance_km": 367.3,
    "latitude": 35.11358929573334,
    "longitude": 136.73394505777958,
    "is_shadow_confederation": false
  },
  {
    "rank": 6,
    "team_name": "広島経済大学",
    "team_short_name": "広経",
    "runner_name": "大竹",
    "total_distance_km": 355.9,
    "latitude": 35.12425471388855,
    "longitude": 136.85666135156336,
    "is_shadow_confederation": false
  },
  {
    "rank": 7,
    "team_name": "鳥取大学",
    "team_short_name": "鳥取",
    "runner_name": "防府",
    "total_distance_km": 339.8,
    "latitude": 35.056943163918255,
    "longitude": 136.99251300291007,
    "is_shadow_confederation": false
  },
  {
    "rank": 8,
    "team_name": "関西大学",
    "team_short_name": "関大",
    "runner_name": "柏原",
    "total_distance_km": 339.5,
    "latitude": 35.055026314683275,
    "longitude": 136.99480555284927,
    "is_shadow_confederation": false
  },
  {
    "rank": 9,
    "team_name": "立命館大学",
    "team_short_name": "立命",
    "runner_name": "米原",
    "total_distance_km": 337.4,
    "latitude": 35.040808896284254,
    "longitude": 137.00970885116368,
    "is_shadow_confederation": false
  },
  {
    "rank": 10,
    "team_name": "名古屋大学",
    "team_short_name": "名大",
    "runner_name": "愛西",
    "total_distance_km": 336.1,
    "latitude": 35.03152640724602,
    "longitude": 137.0183751948635,
    "is_shadow_confederation": false
  },
  {
    "rank": 11,
    "team_name": "三重大学",
    "team_short_name": "三重",
    "runner_name": "風屋",
    "total_distance_km": 329.1,
    "latitude": 34.99301773839096,
    "longitude": 137.07778127696068,
    "is_shadow_confederation": false
  },
  {
    "rank": 12,
    "team_name": "金沢大学",
    "team_short_name": "金沢",
    "runner_name": "七尾",
    "total_distance_km": 314.1,
    "latitude": 34.91979040404775,
    "longitude": 137.20738499631258,
    "is_shadow_confederation": false
  },
  {
    "rank": 13,
    "team_name": "上武大学",
    "team_short_name": "上武",
    "runner_name": "熊谷",
    "total_distance_km": 302.5,
    "latitude": 34.86078921454042,
    "longitude": 137.3072593273051,
    "is_shadow_confederation": false
  },
  {
    "rank": 14,
    "team_name": "日本大学",
    "team_short_name": "日大",
    "runner_name": "下館",
    "total_distance_km": 301.0,
    "latitude": 34.850347056823274,
    "longitude": 137.31763763825853,
    "is_shadow_confederation": false
  },
  {
    "rank": 15,
    "team_name": "山梨学院大学",
    "team_short_name": "山学",
    "runner_name": "大月",
    "total_distance_km": 284.2,
    "latitude": 34.73362233805679,
    "longitude": 137.42449597257706,
    "is_shadow_confederation": false
  },
  {
    "rank": 16,
    "team_name": "福島大学",
    "team_short_name": "福島",
    "runner_name": "津川",
    "total_distance_km": 279.8,
    "latitude": 34.71850501958941,
    "longitude": 137.4637736915367,
    "is_shadow_confederation": false
  },
  {
    "rank": 17,
    "team_name": "学連選抜",
    "team_short_name": "学連",
    "runner_name": "大村",
    "total_distance_km": 231.0,
    "latitude": 34.75190904165781,
    "longitude": 137.9262160064795,
    "is_shadow_confederation": false
  },
  {
    "rank": 18,
    "team_name": "東北大学",
    "team_short_name": "東北",
    "runner_name": "高畠",
    "total_distance_km": 227.5,
    "latitude": 34.76303682065953,
    "longitude": 137.96116045960807,
    "is_shadow_confederation": false
  }
]