[
  {
    "rank": 1,
    "team_name": "琉球大学",
    "team_short_name": "琉球",
    "runner_name": "石垣島",
    "total_distance_km": 973.6,
    "latitude": 34.040390741227924,
    "longitude": 131.62238638574817,
    "is_shadow_confederation": false
  },
  {
    "rank": 2,
    "team_name": "鹿児島大学",
    "team_short_name": "鹿大",
    "runner_name": "さつま柏原",
    "total_distance_km": 806.9,
    "latitude": 34.402094415208246,
    "longitude": 132.99464893783917,
    "is_shadow_confederation": false
  },
  {
    "rank": 3,
    "team_name": "熊本学園大学",
    "team_short_name": "熊学",
    "runner_name": "三角",
    "total_distance_km": 786.2,
    "latitude": 34.4035083978393,
    "longitude": 133.19232905104022,
    "is_shadow_confederation": false
  },
  {
    "rank": 4,
    "team_name": "福岡大学",
    "team_short_name": "福岡",
    "runner_name": "大牟田",
    "total_distance_km": 770.1,
    "latitude": 34.475256940532354,
    "longitude": 133.31439437788015,
    "is_shadow_confederation": false
  },
  {
    "rank": 5,
    "team_name": "四国大学",
    "team_short_name": "四国",
    "runner_name": "新居浜",
    "total_distance_km": 732.3,
    "latitude": 34.55941277328971,
    "longitude": 133.6801032674996,
    "is_shadow_confederation": false
  },
  {
    "rank": 6,
    "team_name": "広島経済大学",
    "team_short_name": "広経",
    "runner_name": "福山",
    "total_distance_km": 711.4,
    "latitude": 34.64572082574138,
    "longitude": 133.86761747471647,
    "is_shadow_confederation": false
  },
  {
    "rank": 7,
    "team_name": "鳥取大学",
    "team_short_name": "鳥取",
    "runner_name": "米子",
    "total_distance_km": 697.1,
    "latitude": 34.69003498691501,
    "longitude": 134.00574155506297,
    "is_shadow_confederation": false
  },
  {
    "rank": 8,
    "team_name": "関西大学",
    "team_short_name": "関大",
    "runner_name": "八尾（大阪）",
    "total_distance_km": 696.2,
    "latitude": 34.69475622378364,
    "longitude": 134.0137290975655,
    "is_shadow_confederation": false
  },
  {
    "rank": 9,
    "team_name": "名古屋大学",
    "team_short_name": "名大",
    "runner_name": "名古屋",
    "total_distance_km": 695.6,
    "latitude": 34.6979037150294,
    "longitude": 134.0190541259005,
    "is_shadow_confederation": false
  },
  {
    "rank": 10,
    "team_name": "三重大学",
    "team_short_name": "三重",
    "runner_name": "津",
    "total_distance_km": 688.3,
    "latitude": 34.714176921630404,
    "longitude": 134.09292039368123,
    "is_shadow_confederation": false
  },
  {
    "rank": 11,
    "team_name": "立命館大学",
    "team_short_name": "立命",
    "runner_name": "長浜（滋賀）",
    "total_distance_km": 670.4,
    "latitude": 34.7864571511698,
    "longitude": 134.2586998431265,
    "is_shadow_confederation": false
  },
  {
    "rank": 12,
    "team_name": "上武大学",
    "team_short_name": "上武",
    "runner_name": "伊勢崎",
    "total_distance_km": 652.5,
    "latitude": 34.831213484986556,
    "longitude": 134.41001845882536,
    "is_shadow_confederation": false
  },
  {
    "rank": 13,
    "team_name": "日本大学",
    "team_short_name": "日大",
    "runner_name": "八王子",
    "total_distance_km": 649.2,
    "latitude": 34.82849618468972,
    "longitude": 134.44409949683165,
    "is_shadow_confederation": false
  },
  {
    "rank": 14,
    "team_name": "金沢大学",
    "team_short_name": "金沢",
    "runner_name": "富山",
    "total_distance_km": 647.5,
    "latitude": 34.82514620804793,
    "longitude": 134.46149840753966,
    "is_shadow_confederation": false
  },
  {
    "rank": 15,
    "team_name": "山梨学院大学",
    "team_short_name": "山学",
    "runner_name": "静岡",
    "total_distance_km": 639.0,
    "latitude": 34.83098960096756,
    "longitude": 134.5480420334561,
    "is_shadow_confederation": false
  },
  {
    "rank": 16,
    "team_name": "学連選抜",
    "team_short_name": "学連",
    "runner_name": "多度津",
    "total_distance_km": 598.3,
    "latitude": 34.6997603597764,
    "longitude": 134.91169941137318,
    "is_shadow_confederation": false
  },
  {
    "rank": 17,
    "team_name": "福島大学",
    "team_short_name": "福島",
    "runner_name": "浪江",
    "total_distance_km": 572.5,
    "latitude": 34.6649287546839,
    "longitude": 135.14805511889364,
    "is_shadow_confederation": false
  },
  {
    "rank": 18,
    "team_name": "東北大学",
    "team_short_name": "東北",
    "runner_name": "一関",
    "total_distance_km": 486.7,
    "latitude": 35.00932859933284,
    "longitude": 135.78021363115795,
    "is_shadow_confederation": false
  }
]