[
  {
    "rank": 1,
    "team_name": "琉球大学",
    "team_short_name": "琉球",
    "runner_name": "石垣島",
    "total_distance_km": 987.4,
    "latitude": 34.060936185355644,
    "longitude": 131.4929326955031,
    "is_shadow_confederation": false
  },
  {
    "rank": 2,
    "team_name": "名古屋大学",
    "team_short_name": "名大",
    "runner_name": "揖斐川",
    "total_distance_km": 957.2,
    "latitude": 34.07192913891195,
    "longitude": 131.76927590482842,
    "is_shadow_confederation": false
  },
  {
    "rank": 3,
    "team_name": "鹿児島大学",
    "team_short_name": "鹿大",
    "runner_name": "喜入",
    "total_distance_km": 956.0,
    "latitude": 34.06930931235696,
    "longitude": 131.7817656482251,
    "is_shadow_confederation": false
  },
  {
    "rank": 4,
    "team_name": "福岡大学",
    "team_short_name": "福岡",
    "runner_name": "佐賀（佐賀）",
    "total_distance_km": 954.5,
    "latitude": 34.066113748042824,
    "longitude": 131.79680754119534,
    "is_shadow_confederation": false
  },
  {
    "rank": 5,
    "team_name": "熊本学園大学",
    "team_short_name": "熊学",
    "runner_name": "菊池",
    "total_distance_km": 947.3,
    "latitude": 34.02833215157433,
    "longitude": 131.85234056799086,
    "is_shadow_confederation": false
  },
  {
    "rank": 6,
    "team_name": "関西大学",
    "team_short_name": "関大",
    "runner_name": "西脇",
    "total_distance_km": 943.4,
    "latitude": 34.03482785594144,
    "longitude": 131.89293158835955,
    "is_shadow_confederation": false
  },
  {
    "rank": 6,
    "team_name": "四国大学",
    "team_short_name": "四国",
    "runner_name": "西条",
    "total_distance_km": 943.4,
    "latitude": 34.03482785594144,
    "longitude": 131.89293158835955,
    "is_shadow_confederation": false
  },
  {
    "rank": 8,
    "team_name": "立命館大学",
    "team_short_name": "立命",
    "runner_name": "園部",
    "total_distance_km": 937.4,
    "latitude": 34.04118157928696,
    "longitude": 131.95154509583992,
    "is_shadow_confederation": false
  },
  {
    "rank": 9,
    "team_name": "広島経済大学",
    "team_short_name": "広経",
    "runner_name": "滝宮",
    "total_distance_km": 936.6,
    "latitude": 34.04583689002676,
    "longitude": 131.9580534048142,
    "is_shadow_confederation": false
  },
  {
    "rank": 10,
    "team_name": "日本大学",
    "team_short_name": "日大",
    "runner_name": "海老名",
    "total_distance_km": 929.1,
    "latitude": 34.09146294991692,
    "longitude": 132.01180044456737,
    "is_shadow_confederation": false
  },
  {
    "rank": 11,
    "team_name": "三重大学",
    "team_short_name": "三重",
    "runner_name": "上野",
    "total_distance_km": 925.9,
    "latitude": 34.09206311927547,
    "longitude": 132.04529350994198,
    "is_shadow_confederation": false
  },
  {
    "rank": 12,
    "team_name": "山梨学院大学",
    "team_short_name": "山学",
    "runner_name": "佐久間",
    "total_distance_km": 920.9,
    "latitude": 34.10245826239045,
    "longitude": 132.09626792505253,
    "is_shadow_confederation": false
  },
  {
    "rank": 13,
    "team_name": "上武大学",
    "team_short_name": "上武",
    "runner_name": "館林",
    "total_distance_km": 914.8,
    "latitude": 34.13280997121074,
    "longitude": 132.14923783598442,
    "is_shadow_confederation": false
  },
  {
    "rank": 14,
    "team_name": "鳥取大学",
    "team_short_name": "鳥取",
    "runner_name": "津和野",
    "total_distance_km": 911.9,
    "latitude": 34.151396715730094,
    "longitude": 132.17017087852267,
    "is_shadow_confederation": false
  },
  {
    "rank": 15,
    "team_name": "金沢大学",
    "team_short_name": "金沢",
    "runner_name": "大野（福井）",
    "total_distance_km": 899.3,
    "latitude": 34.224186783290385,
    "longitude": 132.22216813173767,
    "is_shadow_confederation": false
  },
  {
    "rank": 16,
    "team_name": "学連選抜",
    "team_short_name": "学連",
    "runner_name": "恵那",
    "total_distance_km": 882.9,
    "latitude": 34.33413918820797,
    "longitude": 132.3197216095682,
    "is_shadow_confederation": false
  },
  {
    "rank": 17,
    "team_name": "福島大学",
    "team_short_name": "福島",
    "runner_name": "新津",
    "total_distance_km": 878.5,
    "latitude": 34.3633477345625,
    "longitude": 132.3475486671792,
    "is_shadow_confederation": false
  },
  {
    "rank": 18,
    "team_name": "東北大学",
    "team_short_name": "東北",
    "runner_name": "東根",
    "total_distance_km": 807.1,
    "latitude": 34.40279796167784,
    "longitude": 132.992740696505,
    "is_shadow_confederation": false
  },
  {
    "rank": null,
    "team_name": "区間記録連合",
    "team_short_name": "区間記録",
    "runner_name": "鳩山",
    "total_distance_km": 996.1,
    "latitude": 34.09439369720225,
    "longitude": 131.41043049557302,
    "is_shadow_confederation": true
  }
]