[
  {
    "rank": 1,
    "team_name": "琉球大学",
    "team_short_name": "琉球",
    "runner_name": "那覇",
    "total_distance_km": 736.1,
    "latitude": 34.542160445317506,
    "longitude": 133.6465092451991,
    "is_shadow_confederation": false
  },
  {
    "rank": 2,
    "team_name": "鹿児島大学",
    "team_short_name": "鹿大",
    "runner_name": "笠利",
    "total_distance_km": 598.7,
    "latitude": 34.70252429261651,
    "longitude": 134.90895446645618,
    "is_shadow_confederation": false
  },
  {
    "rank": 3,
    "team_name": "熊本学園大学",
    "team_short_name": "熊学",
    "runner_name": "大分",
    "total_distance_km": 576.2,
    "latitude": 34.64494375247727,
    "longitude": 135.11593070673072,
    "is_shadow_confederation": false
  },
  {
    "rank": 4,
    "team_name": "福岡大学",
    "team_short_name": "福岡",
    "runner_name": "博多",
    "total_distance_km": 550.9,
    "latitude": 34.73597774957638,
    "longitude": 135.35833925728292,
    "is_shadow_confederation": false
  },
  {
    "rank": 5,
    "team_name": "名古屋大学",
    "team_short_name": "名大",
    "runner_name": "多治見",
    "total_distance_km": 514.1,
    "latitude": 34.81296637401432,
    "longitude": 135.66757389921753,
    "is_shadow_confederation": false
  },
  {
    "rank": 6,
    "team_name": "四国大学",
    "team_short_name": "四国",
    "runner_name": "大洲",
    "total_distance_km": 512.7,
    "latitude": 34.821808401362986,
    "longitude": 135.67844251090295,
    "is_shadow_confederation": false
  },
  {
    "rank": 7,
    "team_name": "日本大学",
    "team_short_name": "日大",
    "runner_name": "牛久",
    "total_distance_km": 506.3,
    "latitude": 34.86478766304238,
    "longitude": 135.723253522154,
    "is_shadow_confederation": false
  },
  {
    "rank": 8,
    "team_name": "上武大学",
    "team_short_name": "上武",
    "runner_name": "桐生",
    "total_distance_km": 504.4,
    "latitude": 34.878528684895734,
    "longitude": 135.7353313610737,
    "is_shadow_confederation": false
  },
  {
    "rank": 9,
    "team_name": "広島経済大学",
    "team_short_name": "広経",
    "runner_name": "高梁",
    "total_distance_km": 499.2,
    "latitude": 34.92345450871838,
    "longitude": 135.74471098238786,
    "is_shadow_confederation": false
  },
  {
    "rank": 10,
    "team_name": "三重大学",
    "team_short_name": "三重",
    "runner_name": "奈良",
    "total_distance_km": 496.4,
    "latitude": 34.94868602529995,
    "longitude": 135.74545731295103,
    "is_shadow_confederation": false
  },
  {
    "rank": 11,
    "team_name": "鳥取大学",
    "team_short_name": "鳥取",
    "runner_name": "境",
    "total_distance_km": 491.9,
    "latitude": 34.983202608065476,
    "longitude": 135.75373591294053,
    "is_shadow_confederation": false
  },
  {
    "rank": 12,
    "team_name": "関西大学",
    "team_short_name": "関大",
    "runner_name": "枚方",
    "total_distance_km": 491.2,
    "latitude": 34.98947589614407,
    "longitude": 135.7530625805775,
    "is_shadow_confederation": false
  },
  {
    "rank": 13,
    "team_name": "立命館大学",
    "team_short_name": "立命",
    "runner_name": "舞鶴",
    "total_distance_km": 464.3,
    "latitude": 35.0181956973088,
    "longitude": 135.96895390985472,
    "is_shadow_confederation": false
  },
  {
    "rank": 14,
    "team_name": "山梨学院大学",
    "team_short_name": "山学",
    "runner_name": "甲府",
    "total_distance_km": 451.6,
    "latitude": 34.99775578447453,
    "longitude": 136.093127601977,
    "is_shadow_confederation": false
  },
  {
    "rank": 15,
    "team_name": "福島大学",
    "team_short_name": "福島",
    "runner_name": "福島",
    "total_distance_km": 431.7,
    "latitude": 34.934324141792935,
    "longitude": 136.2881297183918,
    "is_shadow_confederation": false
  },
  {
    "rank": 16,
    "team_name": "金沢大学",
    "team_short_name": "金沢",
    "runner_name": "志賀",
    "total_distance_km": 396.9,
    "latitude": 34.91472425151414,
    "longitude": 136.55967648553562,
    "is_shadow_confederation": false
  },
  {
    "rank": 17,
    "team_name": "東北大学",
    "team_short_name": "東北",
    "runner_name": "大館",
    "total_distance_km": 342.8,
    "latitude": 35.068887206942506,
    "longitude": 136.96389479064254,
    "is_shadow_confederation": false
  },
  {
    "rank": 18,
    "team_name": "学連選抜",
    "team_short_name": "学連",
    "runner_name": "大村",
    "total_distance_km": 247.8,
    "latitude": 34.7132369642568,
    "longitude": 137.75963845882538,
    "is_shadow_confederation": false
  },
  {
    "rank": null,
    "team_name": "区間記録連合",
    "team_short_name": "区間記録",
    "runner_name": "新居浜",
    "total_distance_km": 736.1,
    "latitude": 34.542160445317506,
    "longitude": 133.6465092451991,
    "is_shadow_confederation": true
  }
]