[
  {
    "rank": 1,
    "team_name": "琉球大学",
    "team_short_name": "琉球",
    "runner_name": "盛山",
    "total_distance_km": 287.4,
    "latitude": 34.757953251625,
    "longitude": 137.40836427523544,
    "is_shadow_confederation": false
  },
  {
    "rank": 2,
    "team_name": "鹿児島大学",
    "team_short_name": "鹿大",
    "runner_name": "川内（鹿児島）",
    "total_distance_km": 212.2,
    "latitude": 34.820316714315375,
    "longitude": 138.09432745789988,
    "is_shadow_confederation": false
  },
  {
    "rank": 3,
    "team_name": "熊本学園大学",
    "team_short_name": "熊学",
    "runner_name": "岱明",
    "total_distance_km": 203.9,
    "latitude": 34.845722948386175,
    "longitude": 138.15705607934115,
    "is_shadow_confederation": false
  },
  {
    "rank": 4,
    "team_name": "福岡大学",
    "team_short_name": "福岡",
    "runner_name": "福岡",
    "total_distance_km": 190.4,
    "latitude": 34.89969954596343,
    "longitude": 138.2807174986015,
    "is_shadow_confederation": false
  },
  {
    "rank": 5,
    "team_name": "名古屋大学",
    "team_short_name": "名大",
    "runner_name": "美濃",
    "total_distance_km": 175.8,
    "latitude": 34.97337591508232,
    "longitude": 138.38983349042553,
    "is_shadow_confederation": false
  },
  {
    "rank": 6,
    "team_name": "上武大学",
    "team_short_name": "上武",
    "runner_name": "越谷",
    "total_distance_km": 171.1,
    "latitude": 34.99867615018987,
    "longitude": 138.43051213961638,
    "is_shadow_confederation": false
  },
  {
    "rank": 7,
    "team_name": "四国大学",
    "team_short_name": "四国",
    "runner_name": "大三島",
    "total_distance_km": 169.0,
    "latitude": 35.010302589754595,
    "longitude": 138.4486654138449,
    "is_shadow_confederation": false
  },
  {
    "rank": 8,
    "team_name": "日本大学",
    "team_short_name": "日大",
    "runner_name": "古河",
    "total_distance_km": 168.8,
    "latitude": 35.01140986971314,
    "longitude": 138.45039429710476,
    "is_shadow_confederation": false
  },
  {
    "rank": 9,
    "team_name": "三重大学",
    "team_short_name": "三重",
    "runner_name": "五條",
    "total_distance_km": 168.7,
    "latitude": 35.011963509692414,
    "longitude": 138.45125873873468,
    "is_shadow_confederation": false
  },
  {
    "rank": 10,
    "team_name": "関西大学",
    "team_short_name": "関大",
    "runner_name": "和田山",
    "total_distance_km": 154.1,
    "latitude": 35.09654734168561,
    "longitude": 138.55177696048156,
    "is_shadow_confederation": false
  },
  {
    "rank": 11,
    "team_name": "鳥取大学",
    "team_short_name": "鳥取",
    "runner_name": "鳥取",
    "total_distance_km": 152.0,
    "latitude": 35.10929784700498,
    "longitude": 138.56713962273668,
    "is_shadow_confederation": false
  },
  {
    "rank": 12,
    "team_name": "広島経済大学",
    "team_short_name": "広経",
    "runner_name": "加計",
    "total_distance_km": 149.4,
    "latitude": 35.1146620178837,
    "longitude": 138.59422989463863,
    "is_shadow_confederation": false
  },
  {
    "rank": 13,
    "team_name": "立命館大学",
    "team_short_name": "立命",
    "runner_name": "福知山",
    "total_distance_km": 143.7,
    "latitude": 35.132195953483986,
    "longitude": 138.64473036443795,
    "is_shadow_confederation": false
  },
  {
    "rank": 14,
    "team_name": "福島大学",
    "team_short_name": "福島",
    "runner_name": "石川",
    "total_distance_km": 142.9,
    "latitude": 35.13483885365738,
    "longitude": 138.6528970372675,
    "is_shadow_confederation": false
  },
  {
    "rank": 15,
    "team_name": "金沢大学",
    "team_short_name": "金沢",
    "runner_name": "小浜",
    "total_distance_km": 118.7,
    "latitude": 35.11087277569807,
    "longitude": 138.89845428128106,
    "is_shadow_confederation": false
  },
  {
    "rank": 16,
    "team_name": "山梨学院大学",
    "team_short_name": "山学",
    "runner_name": "南信濃",
    "total_distance_km": 116.4,
    "latitude": 35.12021302178128,
    "longitude": 138.92016293311582,
    "is_shadow_confederation": false
  },
  {
    "rank": 17,
    "team_name": "東北大学",
    "team_short_name": "東北",
    "runner_name": "帯広",
    "total_distance_km": 83.4,
    "latitude": 35.25158983224263,
    "longitude": 139.16398859824483,
    "is_shadow_confederation": false
  },
  {
    "rank": 18,
    "team_name": "学連選抜",
    "team_short_name": "学連",
    "runner_name": "美幌",
    "total_distance_km": 29.9,
    "latitude": 35.464856538860026,
    "longitude": 139.6238449731631,
    "is_shadow_confederation": false
  },
  {
    "rank": null,
    "team_name": "区間記録連合",
    "team_short_name": "区間記録",
    "runner_name": "伊勢崎",
    "total_distance_km": 329.3,
    "latitude": 34.99383822285322,
    "longitude": 137.07583058766642,
    "is_shadow_confederation": true
  }
]