[
  {
    "rank": 1,
    "team_name": "名古屋大学",
    "team_short_name": "名大",
    "runner_name": "大垣",
    "total_distance_km": 277.9,
    "latitude": 34.70656283965452,
    "longitude": 137.47825817012767,
    "is_shadow_confederation": false
  },
  {
    "rank": 2,
    "team_name": "四国大学",
    "team_short_name": "四国",
    "runner_name": "御荘",
    "total_distance_km": 272.3,
    "latitude": 34.67903478730792,
    "longitude": 137.51861442785068,
    "is_shadow_confederation": false
  },
  {
    "rank": 3,
    "team_name": "熊本学園大学",
    "team_short_name": "熊学",
    "runner_name": "八代",
    "total_distance_km": 271.5,
    "latitude": 34.68003293354394,
    "longitude": 137.52725997977063,
    "is_shadow_confederation": false
  },
  {
    "rank": 4,
    "team_name": "立命館大学",
    "team_short_name": "立命",
    "runner_name": "京田辺",
    "total_distance_km": 270.6,
    "latitude": 34.68122777371464,
    "longitude": 137.53697321163324,
    "is_shadow_confederation": false
  },
  {
    "rank": 5,
    "team_name": "福岡大学",
    "team_short_name": "福岡",
    "runner_name": "黒木",
    "total_distance_km": 269.2,
    "latitude": 34.68516763830283,
    "longitude": 137.5514284111419,
    "is_shadow_confederation": false
  },
  {
    "rank": 6,
    "team_name": "関西大学",
    "team_short_name": "関大",
    "runner_name": "上郡",
    "total_distance_km": 268.7,
    "latitude": 34.6867556660336,
    "longitude": 137.5565349498581,
    "is_shadow_confederation": false
  },
  {
    "rank": 7,
    "team_name": "広島経済大学",
    "team_short_name": "広経",
    "runner_name": "府中（広島）",
    "total_distance_km": 264.7,
    "latitude": 34.692505101943176,
    "longitude": 137.59609567083479,
    "is_shadow_confederation": false
  },
  {
    "rank": 8,
    "team_name": "日本大学",
    "team_short_name": "日大",
    "runner_name": "下館",
    "total_distance_km": 263.6,
    "latitude": 34.688267016640985,
    "longitude": 137.60688289844603,
    "is_shadow_confederation": false
  },
  {
    "rank": 9,
    "team_name": "上武大学",
    "team_short_name": "上武",
    "runner_name": "熊谷",
    "total_distance_km": 263.5,
    "latitude": 34.687855615557936,
    "longitude": 137.60785392672415,
    "is_shadow_confederation": false
  },
  {
    "rank": 10,
    "team_name": "金沢大学",
    "team_short_name": "金沢",
    "runner_name": "七尾",
    "total_distance_km": 263.2,
    "latitude": 34.686621412308796,
    "longitude": 137.6107670115584,
    "is_shadow_confederation": false
  },
  {
    "rank": 11,
    "team_name": "三重大学",
    "team_short_name": "三重",
    "runner_name": "小俣",
    "total_distance_km": 262.9,
    "latitude": 34.685533309363265,
    "longitude": 137.61376190319928,
    "is_shadow_confederation": false
  },
  {
    "rank": 12,
    "team_name": "鳥取大学",
    "team_short_name": "鳥取",
    "runner_name": "広瀬",
    "total_distance_km": 262.4,
    "latitude": 34.68380590704277,
    "longitude": 137.6188016011988,
    "is_shadow_confederation": false
  },
  {
    "rank": 13,
    "team_name": "琉球大学",
    "team_short_name": "琉球",
    "runner_name": "盛山",
    "total_distance_km": 261.5,
    "latitude": 34.683720417401126,
    "longitude": 137.62862141513534,
    "is_shadow_confederation": false
  },
  {
    "rank": 14,
    "team_name": "鹿児島大学",
    "team_short_name": "鹿大",
    "runner_name": "加久藤",
    "total_distance_km": 260.3,
    "latitude": 34.68279080485381,
    "longitude": 137.64166164272925,
    "is_shadow_confederation": false
  },
  {
    "rank": 15,
    "team_name": "山梨学院大学",
    "team_short_name": "山学",
    "runner_name": "大月",
    "total_distance_km": 258.9,
    "latitude": 34.684620886778944,
    "longitude": 137.65674704892032,
    "is_shadow_confederation": false
  },
  {
    "rank": 16,
    "team_name": "福島大学",
    "team_short_name": "福島",
    "runner_name": "津川",
    "total_distance_km": 250.9,
    "latitude": 34.70780855460147,
    "longitude": 137.7275159836245,
    "is_shadow_confederation": false
  },
  {
    "rank": 17,
    "team_name": "東北大学",
    "team_short_name": "東北",
    "runner_name": "山形（山形）",
    "total_distance_km": 220.7,
    "latitude": 34.77793170476436,
    "longitude": 138.0290536704982,
    "is_shadow_confederation": false
  },
  {
    "rank": 18,
    "team_name": "学連選抜",
    "team_short_name": "学連",
    "runner_name": "新潟",
    "total_distance_km": 215.8,
    "latitude": 34.795398076530404,
    "longitude": 138.0732988673722,
    "is_shadow_confederation": false
  },
  {
    "rank": null,
    "team_name": "区間記録連合",
    "team_short_name": "区間記録",
    "runner_name": "伊勢崎",
    "total_distance_km": 290.3,
    "latitude": 34.77483376566921,
    "longitude": 137.38872771333274,
    "is_shadow_confederation": true
  }
]