[
  {
    "rank": 1,
    "team_name": "琉球大学",
    "team_short_name": "琉球",
    "runner_name": "久米島",
    "total_distance_km": 638.8,
    "latitude": 34.83181755174243,
    "longitude": 134.54998420951105,
    "is_shadow_confederation": false
  },
  {
    "rank": 2,
    "team_name": "熊本学園大学",
    "team_short_name": "熊学",
    "runner_name": "大分",
    "total_distance_km": 554.7,
    "latitude": 34.73469302357781,
    "longitude": 135.31780058994974,
    "is_shadow_confederation": false
  },
  {
    "rank": 3,
    "team_name": "鹿児島大学",
    "team_short_name": "鹿大",
    "runner_name": "笠利",
    "total_distance_km": 546.4,
    "latitude": 34.723661113276115,
    "longitude": 135.40493663422197,
    "is_shadow_confederation": false
  },
  {
    "rank": 4,
    "team_name": "福岡大学",
    "team_short_name": "福岡",
    "runner_name": "前原",
    "total_distance_km": 522.8,
    "latitude": 34.76573734887644,
    "longitude": 135.59910580046403,
    "is_shadow_confederation": false
  },
  {
    "rank": 5,
    "team_name": "四国大学",
    "team_short_name": "四国",
    "runner_name": "大洲",
    "total_distance_km": 507.7,
    "latitude": 34.85720953239234,
    "longitude": 135.7110112267449,
    "is_shadow_confederation": false
  },
  {
    "rank": 6,
    "team_name": "広島経済大学",
    "team_short_name": "広経",
    "runner_name": "高梁",
    "total_distance_km": 484.1,
    "latitude": 34.9973173327665,
    "longitude": 135.79885610833966,
    "is_shadow_confederation": false
  },
  {
    "rank": 7,
    "team_name": "鳥取大学",
    "team_short_name": "鳥取",
    "runner_name": "境",
    "total_distance_km": 474.4,
    "latitude": 34.991320526197406,
    "longitude": 135.88605899317548,
    "is_shadow_confederation": false
  },
  {
    "rank": 8,
    "team_name": "関西大学",
    "team_short_name": "関大",
    "runner_name": "枚方",
    "total_distance_km": 472.5,
    "latitude": 34.97928722038211,
    "longitude": 135.89857534225703,
    "is_shadow_confederation": false
  },
  {
    "rank": 9,
    "team_name": "名古屋大学",
    "team_short_name": "名大",
    "runner_name": "多治見",
    "total_distance_km": 470.1,
    "latitude": 34.9834705005784,
    "longitude": 135.92210825765636,
    "is_shadow_confederation": false
  },
  {
    "rank": 10,
    "team_name": "立命館大学",
    "team_short_name": "立命",
    "runner_name": "舞鶴",
    "total_distance_km": 461.0,
    "latitude": 35.02944462077326,
    "longitude": 136.00159863768258,
    "is_shadow_confederation": false
  },
  {
    "rank": 11,
    "team_name": "三重大学",
    "team_short_name": "三重",
    "runner_name": "奈良",
    "total_distance_km": 457.3,
    "latitude": 35.024732356810325,
    "longitude": 136.0401935218335,
    "is_shadow_confederation": false
  },
  {
    "rank": 12,
    "team_name": "日本大学",
    "team_short_name": "日大",
    "runner_name": "牛久",
    "total_distance_km": 446.7,
    "latitude": 34.983731477776175,
    "longitude": 136.14008450494666,
    "is_shadow_confederation": false
  },
  {
    "rank": 13,
    "team_name": "上武大学",
    "team_short_name": "上武",
    "runner_name": "桐生",
    "total_distance_km": 441.1,
    "latitude": 34.9609141391584,
    "longitude": 136.1934372943481,
    "is_shadow_confederation": false
  },
  {
    "rank": 14,
    "team_name": "金沢大学",
    "team_short_name": "金沢",
    "runner_name": "福井",
    "total_distance_km": 439.7,
    "latitude": 34.95771671399619,
    "longitude": 136.20747594218923,
    "is_shadow_confederation": false
  },
  {
    "rank": 15,
    "team_name": "山梨学院大学",
    "team_short_name": "山学",
    "runner_name": "甲府",
    "total_distance_km": 417.3,
    "latitude": 34.85528236444779,
    "longitude": 136.38423383577336,
    "is_shadow_confederation": false
  },
  {
    "rank": 16,
    "team_name": "福島大学",
    "team_short_name": "福島",
    "runner_name": "長岡",
    "total_distance_km": 387.8,
    "latitude": 34.96922769761772,
    "longitude": 136.62398802272813,
    "is_shadow_confederation": false
  },
  {
    "rank": 17,
    "team_name": "学連選抜",
    "team_short_name": "学連",
    "runner_name": "上",
    "total_distance_km": 371.6,
    "latitude": 35.08958636169833,
    "longitude": 136.70161112714518,
    "is_shadow_confederation": false
  },
  {
    "rank": 18,
    "team_name": "東北大学",
    "team_short_name": "東北",
    "runner_name": "大館",
    "total_distance_km": 326.0,
    "latitude": 34.97940158435426,
    "longitude": 137.10714714885768,
    "is_shadow_confederation": false
  }
]