[
  {
    "rank": 1,
    "team_name": "琉球大学",
    "team_short_name": "琉球",
    "runner_name": "北原",
    "total_distance_km": 101.2,
    "latitude": 35.184343054203,
    "longitude": 139.02528665530548,
    "is_shadow_confederation": false
  },
  {
    "rank": 2,
    "team_name": "鹿児島大学",
    "team_short_name": "鹿大",
    "runner_name": "東市来",
    "total_distance_km": 72.1,
    "latitude": 35.30200891346072,
    "longitude": 139.26860225061301,
    "is_shadow_confederation": false
  },
  {
    "rank": 3,
    "team_name": "熊本学園大学",
    "team_short_name": "熊学",
    "runner_name": "甲佐",
    "total_distance_km": 66.0,
    "latitude": 35.31381646166465,
    "longitude": 139.33048983219882,
    "is_shadow_confederation": false
  },
  {
    "rank": 4,
    "team_name": "福岡大学",
    "team_short_name": "福岡",
    "runner_name": "久留米",
    "total_distance_km": 64.0,
    "latitude": 35.31597078469359,
    "longitude": 139.3521089217369,
    "is_shadow_confederation": false
  },
  {
    "rank": 5,
    "team_name": "三重大学",
    "team_short_name": "三重",
    "runner_name": "粥見",
    "total_distance_km": 54.6,
    "latitude": 35.32692616115975,
    "longitude": 139.45041843559554,
    "is_shadow_confederation": false
  },
  {
    "rank": 6,
    "team_name": "四国大学",
    "team_short_name": "四国",
    "runner_name": "穴吹",
    "total_distance_km": 53.5,
    "latitude": 35.331731705521335,
    "longitude": 139.46076752609235,
    "is_shadow_confederation": false
  },
  {
    "rank": 7,
    "team_name": "名古屋大学",
    "team_short_name": "名大",
    "runner_name": "美濃加茂",
    "total_distance_km": 50.2,
    "latitude": 35.34757914810783,
    "longitude": 139.4887982370565,
    "is_shadow_confederation": false
  },
  {
    "rank": 7,
    "team_name": "関西大学",
    "team_short_name": "関大",
    "runner_name": "福崎",
    "total_distance_km": 50.2,
    "latitude": 35.34757914810783,
    "longitude": 139.4887982370565,
    "is_shadow_confederation": false
  },
  {
    "rank": 9,
    "team_name": "上武大学",
    "team_short_name": "上武",
    "runner_name": "佐野",
    "total_distance_km": 49.8,
    "latitude": 35.350764222069735,
    "longitude": 139.49076221350862,
    "is_shadow_confederation": false
  },
  {
    "rank": 10,
    "team_name": "日本大学",
    "team_short_name": "日大",
    "runner_name": "大子",
    "total_distance_km": 49.4,
    "latitude": 35.35425064417051,
    "longitude": 139.4915961415979,
    "is_shadow_confederation": false
  },
  {
    "rank": 11,
    "team_name": "立命館大学",
    "team_short_name": "立命",
    "runner_name": "東近江",
    "total_distance_km": 42.9,
    "latitude": 35.402109968963096,
    "longitude": 139.52726131568645,
    "is_shadow_confederation": false
  },
  {
    "rank": 12,
    "team_name": "鳥取大学",
    "team_short_name": "鳥取",
    "runner_name": "川本",
    "total_distance_km": 40.9,
    "latitude": 35.41401857902459,
    "longitude": 139.5401557477082,
    "is_shadow_confederation": false
  },
  {
    "rank": 13,
    "team_name": "広島経済大学",
    "team_short_name": "広経",
    "runner_name": "三次",
    "total_distance_km": 39.9,
    "latitude": 35.4189752441532,
    "longitude": 139.5490693304278,
    "is_shadow_confederation": false
  },
  {
    "rank": 14,
    "team_name": "福島大学",
    "team_short_name": "福島",
    "runner_name": "梁川",
    "total_distance_km": 39.1,
    "latitude": 35.42112494471507,
    "longitude": 139.5570327659229,
    "is_shadow_confederation": false
  },
  {
    "rank": 15,
    "team_name": "金沢大学",
    "team_short_name": "金沢",
    "runner_name": "秋ヶ島",
    "total_distance_km": 34.7,
    "latitude": 35.445163097485555,
    "longitude": 139.58441055529735,
    "is_shadow_confederation": false
  },
  {
    "rank": 16,
    "team_name": "山梨学院大学",
    "team_short_name": "山学",
    "runner_name": "長野",
    "total_distance_km": 27.7,
    "latitude": 35.478953245941156,
    "longitude": 139.63845131273126,
    "is_shadow_confederation": false
  },
  {
    "rank": 17,
    "team_name": "東北大学",
    "team_short_name": "東北",
    "runner_name": "帯広",
    "total_distance_km": 21.5,
    "latitude": 35.51556459348951,
    "longitude": 139.68713788041836,
    "is_shadow_confederation": false
  },
  {
    "rank": 18,
    "team_name": "学連選抜",
    "team_short_name": "学連",
    "runner_name": "美幌",
    "total_distance_km": 2.0,
    "latitude": 35.672999170631165,
    "longitude": 139.75356543783215,
    "is_shadow_confederation": false
  }
]