[
  {
    "rank": 1,
    "team_name": "琉球大学",
    "team_short_name": "琉球",
    "runner_name": "那覇",
    "total_distance_km": 720.0,
    "latitude": 34.616548978927675,
    "longitude": 133.7871490158852,
    "is_shadow_confederation": false
  },
  {
    "rank": 2,
    "team_name": "鹿児島大学",
    "team_short_name": "鹿大",
    "runner_name": "笠利",
    "total_distance_km": 623.8,
    "latitude": 34.83238092745658,
    "longitude": 134.69639515062104,
    "is_shadow_confederation": false
  },
  {
    "rank": 3,
    "team_name": "熊本学園大学",
    "team_short_name": "熊学",
    "runner_name": "大分",
    "total_distance_km": 613.5,
    "latitude": 34.79205250093859,
    "longitude": 134.7937592253987,
    "is_shadow_confederation": false
  },
  {
    "rank": 4,
    "team_name": "福岡大学",
    "team_short_name": "福岡",
    "runner_name": "博多",
    "total_distance_km": 587.5,
    "latitude": 34.64644691104805,
    "longitude": 135.00494957195934,
    "is_shadow_confederation": false
  },
  {
    "rank": 5,
    "team_name": "四国大学",
    "team_short_name": "四国",
    "runner_name": "徳島",
    "total_distance_km": 561.6,
    "latitude": 34.714522772146815,
    "longitude": 135.24682802111815,
    "is_shadow_confederation": false
  },
  {
    "rank": 6,
    "team_name": "広島経済大学",
    "team_short_name": "広経",
    "runner_name": "高松（香川）",
    "total_distance_km": 543.0,
    "latitude": 34.719449443077494,
    "longitude": 135.44135449181874,
    "is_shadow_confederation": false
  },
  {
    "rank": 7,
    "team_name": "鳥取大学",
    "team_short_name": "鳥取",
    "runner_name": "境",
    "total_distance_km": 530.3,
    "latitude": 34.71607468940154,
    "longitude": 135.54667710979504,
    "is_shadow_confederation": false
  },
  {
    "rank": 8,
    "team_name": "名古屋大学",
    "team_short_name": "名大",
    "runner_name": "多治見",
    "total_distance_km": 530.2,
    "latitude": 34.71695253115047,
    "longitude": 135.5469251977116,
    "is_shadow_confederation": false
  },
  {
    "rank": 9,
    "team_name": "関西大学",
    "team_short_name": "関大",
    "runner_name": "枚方",
    "total_distance_km": 524.8,
    "latitude": 34.753567080353896,
    "longitude": 135.58334619711462,
    "is_shadow_confederation": false
  },
  {
    "rank": 10,
    "team_name": "立命館大学",
    "team_short_name": "立命",
    "runner_name": "舞鶴",
    "total_distance_km": 513.8,
    "latitude": 34.81476286525775,
    "longitude": 135.66998227756966,
    "is_shadow_confederation": false
  },
  {
    "rank": 11,
    "team_name": "三重大学",
    "team_short_name": "三重",
    "runner_name": "奈良",
    "total_distance_km": 508.6,
    "latitude": 34.85173187685783,
    "longitude": 135.70391329013057,
    "is_shadow_confederation": false
  },
  {
    "rank": 12,
    "team_name": "日本大学",
    "team_short_name": "日大",
    "runner_name": "牛久",
    "total_distance_km": 497.4,
    "latitude": 34.93967490226163,
    "longitude": 135.74518503603875,
    "is_shadow_confederation": false
  },
  {
    "rank": 13,
    "team_name": "上武大学",
    "team_short_name": "上武",
    "runner_name": "桐生",
    "total_distance_km": 496.7,
    "latitude": 34.945982688388455,
    "longitude": 135.74537562987734,
    "is_shadow_confederation": false
  },
  {
    "rank": 14,
    "team_name": "金沢大学",
    "team_short_name": "金沢",
    "runner_name": "福井",
    "total_distance_km": 494.5,
    "latitude": 34.96580291323488,
    "longitude": 135.7458109095227,
    "is_shadow_confederation": false
  },
  {
    "rank": 15,
    "team_name": "山梨学院大学",
    "team_short_name": "山学",
    "runner_name": "甲府",
    "total_distance_km": 468.5,
    "latitude": 34.99126995682785,
    "longitude": 135.9367585940314,
    "is_shadow_confederation": false
  },
  {
    "rank": 16,
    "team_name": "学連選抜",
    "team_short_name": "学連",
    "runner_name": "久世",
    "total_distance_km": 433.3,
    "latitude": 34.93812848565325,
    "longitude": 136.27195301254085,
    "is_shadow_confederation": false
  },
  {
    "rank": 17,
    "team_name": "福島大学",
    "team_short_name": "福島",
    "runner_name": "福島",
    "total_distance_km": 432.6,
    "latitude": 34.93763887116785,
    "longitude": 136.27937451389704,
    "is_shadow_confederation": false
  },
  {
    "rank": 18,
    "team_name": "東北大学",
    "team_short_name": "東北",
    "runner_name": "大館",
    "total_distance_km": 365.5,
    "latitude": 35.118081123984304,
    "longitude": 136.75291869152508,
    "is_shadow_confederation": false
  }
]