[
  {
    "rank": 1,
    "team_name": "琉球大学",
    "team_short_name": "琉球",
    "runner_name": "那覇",
    "total_distance_km": 693.2,
    "latitude": 34.70380621092375,
    "longitude": 134.0436452529806,
    "is_shadow_confederation": false
  },
  {
    "rank": 2,
    "team_name": "鹿児島大学",
    "team_short_name": "鹿大",
    "runner_name": "笠利",
    "total_distance_km": 598.0,
    "latitude": 34.698072495633916,
    "longitude": 134.91425763133924,
    "is_shadow_confederation": false
  },
  {
    "rank": 3,
    "team_name": "熊本学園大学",
    "team_short_name": "熊学",
    "runner_name": "大分",
    "total_distance_km": 592.9,
    "latitude": 34.66942511003682,
    "longitude": 134.95712441198282,
    "is_shadow_confederation": false
  },
  {
    "rank": 4,
    "team_name": "福岡大学",
    "team_short_name": "福岡",
    "runner_name": "博多",
    "total_distance_km": 564.6,
    "latitude": 34.70291163135328,
    "longitude": 135.21885243056795,
    "is_shadow_confederation": false
  },
  {
    "rank": 5,
    "team_name": "四国大学",
    "team_short_name": "四国",
    "runner_name": "徳島",
    "total_distance_km": 542.0,
    "latitude": 34.713693839674825,
    "longitude": 135.44918894627003,
    "is_shadow_confederation": false
  },
  {
    "rank": 6,
    "team_name": "広島経済大学",
    "team_short_name": "広経",
    "runner_name": "高梁",
    "total_distance_km": 519.7,
    "latitude": 34.785540016517906,
    "longitude": 135.6226431932408,
    "is_shadow_confederation": false
  },
  {
    "rank": 7,
    "team_name": "名古屋大学",
    "team_short_name": "名大",
    "runner_name": "多治見",
    "total_distance_km": 510.1,
    "latitude": 34.839637687061696,
    "longitude": 135.69677795669665,
    "is_shadow_confederation": false
  },
  {
    "rank": 8,
    "team_name": "鳥取大学",
    "team_short_name": "鳥取",
    "runner_name": "境",
    "total_distance_km": 508.7,
    "latitude": 34.850897523135785,
    "longitude": 135.70349946857942,
    "is_shadow_confederation": false
  },
  {
    "rank": 9,
    "team_name": "関西大学",
    "team_short_name": "関大",
    "runner_name": "枚方",
    "total_distance_km": 507.5,
    "latitude": 34.8582921224852,
    "longitude": 135.71276012608905,
    "is_shadow_confederation": false
  },
  {
    "rank": 10,
    "team_name": "立命館大学",
    "team_short_name": "立命",
    "runner_name": "舞鶴",
    "total_distance_km": 495.3,
    "latitude": 34.9585982606421,
    "longitude": 135.7457568175545,
    "is_shadow_confederation": false
  },
  {
    "rank": 11,
    "team_name": "三重大学",
    "team_short_name": "三重",
    "runner_name": "奈良",
    "total_distance_km": 492.5,
    "latitude": 34.979432657873765,
    "longitude": 135.7516596559675,
    "is_shadow_confederation": false
  },
  {
    "rank": 12,
    "team_name": "日本大学",
    "team_short_name": "日大",
    "runner_name": "牛久",
    "total_distance_km": 482.0,
    "latitude": 34.98974097122654,
    "longitude": 135.81850144449518,
    "is_shadow_confederation": false
  },
  {
    "rank": 13,
    "team_name": "上武大学",
    "team_short_name": "上武",
    "runner_name": "桐生",
    "total_distance_km": 476.1,
    "latitude": 35.00166387636061,
    "longitude": 135.87339233071407,
    "is_shadow_confederation": false
  },
  {
    "rank": 14,
    "team_name": "金沢大学",
    "team_short_name": "金沢",
    "runner_name": "福井",
    "total_distance_km": 475.9,
    "latitude": 35.001092491753546,
    "longitude": 135.87546057263856,
    "is_shadow_confederation": false
  },
  {
    "rank": 15,
    "team_name": "山梨学院大学",
    "team_short_name": "山学",
    "runner_name": "甲府",
    "total_distance_km": 452.8,
    "latitude": 35.003799226733435,
    "longitude": 136.08222528648787,
    "is_shadow_confederation": false
  },
  {
    "rank": 16,
    "team_name": "福島大学",
    "team_short_name": "福島",
    "runner_name": "福島",
    "total_distance_km": 415.6,
    "latitude": 34.851313640361354,
    "longitude": 136.40192007819135,
    "is_shadow_confederation": false
  },
  {
    "rank": 17,
    "team_name": "学連選抜",
    "team_short_name": "学連",
    "runner_name": "上",
    "total_distance_km": 414.2,
    "latitude": 34.85558076652735,
    "longitude": 136.4147814014344,
    "is_shadow_confederation": false
  },
  {
    "rank": 18,
    "team_name": "東北大学",
    "team_short_name": "東北",
    "runner_name": "大館",
    "total_distance_km": 347.6,
    "latitude": 35.09756042118319,
    "longitude": 136.92750346776396,
    "is_shadow_confederation": false
  }
]