[
  {
    "rank": 1,
    "team_name": "琉球大学",
    "team_short_name": "琉球",
    "runner_name": "名護",
    "total_distance_km": 358.1,
    "latitude": 35.12447092620704,
    "longitude": 136.83259608620884,
    "is_shadow_confederation": false
  },
  {
    "rank": 2,
    "team_name": "鹿児島大学",
    "team_short_name": "鹿大",
    "runner_name": "加久藤",
    "total_distance_km": 269.1,
    "latitude": 34.68548524384898,
    "longitude": 137.55244971888513,
    "is_shadow_confederation": false
  },
  {
    "rank": 3,
    "team_name": "熊本学園大学",
    "team_short_name": "熊学",
    "runner_name": "八代",
    "total_distance_km": 264.3,
    "latitude": 34.6908654521202,
    "longitude": 137.5999539484736,
    "is_shadow_confederation": false
  },
  {
    "rank": 4,
    "team_name": "福岡大学",
    "team_short_name": "福岡",
    "runner_name": "黒木",
    "total_distance_km": 246.4,
    "latitude": 34.71881472482622,
    "longitude": 137.7733284404998,
    "is_shadow_confederation": false
  },
  {
    "rank": 5,
    "team_name": "名古屋大学",
    "team_short_name": "名大",
    "runner_name": "大垣",
    "total_distance_km": 225.9,
    "latitude": 34.76768088621802,
    "longitude": 137.97635830848512,
    "is_shadow_confederation": false
  },
  {
    "rank": 6,
    "team_name": "上武大学",
    "team_short_name": "上武",
    "runner_name": "越谷",
    "total_distance_km": 215.6,
    "latitude": 34.797106741246886,
    "longitude": 138.07399591507826,
    "is_shadow_confederation": false
  },
  {
    "rank": 7,
    "team_name": "日本大学",
    "team_short_name": "日大",
    "runner_name": "古河",
    "total_distance_km": 215.4,
    "latitude": 34.79881540596336,
    "longitude": 138.07469296278433,
    "is_shadow_confederation": false
  },
  {
    "rank": 7,
    "team_name": "四国大学",
    "team_short_name": "四国",
    "runner_name": "大三島",
    "total_distance_km": 215.4,
    "latitude": 34.79881540596336,
    "longitude": 138.07469296278433,
    "is_shadow_confederation": false
  },
  {
    "rank": 9,
    "team_name": "三重大学",
    "team_short_name": "三重",
    "runner_name": "五條",
    "total_distance_km": 211.7,
    "latitude": 34.821823007699585,
    "longitude": 138.09873710206352,
    "is_shadow_confederation": false
  },
  {
    "rank": 10,
    "team_name": "鳥取大学",
    "team_short_name": "鳥取",
    "runner_name": "鳥取",
    "total_distance_km": 197.8,
    "latitude": 34.86626982966878,
    "longitude": 138.21330014431112,
    "is_shadow_confederation": false
  },
  {
    "rank": 11,
    "team_name": "広島経済大学",
    "team_short_name": "広経",
    "runner_name": "加計",
    "total_distance_km": 195.9,
    "latitude": 34.874038897674886,
    "longitude": 138.23078541692416,
    "is_shadow_confederation": false
  },
  {
    "rank": 12,
    "team_name": "関西大学",
    "team_short_name": "関大",
    "runner_name": "和田山",
    "total_distance_km": 194.8,
    "latitude": 34.88130744402054,
    "longitude": 138.23871111047893,
    "is_shadow_confederation": false
  },
  {
    "rank": 13,
    "team_name": "立命館大学",
    "team_short_name": "立命",
    "runner_name": "福知山",
    "total_distance_km": 182.8,
    "latitude": 34.94633621171919,
    "longitude": 138.33026009352395,
    "is_shadow_confederation": false
  },
  {
    "rank": 14,
    "team_name": "福島大学",
    "team_short_name": "福島",
    "runner_name": "石川",
    "total_distance_km": 177.6,
    "latitude": 34.96223912914473,
    "longitude": 138.37585234887825,
    "is_shadow_confederation": false
  },
  {
    "rank": 15,
    "team_name": "山梨学院大学",
    "team_short_name": "山学",
    "runner_name": "南信濃",
    "total_distance_km": 165.1,
    "latitude": 35.02367515728035,
    "longitude": 138.48531665858334,
    "is_shadow_confederation": false
  },
  {
    "rank": 16,
    "team_name": "金沢大学",
    "team_short_name": "金沢",
    "runner_name": "小浜",
    "total_distance_km": 159.0,
    "latitude": 35.05658287437321,
    "longitude": 138.53165698079212,
    "is_shadow_confederation": false
  },
  {
    "rank": 17,
    "team_name": "東北大学",
    "team_short_name": "東北",
    "runner_name": "帯広",
    "total_distance_km": 105.4,
    "latitude": 35.16741751704659,
    "longitude": 139.00751581730427,
    "is_shadow_confederation": false
  },
  {
    "rank": 18,
    "team_name": "学連選抜",
    "team_short_name": "学連",
    "runner_name": "美幌",
    "total_distance_km": 44.0,
    "latitude": 35.39312347848068,
    "longitude": 139.52456811492405,
    "is_shadow_confederation": false
  },
  {
    "rank": null,
    "team_name": "区間記録連合",
    "team_short_name": "区間記録",
    "runner_name": "風屋",
    "total_distance_km": 393.6,
    "latitude": 34.9281626705989,
    "longitude": 136.58747013446356,
    "is_shadow_confederation": true
  }
]