[
  {
    "rank": 1,
    "team_name": "名古屋大学",
    "team_short_name": "名大",
    "runner_name": "大垣",
    "total_distance_km": 274.7,
    "latitude": 34.68647213129826,
    "longitude": 137.49938307176149,
    "is_shadow_confederation": false
  },
  {
    "rank": 2,
    "team_name": "福岡大学",
    "team_short_name": "福岡",
    "runner_name": "黒木",
    "total_distance_km": 267.3,
    "latitude": 34.694006672047,
    "longitude": 137.56803650747182,
    "is_shadow_confederation": false
  },
  {
    "rank": 3,
    "team_name": "熊本学園大学",
    "team_short_name": "熊学",
    "runner_name": "八代",
    "total_distance_km": 267.2,
    "latitude": 34.69401152694461,
    "longitude": 137.5691276626626,
    "is_shadow_confederation": false
  },
  {
    "rank": 3,
    "team_name": "立命館大学",
    "team_short_name": "立命",
    "runner_name": "京田辺",
    "total_distance_km": 267.2,
    "latitude": 34.69401152694461,
    "longitude": 137.5691276626626,
    "is_shadow_confederation": false
  },
  {
    "rank": 5,
    "team_name": "四国大学",
    "team_short_name": "四国",
    "runner_name": "御荘",
    "total_distance_km": 266.4,
    "latitude": 34.69403207610818,
    "longitude": 137.5778587087066,
    "is_shadow_confederation": false
  },
  {
    "rank": 6,
    "team_name": "関西大学",
    "team_short_name": "関大",
    "runner_name": "上郡",
    "total_distance_km": 264.9,
    "latitude": 34.693082671701866,
    "longitude": 137.59402882688454,
    "is_shadow_confederation": false
  },
  {
    "rank": 7,
    "team_name": "広島経済大学",
    "team_short_name": "広経",
    "runner_name": "府中（広島）",
    "total_distance_km": 263.4,
    "latitude": 34.687444214474894,
    "longitude": 137.60882495500223,
    "is_shadow_confederation": false
  },
  {
    "rank": 8,
    "team_name": "金沢大学",
    "team_short_name": "金沢",
    "runner_name": "七尾",
    "total_distance_km": 263.2,
    "latitude": 34.686621412308796,
    "longitude": 137.6107670115584,
    "is_shadow_confederation": false
  },
  {
    "rank": 9,
    "team_name": "鳥取大学",
    "team_short_name": "鳥取",
    "runner_name": "広瀬",
    "total_distance_km": 261.7,
    "latitude": 34.683738569676905,
    "longitude": 137.62643902503012,
    "is_shadow_confederation": false
  },
  {
    "rank": 10,
    "team_name": "琉球大学",
    "team_short_name": "琉球",
    "runner_name": "盛山",
    "total_distance_km": 261.5,
    "latitude": 34.683720417401126,
    "longitude": 137.62862141513534,
    "is_shadow_confederation": false
  },
  {
    "rank": 11,
    "team_name": "日本大学",
    "team_short_name": "日大",
    "runner_name": "下館",
    "total_distance_km": 259.9,
    "latitude": 34.68315142937328,
    "longitude": 137.64598159047233,
    "is_shadow_confederation": false
  },
  {
    "rank": 12,
    "team_name": "上武大学",
    "team_short_name": "上武",
    "runner_name": "熊谷",
    "total_distance_km": 259.7,
    "latitude": 34.683427272075726,
    "longitude": 137.6481383844192,
    "is_shadow_confederation": false
  },
  {
    "rank": 13,
    "team_name": "三重大学",
    "team_short_name": "三重",
    "runner_name": "小俣",
    "total_distance_km": 258.8,
    "latitude": 34.68478514209204,
    "longitude": 137.65782004413757,
    "is_shadow_confederation": false
  },
  {
    "rank": 14,
    "team_name": "鹿児島大学",
    "team_short_name": "鹿大",
    "runner_name": "加久藤",
    "total_distance_km": 256.2,
    "latitude": 34.68800325636257,
    "longitude": 137.68574355721125,
    "is_shadow_confederation": false
  },
  {
    "rank": 15,
    "team_name": "山梨学院大学",
    "team_short_name": "山学",
    "runner_name": "大月",
    "total_distance_km": 252.5,
    "latitude": 34.696202917824955,
    "longitude": 137.7217792308956,
    "is_shadow_confederation": false
  },
  {
    "rank": 16,
    "team_name": "福島大学",
    "team_short_name": "福島",
    "runner_name": "津川",
    "total_distance_km": 250.6,
    "latitude": 34.708052,
    "longitude": 137.73041276922234,
    "is_shadow_confederation": false
  },
  {
    "rank": 17,
    "team_name": "東北大学",
    "team_short_name": "東北",
    "runner_name": "山形（山形）",
    "total_distance_km": 219.8,
    "latitude": 34.78111870074962,
    "longitude": 138.03809580858956,
    "is_shadow_confederation": false
  },
  {
    "rank": 18,
    "team_name": "学連選抜",
    "team_short_name": "学連",
    "runner_name": "新潟",
    "total_distance_km": 215.8,
    "latitude": 34.795398076530404,
    "longitude": 138.0732988673722,
    "is_shadow_confederation": false
  },
  {
    "rank": null,
    "team_name": "区間記録連合",
    "team_short_name": "区間記録",
    "runner_name": "伊勢崎",
    "total_distance_km": 290.3,
    "latitude": 34.77483376566921,
    "longitude": 137.38872771333274,
    "is_shadow_confederation": true
  }
]