[
  {
    "rank": 1,
    "team_name": "金沢大学",
    "team_short_name": "金沢",
    "runner_name": "秋ヶ島",
    "total_distance_km": 67.8,
    "latitude": 35.30773352566165,
    "longitude": 139.31433857853855
  },
  {
    "rank": 2,
    "team_name": "上武大学",
    "team_short_name": "上武",
    "runner_name": "佐野",
    "total_distance_km": 65.9,
    "latitude": 35.314098993687594,
    "longitude": 139.3315340572646
  },
  {
    "rank": 2,
    "team_name": "福島大学",
    "team_short_name": "福島",
    "runner_name": "梁川",
    "total_distance_km": 65.9,
    "latitude": 35.314098993687594,
    "longitude": 139.3315340572646
  },
  {
    "rank": 4,
    "team_name": "四国大学",
    "team_short_name": "四国",
    "runner_name": "穴吹",
    "total_distance_km": 65.4,
    "latitude": 35.31499658143554,
    "longitude": 139.33682041138331
  },
  {
    "rank": 5,
    "team_name": "名古屋大学",
    "team_short_name": "名大",
    "runner_name": "美濃加茂",
    "total_distance_km": 65.2,
    "latitude": 35.3147950289647,
    "longitude": 139.3390059458681
  },
  {
    "rank": 6,
    "team_name": "立命館大学",
    "team_short_name": "立命",
    "runner_name": "東近江",
    "total_distance_km": 64.6,
    "latitude": 35.31538537638386,
    "longitude": 139.34555302063973
  },
  {
    "rank": 7,
    "team_name": "福岡大学",
    "team_short_name": "福岡",
    "runner_name": "久留米",
    "total_distance_km": 64.0,
    "latitude": 35.31597078469359,
    "longitude": 139.3521089217369
  },
  {
    "rank": 8,
    "team_name": "関西大学",
    "team_short_name": "関大",
    "runner_name": "福崎",
    "total_distance_km": 63.9,
    "latitude": 35.31601393837671,
    "longitude": 139.35320733868156
  },
  {
    "rank": 9,
    "team_name": "日本大学",
    "team_short_name": "日大",
    "runner_name": "大子",
    "total_distance_km": 63.7,
    "latitude": 35.31610024574296,
    "longitude": 139.35540417257084
  },
  {
    "rank": 10,
    "team_name": "三重大学",
    "team_short_name": "三重",
    "runner_name": "粥見",
    "total_distance_km": 63.1,
    "latitude": 35.31665539264615,
    "longitude": 139.3619302551853
  },
  {
    "rank": 11,
    "team_name": "鳥取大学",
    "team_short_name": "鳥取",
    "runner_name": "川本",
    "total_distance_km": 63.0,
    "latitude": 35.31692613547917,
    "longitude": 139.36297917905114
  },
  {
    "rank": 12,
    "team_name": "山梨学院大学",
    "team_short_name": "山学",
    "runner_name": "長野",
    "total_distance_km": 62.0,
    "latitude": 35.31963356380944,
    "longitude": 139.37346841770912
  },
  {
    "rank": 13,
    "team_name": "琉球大学",
    "team_short_name": "琉球",
    "runner_name": "北原",
    "total_distance_km": 61.9,
    "latitude": 35.31990430664247,
    "longitude": 139.37451734157492
  },
  {
    "rank": 14,
    "team_name": "熊本学園大学",
    "team_short_name": "熊学",
    "runner_name": "甲佐",
    "total_distance_km": 61.2,
    "latitude": 35.317903702574085,
    "longitude": 139.38117002761072
  },
  {
    "rank": 15,
    "team_name": "広島経済大学",
    "team_short_name": "広経",
    "runner_name": "三次",
    "total_distance_km": 61.0,
    "latitude": 35.317149263560886,
    "longitude": 139.3831417931328
  },
  {
    "rank": 16,
    "team_name": "鹿児島大学",
    "team_short_name": "鹿大",
    "runner_name": "東市来",
    "total_distance_km": 60.4,
    "latitude": 35.31743160285845,
    "longitude": 139.38964989971683
  },
  {
    "rank": 17,
    "team_name": "学連選抜",
    "team_short_name": "学連",
    "runner_name": "美幌",
    "total_distance_km": 48.8,
    "latitude": 35.35931227617285,
    "longitude": 139.49392059540392
  },
  {
    "rank": 18,
    "team_name": "東北大学",
    "team_short_name": "東北",
    "runner_name": "帯広",
    "total_distance_km": 42.1,
    "latitude": 35.40884395139994,
    "longitude": 139.52996602014707
  }
]