[
  {
    "rank": 1,
    "team_name": "琉球大学",
    "team_short_name": "琉球",
    "runner_name": "波照間",
    "total_distance_km": 501.0,
    "latitude": 34.907233819442254,
    "longitude": 135.7442496814919,
    "is_shadow_confederation": false
  },
  {
    "rank": 2,
    "team_name": "熊本学園大学",
    "team_short_name": "熊学",
    "runner_name": "熊本",
    "total_distance_km": 446.8,
    "latitude": 34.98393574368739,
    "longitude": 136.13901778296588,
    "is_shadow_confederation": false
  },
  {
    "rank": 3,
    "team_name": "鹿児島大学",
    "team_short_name": "鹿大",
    "runner_name": "西都",
    "total_distance_km": 431.4,
    "latitude": 34.932470856946196,
    "longitude": 136.2905209066294,
    "is_shadow_confederation": false
  },
  {
    "rank": 4,
    "team_name": "福岡大学",
    "team_short_name": "福岡",
    "runner_name": "前原",
    "total_distance_km": 419.9,
    "latitude": 34.869038417873995,
    "longitude": 136.36795267396738,
    "is_shadow_confederation": false
  },
  {
    "rank": 5,
    "team_name": "四国大学",
    "team_short_name": "四国",
    "runner_name": "松山",
    "total_distance_km": 406.2,
    "latitude": 34.86730044563502,
    "longitude": 136.4899745634921,
    "is_shadow_confederation": false
  },
  {
    "rank": 6,
    "team_name": "広島経済大学",
    "team_short_name": "広経",
    "runner_name": "大竹",
    "total_distance_km": 394.7,
    "latitude": 34.920388741365066,
    "longitude": 136.58049071953272,
    "is_shadow_confederation": false
  },
  {
    "rank": 7,
    "team_name": "鳥取大学",
    "team_short_name": "鳥取",
    "runner_name": "防府",
    "total_distance_km": 378.8,
    "latitude": 35.03491167218937,
    "longitude": 136.67193439497672,
    "is_shadow_confederation": false
  },
  {
    "rank": 8,
    "team_name": "名古屋大学",
    "team_short_name": "名大",
    "runner_name": "愛西",
    "total_distance_km": 375.1,
    "latitude": 35.06531450638094,
    "longitude": 136.68621036605506,
    "is_shadow_confederation": false
  },
  {
    "rank": 9,
    "team_name": "関西大学",
    "team_short_name": "関大",
    "runner_name": "柏原",
    "total_distance_km": 371.1,
    "latitude": 35.09397701085794,
    "longitude": 136.70284824453788,
    "is_shadow_confederation": false
  },
  {
    "rank": 10,
    "team_name": "立命館大学",
    "team_short_name": "立命",
    "runner_name": "米原",
    "total_distance_km": 368.2,
    "latitude": 35.111334246004915,
    "longitude": 136.72446153739043,
    "is_shadow_confederation": false
  },
  {
    "rank": 11,
    "team_name": "三重大学",
    "team_short_name": "三重",
    "runner_name": "風屋",
    "total_distance_km": 365.8,
    "latitude": 35.11734713039164,
    "longitude": 136.74975113494293,
    "is_shadow_confederation": false
  },
  {
    "rank": 12,
    "team_name": "金沢大学",
    "team_short_name": "金沢",
    "runner_name": "志賀",
    "total_distance_km": 349.6,
    "latitude": 35.11481997758688,
    "longitude": 136.92207057866017,
    "is_shadow_confederation": false
  },
  {
    "rank": 13,
    "team_name": "日本大学",
    "team_short_name": "日大",
    "runner_name": "小田原",
    "total_distance_km": 345.5,
    "latitude": 35.081452412761195,
    "longitude": 136.9388515818839,
    "is_shadow_confederation": false
  },
  {
    "rank": 14,
    "team_name": "上武大学",
    "team_short_name": "上武",
    "runner_name": "寄居",
    "total_distance_km": 342.6,
    "latitude": 35.06778210650778,
    "longitude": 136.96561874450805,
    "is_shadow_confederation": false
  },
  {
    "rank": 15,
    "team_name": "山梨学院大学",
    "team_short_name": "山学",
    "runner_name": "大月",
    "total_distance_km": 323.6,
    "latitude": 34.9686707524923,
    "longitude": 137.12951564660102,
    "is_shadow_confederation": false
  },
  {
    "rank": 16,
    "team_name": "福島大学",
    "team_short_name": "福島",
    "runner_name": "津川",
    "total_distance_km": 304.0,
    "latitude": 34.86780131592213,
    "longitude": 137.29342728291402,
    "is_shadow_confederation": false
  },
  {
    "rank": 17,
    "team_name": "学連選抜",
    "team_short_name": "学連",
    "runner_name": "大村",
    "total_distance_km": 270.5,
    "latitude": 34.68137101287217,
    "longitude": 137.53805056354898,
    "is_shadow_confederation": false
  },
  {
    "rank": 18,
    "team_name": "東北大学",
    "team_short_name": "東北",
    "runner_name": "高畠",
    "total_distance_km": 252.7,
    "latitude": 34.69498506295344,
    "longitude": 137.72021053173856,
    "is_shadow_confederation": false
  }
]