[
  {
    "rank": 1,
    "team_name": "琉球大学",
    "team_short_name": "琉球",
    "runner_name": "那覇",
    "total_distance_km": 763.0,
    "latitude": 34.487583200577475,
    "longitude": 133.3856982906854,
    "is_shadow_confederation": false
  },
  {
    "rank": 2,
    "team_name": "名古屋大学",
    "team_short_name": "名大",
    "runner_name": "名古屋",
    "total_distance_km": 752.5,
    "latitude": 34.50882302873095,
    "longitude": 133.48942253569362,
    "is_shadow_confederation": false
  },
  {
    "rank": 3,
    "team_name": "福岡大学",
    "team_short_name": "福岡",
    "runner_name": "口之津",
    "total_distance_km": 750.7,
    "latitude": 34.50333508665817,
    "longitude": 133.50455463573346,
    "is_shadow_confederation": false
  },
  {
    "rank": 4,
    "team_name": "四国大学",
    "team_short_name": "四国",
    "runner_name": "新居浜",
    "total_distance_km": 745.5,
    "latitude": 34.509341036923374,
    "longitude": 133.55505857438604,
    "is_shadow_confederation": false
  },
  {
    "rank": 5,
    "team_name": "鹿児島大学",
    "team_short_name": "鹿大",
    "runner_name": "鹿児島",
    "total_distance_km": 745.2,
    "latitude": 34.51075658909182,
    "longitude": 133.55783566809686,
    "is_shadow_confederation": false
  },
  {
    "rank": 6,
    "team_name": "関西大学",
    "team_short_name": "関大",
    "runner_name": "八尾（大阪）",
    "total_distance_km": 744.0,
    "latitude": 34.516959973240496,
    "longitude": 133.5685405961242,
    "is_shadow_confederation": false
  },
  {
    "rank": 7,
    "team_name": "熊本学園大学",
    "team_short_name": "熊学",
    "runner_name": "犬飼",
    "total_distance_km": 739.5,
    "latitude": 34.53589485460252,
    "longitude": 133.61148377987124,
    "is_shadow_confederation": false
  },
  {
    "rank": 8,
    "team_name": "立命館大学",
    "team_short_name": "立命",
    "runner_name": "長浜（滋賀）",
    "total_distance_km": 738.2,
    "latitude": 34.53586859077628,
    "longitude": 133.62551990266618,
    "is_shadow_confederation": false
  },
  {
    "rank": 9,
    "team_name": "広島経済大学",
    "team_short_name": "広経",
    "runner_name": "福山",
    "total_distance_km": 738.1,
    "latitude": 34.535990079362435,
    "longitude": 133.62659928202777,
    "is_shadow_confederation": false
  },
  {
    "rank": 10,
    "team_name": "三重大学",
    "team_short_name": "三重",
    "runner_name": "津",
    "total_distance_km": 730.5,
    "latitude": 34.57055852179033,
    "longitude": 133.69432040025268,
    "is_shadow_confederation": false
  },
  {
    "rank": 11,
    "team_name": "山梨学院大学",
    "team_short_name": "山学",
    "runner_name": "三島",
    "total_distance_km": 728.4,
    "latitude": 34.5777417640128,
    "longitude": 133.7127713799561,
    "is_shadow_confederation": false
  },
  {
    "rank": 12,
    "team_name": "日本大学",
    "team_short_name": "日大",
    "runner_name": "練馬",
    "total_distance_km": 720.3,
    "latitude": 34.61463973479552,
    "longitude": 133.78484062217055,
    "is_shadow_confederation": false
  },
  {
    "rank": 13,
    "team_name": "鳥取大学",
    "team_short_name": "鳥取",
    "runner_name": "米子",
    "total_distance_km": 718.1,
    "latitude": 34.62793757592545,
    "longitude": 133.80129180251458,
    "is_shadow_confederation": false
  },
  {
    "rank": 14,
    "team_name": "金沢大学",
    "team_short_name": "金沢",
    "runner_name": "敦賀",
    "total_distance_km": 711.1,
    "latitude": 34.64672431983536,
    "longitude": 133.8706561196603,
    "is_shadow_confederation": false
  },
  {
    "rank": 15,
    "team_name": "上武大学",
    "team_short_name": "上武",
    "runner_name": "小山",
    "total_distance_km": 710.4,
    "latitude": 34.6482522999107,
    "longitude": 133.877975765358,
    "is_shadow_confederation": false
  },
  {
    "rank": 16,
    "team_name": "福島大学",
    "team_short_name": "福島",
    "runner_name": "寺泊",
    "total_distance_km": 690.1,
    "latitude": 34.707622516388206,
    "longitude": 134.07625272434572,
    "is_shadow_confederation": false
  },
  {
    "rank": 17,
    "team_name": "学連選抜",
    "team_short_name": "学連",
    "runner_name": "加世田",
    "total_distance_km": 684.9,
    "latitude": 34.72913988942102,
    "longitude": 134.12156035630522,
    "is_shadow_confederation": false
  },
  {
    "rank": 18,
    "team_name": "東北大学",
    "team_short_name": "東北",
    "runner_name": "丸森",
    "total_distance_km": 632.4,
    "latitude": 34.830002725928516,
    "longitude": 134.6179813724093,
    "is_shadow_confederation": false
  },
  {
    "rank": null,
    "team_name": "区間記録連合",
    "team_short_name": "区間記録",
    "runner_name": "新居浜",
    "total_distance_km": 763.0,
    "latitude": 34.487583200577475,
    "longitude": 133.3856982906854,
    "is_shadow_confederation": true
  }
]