[
  {
    "rank": 1,
    "team_name": "琉球大学",
    "team_short_name": "琉球",
    "runner_name": "西表島",
    "total_distance_km": 778.4,
    "latitude": 34.44288857958387,
    "longitude": 133.23525294998032,
    "is_shadow_confederation": false
  },
  {
    "rank": 2,
    "team_name": "熊本学園大学",
    "team_short_name": "熊学",
    "runner_name": "犬飼",
    "total_distance_km": 734.0,
    "latitude": 34.554515210901364,
    "longitude": 133.6637710038599,
    "is_shadow_confederation": false
  },
  {
    "rank": 3,
    "team_name": "名古屋大学",
    "team_short_name": "名大",
    "runner_name": "名古屋",
    "total_distance_km": 715.1,
    "latitude": 34.640776336237955,
    "longitude": 133.8298280129259,
    "is_shadow_confederation": false
  },
  {
    "rank": 4,
    "team_name": "福岡大学",
    "team_short_name": "福岡",
    "runner_name": "口之津",
    "total_distance_km": 714.8,
    "latitude": 34.641749237882124,
    "longitude": 133.83288100882436,
    "is_shadow_confederation": false
  },
  {
    "rank": 5,
    "team_name": "鹿児島大学",
    "team_short_name": "鹿大",
    "runner_name": "鹿児島",
    "total_distance_km": 713.4,
    "latitude": 34.64602007069823,
    "longitude": 133.8471918489877,
    "is_shadow_confederation": false
  },
  {
    "rank": 6,
    "team_name": "関西大学",
    "team_short_name": "関大",
    "runner_name": "八尾（大阪）",
    "total_distance_km": 711.9,
    "latitude": 34.64436713747399,
    "longitude": 133.86251608646367,
    "is_shadow_confederation": false
  },
  {
    "rank": 7,
    "team_name": "鳥取大学",
    "team_short_name": "鳥取",
    "runner_name": "米子",
    "total_distance_km": 706.6,
    "latitude": 34.65618603649107,
    "longitude": 133.91758412889314,
    "is_shadow_confederation": false
  },
  {
    "rank": 8,
    "team_name": "立命館大学",
    "team_short_name": "立命",
    "runner_name": "長浜（滋賀）",
    "total_distance_km": 704.8,
    "latitude": 34.65603293595164,
    "longitude": 133.93721792900044,
    "is_shadow_confederation": false
  },
  {
    "rank": 9,
    "team_name": "四国大学",
    "team_short_name": "四国",
    "runner_name": "新居浜",
    "total_distance_km": 704.5,
    "latitude": 34.65759957337827,
    "longitude": 133.93906620427197,
    "is_shadow_confederation": false
  },
  {
    "rank": 10,
    "team_name": "広島経済大学",
    "team_short_name": "広経",
    "runner_name": "福山",
    "total_distance_km": 704.4,
    "latitude": 34.65843796946575,
    "longitude": 133.93945407849603,
    "is_shadow_confederation": false
  },
  {
    "rank": 11,
    "team_name": "上武大学",
    "team_short_name": "上武",
    "runner_name": "小山",
    "total_distance_km": 691.5,
    "latitude": 34.70534049871728,
    "longitude": 134.06146201167024,
    "is_shadow_confederation": false
  },
  {
    "rank": 12,
    "team_name": "山梨学院大学",
    "team_short_name": "山学",
    "runner_name": "三島",
    "total_distance_km": 691.0,
    "latitude": 34.705231537832724,
    "longitude": 134.06687846891364,
    "is_shadow_confederation": false
  },
  {
    "rank": 13,
    "team_name": "三重大学",
    "team_short_name": "三重",
    "runner_name": "津",
    "total_distance_km": 686.3,
    "latitude": 34.725841508243164,
    "longitude": 134.10680599663996,
    "is_shadow_confederation": false
  },
  {
    "rank": 14,
    "team_name": "金沢大学",
    "team_short_name": "金沢",
    "runner_name": "敦賀",
    "total_distance_km": 685.6,
    "latitude": 34.72749069883209,
    "longitude": 134.11418317647258,
    "is_shadow_confederation": false
  },
  {
    "rank": 15,
    "team_name": "日本大学",
    "team_short_name": "日大",
    "runner_name": "八王子",
    "total_distance_km": 661.1,
    "latitude": 34.84222655415654,
    "longitude": 134.3241702671765,
    "is_shadow_confederation": false
  },
  {
    "rank": 16,
    "team_name": "学連選抜",
    "team_short_name": "学連",
    "runner_name": "多度津",
    "total_distance_km": 633.8,
    "latitude": 34.829876856027596,
    "longitude": 134.60319127514398,
    "is_shadow_confederation": false
  },
  {
    "rank": 17,
    "team_name": "福島大学",
    "team_short_name": "福島",
    "runner_name": "浪江",
    "total_distance_km": 625.7,
    "latitude": 34.836127997444066,
    "longitude": 134.67613885150317,
    "is_shadow_confederation": false
  },
  {
    "rank": 18,
    "team_name": "東北大学",
    "team_short_name": "東北",
    "runner_name": "丸森",
    "total_distance_km": 620.0,
    "latitude": 34.82075978579958,
    "longitude": 134.73527082731,
    "is_shadow_confederation": false
  }
]