[
  {
    "rank": 1,
    "team_name": "名古屋大学",
    "team_short_name": "名大",
    "runner_name": "多治見",
    "total_distance_km": 533.9,
    "latitude": 34.697258104960014,
    "longitude": 135.52632637600232,
    "is_shadow_confederation": false
  },
  {
    "rank": 2,
    "team_name": "四国大学",
    "team_short_name": "四国",
    "runner_name": "大洲",
    "total_distance_km": 531.3,
    "latitude": 34.707083224796044,
    "longitude": 135.54622752711603,
    "is_shadow_confederation": false
  },
  {
    "rank": 3,
    "team_name": "琉球大学",
    "team_short_name": "琉球",
    "runner_name": "波照間",
    "total_distance_km": 529.9,
    "latitude": 34.71958605639725,
    "longitude": 135.5476694614613,
    "is_shadow_confederation": false
  },
  {
    "rank": 4,
    "team_name": "熊本学園大学",
    "team_short_name": "熊学",
    "runner_name": "熊本",
    "total_distance_km": 529.7,
    "latitude": 34.721341739895095,
    "longitude": 135.54816563729446,
    "is_shadow_confederation": false
  },
  {
    "rank": 5,
    "team_name": "福岡大学",
    "team_short_name": "福岡",
    "runner_name": "前原",
    "total_distance_km": 528.4,
    "latitude": 34.7313476783,
    "longitude": 135.55469424454088,
    "is_shadow_confederation": false
  },
  {
    "rank": 6,
    "team_name": "関西大学",
    "team_short_name": "関大",
    "runner_name": "枚方",
    "total_distance_km": 522.6,
    "latitude": 34.76691570899713,
    "longitude": 135.60075932975408,
    "is_shadow_confederation": false
  },
  {
    "rank": 7,
    "team_name": "立命館大学",
    "team_short_name": "立命",
    "runner_name": "舞鶴",
    "total_distance_km": 522.2,
    "latitude": 34.7692724292385,
    "longitude": 135.6040663883342,
    "is_shadow_confederation": false
  },
  {
    "rank": 8,
    "team_name": "広島経済大学",
    "team_short_name": "広経",
    "runner_name": "高梁",
    "total_distance_km": 519.8,
    "latitude": 34.784794375769955,
    "longitude": 135.62202926747526,
    "is_shadow_confederation": false
  },
  {
    "rank": 9,
    "team_name": "日本大学",
    "team_short_name": "日大",
    "runner_name": "牛久",
    "total_distance_km": 515.7,
    "latitude": 34.80637568718874,
    "longitude": 135.6520202753385,
    "is_shadow_confederation": false
  },
  {
    "rank": 10,
    "team_name": "鳥取大学",
    "team_short_name": "鳥取",
    "runner_name": "境",
    "total_distance_km": 514.2,
    "latitude": 34.812554456087724,
    "longitude": 135.6666017977251,
    "is_shadow_confederation": false
  },
  {
    "rank": 11,
    "team_name": "鹿児島大学",
    "team_short_name": "鹿大",
    "runner_name": "西都",
    "total_distance_km": 513.7,
    "latitude": 34.81540353453008,
    "longitude": 135.67075118179775,
    "is_shadow_confederation": false
  },
  {
    "rank": 12,
    "team_name": "三重大学",
    "team_short_name": "三重",
    "runner_name": "奈良",
    "total_distance_km": 513.5,
    "latitude": 34.81668450789666,
    "longitude": 135.6722894476188,
    "is_shadow_confederation": false
  },
  {
    "rank": 13,
    "team_name": "山梨学院大学",
    "team_short_name": "山学",
    "runner_name": "甲府",
    "total_distance_km": 512.7,
    "latitude": 34.821808401362986,
    "longitude": 135.67844251090295,
    "is_shadow_confederation": false
  },
  {
    "rank": 14,
    "team_name": "上武大学",
    "team_short_name": "上武",
    "runner_name": "桐生",
    "total_distance_km": 505.8,
    "latitude": 34.86787091360851,
    "longitude": 135.7271312355686,
    "is_shadow_confederation": false
  },
  {
    "rank": 15,
    "team_name": "金沢大学",
    "team_short_name": "金沢",
    "runner_name": "福井",
    "total_distance_km": 500.8,
    "latitude": 34.90903611825071,
    "longitude": 135.74430093714702,
    "is_shadow_confederation": false
  },
  {
    "rank": 16,
    "team_name": "福島大学",
    "team_short_name": "福島",
    "runner_name": "福島",
    "total_distance_km": 491.8,
    "latitude": 34.98409438951994,
    "longitude": 135.75357645841265,
    "is_shadow_confederation": false
  },
  {
    "rank": 17,
    "team_name": "学連選抜",
    "team_short_name": "学連",
    "runner_name": "久世",
    "total_distance_km": 468.6,
    "latitude": 34.99066799576137,
    "longitude": 135.93594332667888,
    "is_shadow_confederation": false
  },
  {
    "rank": 18,
    "team_name": "東北大学",
    "team_short_name": "東北",
    "runner_name": "一関",
    "total_distance_km": 448.1,
    "latitude": 34.98526116972475,
    "longitude": 136.12494969036834,
    "is_shadow_confederation": false
  },
  {
    "rank": null,
    "team_name": "区間記録連合",
    "team_short_name": "区間記録",
    "runner_name": "桐生",
    "total_distance_km": 533.9,
    "latitude": 34.697258104960014,
    "longitude": 135.52632637600232,
    "is_shadow_confederation": true
  }
]