[
  {
    "rank": 1,
    "team_name": "琉球大学",
    "team_short_name": "琉球",
    "runner_name": "盛山",
    "total_distance_km": 311.5,
    "latitude": 34.90737013011827,
    "longitude": 137.2306860462694,
    "is_shadow_confederation": false
  },
  {
    "rank": 2,
    "team_name": "鹿児島大学",
    "team_short_name": "鹿大",
    "runner_name": "加久藤",
    "total_distance_km": 226.8,
    "latitude": 34.762859558864456,
    "longitude": 137.96878023233322,
    "is_shadow_confederation": false
  },
  {
    "rank": 3,
    "team_name": "熊本学園大学",
    "team_short_name": "熊学",
    "runner_name": "岱明",
    "total_distance_km": 220.6,
    "latitude": 34.77828581542939,
    "longitude": 138.03005835250835,
    "is_shadow_confederation": false
  },
  {
    "rank": 4,
    "team_name": "福岡大学",
    "team_short_name": "福岡",
    "runner_name": "福岡",
    "total_distance_km": 206.8,
    "latitude": 34.837051542163806,
    "longitude": 138.12732233472605,
    "is_shadow_confederation": false
  },
  {
    "rank": 5,
    "team_name": "名古屋大学",
    "team_short_name": "名大",
    "runner_name": "美濃",
    "total_distance_km": 190.3,
    "latitude": 34.900283111167845,
    "longitude": 138.28155136007686,
    "is_shadow_confederation": false
  },
  {
    "rank": 6,
    "team_name": "日本大学",
    "team_short_name": "日大",
    "runner_name": "古河",
    "total_distance_km": 188.0,
    "latitude": 34.9186491722714,
    "longitude": 138.29151106166722,
    "is_shadow_confederation": false
  },
  {
    "rank": 7,
    "team_name": "上武大学",
    "team_short_name": "上武",
    "runner_name": "越谷",
    "total_distance_km": 186.7,
    "latitude": 34.925163612382796,
    "longitude": 138.30079832525894,
    "is_shadow_confederation": false
  },
  {
    "rank": 8,
    "team_name": "四国大学",
    "team_short_name": "四国",
    "runner_name": "大三島",
    "total_distance_km": 182.4,
    "latitude": 34.94971783007889,
    "longitude": 138.33177382822666,
    "is_shadow_confederation": false
  },
  {
    "rank": 9,
    "team_name": "三重大学",
    "team_short_name": "三重",
    "runner_name": "五條",
    "total_distance_km": 178.7,
    "latitude": 34.9547488155017,
    "longitude": 138.36816877647425,
    "is_shadow_confederation": false
  },
  {
    "rank": 10,
    "team_name": "鳥取大学",
    "team_short_name": "鳥取",
    "runner_name": "鳥取",
    "total_distance_km": 163.1,
    "latitude": 35.03810890933693,
    "longitude": 138.49527829276218,
    "is_shadow_confederation": false
  },
  {
    "rank": 11,
    "team_name": "関西大学",
    "team_short_name": "関大",
    "runner_name": "和田山",
    "total_distance_km": 159.5,
    "latitude": 35.053630362993864,
    "longitude": 138.52755561390325,
    "is_shadow_confederation": false
  },
  {
    "rank": 12,
    "team_name": "広島経済大学",
    "team_short_name": "広経",
    "runner_name": "加計",
    "total_distance_km": 158.5,
    "latitude": 35.05983407886322,
    "longitude": 138.535446116541,
    "is_shadow_confederation": false
  },
  {
    "rank": 13,
    "team_name": "福島大学",
    "team_short_name": "福島",
    "runner_name": "石川",
    "total_distance_km": 151.4,
    "latitude": 35.11143774069382,
    "longitude": 138.5731686735094,
    "is_shadow_confederation": false
  },
  {
    "rank": 14,
    "team_name": "立命館大学",
    "team_short_name": "立命",
    "runner_name": "福知山",
    "total_distance_km": 148.2,
    "latitude": 35.116066398251554,
    "longitude": 138.60677690838747,
    "is_shadow_confederation": false
  },
  {
    "rank": 15,
    "team_name": "山梨学院大学",
    "team_short_name": "山学",
    "runner_name": "南信濃",
    "total_distance_km": 132.8,
    "latitude": 35.132492663828586,
    "longitude": 138.75736550463998,
    "is_shadow_confederation": false
  },
  {
    "rank": 16,
    "team_name": "金沢大学",
    "team_short_name": "金沢",
    "runner_name": "小浜",
    "total_distance_km": 127.7,
    "latitude": 35.11785044129909,
    "longitude": 138.8101581813927,
    "is_shadow_confederation": false
  },
  {
    "rank": 17,
    "team_name": "東北大学",
    "team_short_name": "東北",
    "runner_name": "帯広",
    "total_distance_km": 90.1,
    "latitude": 35.22856453405675,
    "longitude": 139.10237934724762,
    "is_shadow_confederation": false
  },
  {
    "rank": 18,
    "team_name": "学連選抜",
    "team_short_name": "学連",
    "runner_name": "美幌",
    "total_distance_km": 34.2,
    "latitude": 35.44521331204254,
    "longitude": 139.58985147695876,
    "is_shadow_confederation": false
  },
  {
    "rank": null,
    "team_name": "区間記録連合",
    "team_short_name": "区間記録",
    "runner_name": "伊勢崎",
    "total_distance_km": 311.5,
    "latitude": 34.90737013011827,
    "longitude": 137.2306860462694,
    "is_shadow_confederation": true
  }
]