[
  {
    "rank": 1,
    "team_name": "琉球大学",
    "team_short_name": "琉球",
    "runner_name": "波照間",
    "total_distance_km": 500.5,
    "latitude": 34.911739566463396,
    "longitude": 135.74437782062967,
    "is_shadow_confederation": false
  },
  {
    "rank": 2,
    "team_name": "熊本学園大学",
    "team_short_name": "熊学",
    "runner_name": "熊本",
    "total_distance_km": 441.4,
    "latitude": 34.962524199486694,
    "longitude": 136.19080175622182,
    "is_shadow_confederation": false
  },
  {
    "rank": 3,
    "team_name": "鹿児島大学",
    "team_short_name": "鹿大",
    "runner_name": "西都",
    "total_distance_km": 426.3,
    "latitude": 34.90442675092423,
    "longitude": 136.33238585541426,
    "is_shadow_confederation": false
  },
  {
    "rank": 4,
    "team_name": "福岡大学",
    "team_short_name": "福岡",
    "runner_name": "前原",
    "total_distance_km": 415.5,
    "latitude": 34.851080082033036,
    "longitude": 136.4029761901956,
    "is_shadow_confederation": false
  },
  {
    "rank": 5,
    "team_name": "四国大学",
    "team_short_name": "四国",
    "runner_name": "松山",
    "total_distance_km": 403.5,
    "latitude": 34.87780277799801,
    "longitude": 136.51316279245756,
    "is_shadow_confederation": false
  },
  {
    "rank": 6,
    "team_name": "広島経済大学",
    "team_short_name": "広経",
    "runner_name": "大竹",
    "total_distance_km": 391.5,
    "latitude": 34.94175150661137,
    "longitude": 136.6021278292073,
    "is_shadow_confederation": false
  },
  {
    "rank": 7,
    "team_name": "鳥取大学",
    "team_short_name": "鳥取",
    "runner_name": "防府",
    "total_distance_km": 375.5,
    "latitude": 35.06178682534395,
    "longitude": 136.685304241269,
    "is_shadow_confederation": false
  },
  {
    "rank": 8,
    "team_name": "名古屋大学",
    "team_short_name": "名大",
    "runner_name": "愛西",
    "total_distance_km": 368.7,
    "latitude": 35.108947229606756,
    "longitude": 136.7198584490857,
    "is_shadow_confederation": false
  },
  {
    "rank": 9,
    "team_name": "関西大学",
    "team_short_name": "関大",
    "runner_name": "柏原",
    "total_distance_km": 368.5,
    "latitude": 35.10998937616496,
    "longitude": 136.72164843490387,
    "is_shadow_confederation": false
  },
  {
    "rank": 10,
    "team_name": "三重大学",
    "team_short_name": "三重",
    "runner_name": "風屋",
    "total_distance_km": 363.4,
    "latitude": 35.123196970094966,
    "longitude": 136.77509774291573,
    "is_shadow_confederation": false
  },
  {
    "rank": 11,
    "team_name": "立命館大学",
    "team_short_name": "立命",
    "runner_name": "米原",
    "total_distance_km": 363.1,
    "latitude": 35.12366527733216,
    "longitude": 136.7783392684933,
    "is_shadow_confederation": false
  },
  {
    "rank": 12,
    "team_name": "金沢大学",
    "team_short_name": "金沢",
    "runner_name": "志賀",
    "total_distance_km": 345.4,
    "latitude": 35.08077757340767,
    "longitude": 136.93957850089,
    "is_shadow_confederation": false
  },
  {
    "rank": 13,
    "team_name": "日本大学",
    "team_short_name": "日大",
    "runner_name": "小田原",
    "total_distance_km": 343.8,
    "latitude": 35.07290982268319,
    "longitude": 136.95417429378801,
    "is_shadow_confederation": false
  },
  {
    "rank": 14,
    "team_name": "上武大学",
    "team_short_name": "上武",
    "runner_name": "寄居",
    "total_distance_km": 339.5,
    "latitude": 35.055026314683275,
    "longitude": 136.99480555284927,
    "is_shadow_confederation": false
  },
  {
    "rank": 15,
    "team_name": "山梨学院大学",
    "team_short_name": "山学",
    "runner_name": "大月",
    "total_distance_km": 318.4,
    "latitude": 34.950386806487074,
    "longitude": 137.18082859291724,
    "is_shadow_confederation": false
  },
  {
    "rank": 16,
    "team_name": "福島大学",
    "team_short_name": "福島",
    "runner_name": "津川",
    "total_distance_km": 301.4,
    "latitude": 34.853251471949264,
    "longitude": 137.31507434096602,
    "is_shadow_confederation": false
  },
  {
    "rank": 17,
    "team_name": "学連選抜",
    "team_short_name": "学連",
    "runner_name": "大村",
    "total_distance_km": 267.7,
    "latitude": 34.69203981524526,
    "longitude": 137.56468072569314,
    "is_shadow_confederation": false
  },
  {
    "rank": 18,
    "team_name": "東北大学",
    "team_short_name": "東北",
    "runner_name": "高畠",
    "total_distance_km": 250.1,
    "latitude": 34.708052,
    "longitude": 137.7358706160319,
    "is_shadow_confederation": false
  }
]