[
  {
    "rank": 1,
    "team_name": "琉球大学",
    "team_short_name": "琉球",
    "runner_name": "盛山",
    "total_distance_km": 330.8,
    "latitude": 35.00019447302195,
    "longitude": 137.0613328279889,
    "is_shadow_confederation": false
  },
  {
    "rank": 2,
    "team_name": "熊本学園大学",
    "team_short_name": "熊学",
    "runner_name": "八代",
    "total_distance_km": 319.3,
    "latitude": 34.954645493982056,
    "longitude": 137.17254670714607,
    "is_shadow_confederation": false
  },
  {
    "rank": 3,
    "team_name": "立命館大学",
    "team_short_name": "立命",
    "runner_name": "京田辺",
    "total_distance_km": 313.1,
    "latitude": 34.91516005618256,
    "longitude": 137.2166312217025,
    "is_shadow_confederation": false
  },
  {
    "rank": 4,
    "team_name": "福岡大学",
    "team_short_name": "福岡",
    "runner_name": "黒木",
    "total_distance_km": 308.2,
    "latitude": 34.89219938106433,
    "longitude": 137.26054426601132,
    "is_shadow_confederation": false
  },
  {
    "rank": 5,
    "team_name": "四国大学",
    "team_short_name": "四国",
    "runner_name": "御荘",
    "total_distance_km": 302.2,
    "latitude": 34.85873346656101,
    "longitude": 137.30939069466717,
    "is_shadow_confederation": false
  },
  {
    "rank": 6,
    "team_name": "関西大学",
    "team_short_name": "関大",
    "runner_name": "上郡",
    "total_distance_km": 301.9,
    "latitude": 34.85667771858161,
    "longitude": 137.31152206202924,
    "is_shadow_confederation": false
  },
  {
    "rank": 6,
    "team_name": "鹿児島大学",
    "team_short_name": "鹿大",
    "runner_name": "加久藤",
    "total_distance_km": 301.9,
    "latitude": 34.85667771858161,
    "longitude": 137.31152206202924,
    "is_shadow_confederation": false
  },
  {
    "rank": 8,
    "team_name": "名古屋大学",
    "team_short_name": "名大",
    "runner_name": "大垣",
    "total_distance_km": 299.3,
    "latitude": 34.83708261656574,
    "longitude": 137.32694021144619,
    "is_shadow_confederation": false
  },
  {
    "rank": 8,
    "team_name": "広島経済大学",
    "team_short_name": "広経",
    "runner_name": "府中（広島）",
    "total_distance_km": 299.3,
    "latitude": 34.83708261656574,
    "longitude": 137.32694021144619,
    "is_shadow_confederation": false
  },
  {
    "rank": 10,
    "team_name": "三重大学",
    "team_short_name": "三重",
    "runner_name": "小俣",
    "total_distance_km": 299.2,
    "latitude": 34.83628512488335,
    "longitude": 137.327449801084,
    "is_shadow_confederation": false
  },
  {
    "rank": 11,
    "team_name": "鳥取大学",
    "team_short_name": "鳥取",
    "runner_name": "広瀬",
    "total_distance_km": 298.7,
    "latitude": 34.832297666471405,
    "longitude": 137.32999774927302,
    "is_shadow_confederation": false
  },
  {
    "rank": 12,
    "team_name": "山梨学院大学",
    "team_short_name": "山学",
    "runner_name": "大月",
    "total_distance_km": 294.1,
    "latitude": 34.80187679188406,
    "longitude": 137.36326432673633,
    "is_shadow_confederation": false
  },
  {
    "rank": 13,
    "team_name": "金沢大学",
    "team_short_name": "金沢",
    "runner_name": "七尾",
    "total_distance_km": 292.7,
    "latitude": 34.7917591463879,
    "longitude": 137.3723957271299,
    "is_shadow_confederation": false
  },
  {
    "rank": 14,
    "team_name": "上武大学",
    "team_short_name": "上武",
    "runner_name": "熊谷",
    "total_distance_km": 288.8,
    "latitude": 34.766348012752026,
    "longitude": 137.3976042868934,
    "is_shadow_confederation": false
  },
  {
    "rank": 15,
    "team_name": "日本大学",
    "team_short_name": "日大",
    "runner_name": "下館",
    "total_distance_km": 284.7,
    "latitude": 34.73790942931523,
    "longitude": 137.42357034704006,
    "is_shadow_confederation": false
  },
  {
    "rank": 16,
    "team_name": "福島大学",
    "team_short_name": "福島",
    "runner_name": "津川",
    "total_distance_km": 265.8,
    "latitude": 34.693923634931046,
    "longitude": 137.58439981404086,
    "is_shadow_confederation": false
  },
  {
    "rank": 17,
    "team_name": "東北大学",
    "team_short_name": "東北",
    "runner_name": "高畠",
    "total_distance_km": 252.5,
    "latitude": 34.696202917824955,
    "longitude": 137.7217792308956,
    "is_shadow_confederation": false
  },
  {
    "rank": 18,
    "team_name": "学連選抜",
    "team_short_name": "学連",
    "runner_name": "大村",
    "total_distance_km": 236.9,
    "latitude": 34.728789866230834,
    "longitude": 137.86891293880535,
    "is_shadow_confederation": false
  }
]