[
  {
    "rank": 1,
    "team_name": "琉球大学",
    "team_short_name": "琉球",
    "runner_name": "西表島",
    "total_distance_km": 818.8,
    "latitude": 34.39456505482933,
    "longitude": 132.8890575913958,
    "is_shadow_confederation": false
  },
  {
    "rank": 2,
    "team_name": "鹿児島大学",
    "team_short_name": "鹿大",
    "runner_name": "鹿児島",
    "total_distance_km": 665.7,
    "latitude": 34.81770892744584,
    "longitude": 134.29000423977226,
    "is_shadow_confederation": false
  },
  {
    "rank": 3,
    "team_name": "熊本学園大学",
    "team_short_name": "熊学",
    "runner_name": "大分",
    "total_distance_km": 633.1,
    "latitude": 34.82919911273051,
    "longitude": 134.61049120394924,
    "is_shadow_confederation": false
  },
  {
    "rank": 4,
    "team_name": "福岡大学",
    "team_short_name": "福岡",
    "runner_name": "博多",
    "total_distance_km": 613.9,
    "latitude": 34.793378412397466,
    "longitude": 134.78969475159263,
    "is_shadow_confederation": false
  },
  {
    "rank": 5,
    "team_name": "四国大学",
    "team_short_name": "四国",
    "runner_name": "徳島",
    "total_distance_km": 577.9,
    "latitude": 34.63721562714915,
    "longitude": 135.10078323357078,
    "is_shadow_confederation": false
  },
  {
    "rank": 6,
    "team_name": "名古屋大学",
    "team_short_name": "名大",
    "runner_name": "豊田（愛知）",
    "total_distance_km": 576.1,
    "latitude": 34.64566581283215,
    "longitude": 135.1165836787546,
    "is_shadow_confederation": false
  },
  {
    "rank": 7,
    "team_name": "日本大学",
    "team_short_name": "日大",
    "runner_name": "八王子",
    "total_distance_km": 565.6,
    "latitude": 34.69936302898756,
    "longitude": 135.2089299736772,
    "is_shadow_confederation": false
  },
  {
    "rank": 8,
    "team_name": "上武大学",
    "team_short_name": "上武",
    "runner_name": "伊勢崎",
    "total_distance_km": 562.8,
    "latitude": 34.710318958872065,
    "longitude": 135.23475820445503,
    "is_shadow_confederation": false
  },
  {
    "rank": 9,
    "team_name": "広島経済大学",
    "team_short_name": "広経",
    "runner_name": "高松（香川）",
    "total_distance_km": 559.2,
    "latitude": 34.72177986075965,
    "longitude": 135.271308181613,
    "is_shadow_confederation": false
  },
  {
    "rank": 10,
    "team_name": "三重大学",
    "team_short_name": "三重",
    "runner_name": "新宮",
    "total_distance_km": 556.9,
    "latitude": 34.72913157467741,
    "longitude": 135.29478800503378,
    "is_shadow_confederation": false
  },
  {
    "rank": 11,
    "team_name": "鳥取大学",
    "team_short_name": "鳥取",
    "runner_name": "松江",
    "total_distance_km": 553.6,
    "latitude": 34.73766539472964,
    "longitude": 135.32925955098477,
    "is_shadow_confederation": false
  },
  {
    "rank": 12,
    "team_name": "関西大学",
    "team_short_name": "関大",
    "runner_name": "豊中",
    "total_distance_km": 551.1,
    "latitude": 34.73638803068795,
    "longitude": 135.35621271303313,
    "is_shadow_confederation": false
  },
  {
    "rank": 13,
    "team_name": "立命館大学",
    "team_short_name": "立命",
    "runner_name": "舞鶴",
    "total_distance_km": 526.8,
    "latitude": 34.74122296810173,
    "longitude": 135.56742844568478,
    "is_shadow_confederation": false
  },
  {
    "rank": 14,
    "team_name": "山梨学院大学",
    "team_short_name": "山学",
    "runner_name": "甲府",
    "total_distance_km": 515.9,
    "latitude": 34.805551851335544,
    "longitude": 135.6500760723536,
    "is_shadow_confederation": false
  },
  {
    "rank": 15,
    "team_name": "福島大学",
    "team_short_name": "福島",
    "runner_name": "福島",
    "total_distance_km": 488.0,
    "latitude": 35.00621286380412,
    "longitude": 135.76910044529544,
    "is_shadow_confederation": false
  },
  {
    "rank": 16,
    "team_name": "金沢大学",
    "team_short_name": "金沢",
    "runner_name": "福井",
    "total_distance_km": 452.0,
    "latitude": 34.99976663395314,
    "longitude": 136.08949070010817,
    "is_shadow_confederation": false
  },
  {
    "rank": 17,
    "team_name": "東北大学",
    "team_short_name": "東北",
    "runner_name": "大館",
    "total_distance_km": 384.6,
    "latitude": 34.992439829461986,
    "longitude": 136.64286519334715,
    "is_shadow_confederation": false
  },
  {
    "rank": 18,
    "team_name": "学連選抜",
    "team_short_name": "学連",
    "runner_name": "大村",
    "total_distance_km": 309.0,
    "latitude": 34.895374949890055,
    "longitude": 137.2528263052253,
    "is_shadow_confederation": false
  },
  {
    "rank": null,
    "team_name": "区間記録連合",
    "team_short_name": "区間記録",
    "runner_name": "西脇",
    "total_distance_km": 856.5,
    "latitude": 34.38199907184007,
    "longitude": 132.55774121873412,
    "is_shadow_confederation": true
  }
]