[
  {
    "rank": 1,
    "team_name": "琉球大学",
    "team_short_name": "琉球",
    "runner_name": "久米島",
    "total_distance_km": 580.2,
    "latitude": 34.63169475470203,
    "longitude": 135.07665777977488,
    "is_shadow_confederation": false
  },
  {
    "rank": 2,
    "team_name": "熊本学園大学",
    "team_short_name": "熊学",
    "runner_name": "大分",
    "total_distance_km": 547.9,
    "latitude": 34.7291183129174,
    "longitude": 135.39001180804638,
    "is_shadow_confederation": false
  },
  {
    "rank": 3,
    "team_name": "福岡大学",
    "team_short_name": "福岡",
    "runner_name": "前原",
    "total_distance_km": 531.6,
    "latitude": 34.70437968657238,
    "longitude": 135.5461508016859,
    "is_shadow_confederation": false
  },
  {
    "rank": 4,
    "team_name": "立命館大学",
    "team_short_name": "立命",
    "runner_name": "舞鶴",
    "total_distance_km": 525.3,
    "latitude": 34.75048105229086,
    "longitude": 135.57936675925717,
    "is_shadow_confederation": false
  },
  {
    "rank": 5,
    "team_name": "鹿児島大学",
    "team_short_name": "鹿大",
    "runner_name": "西都",
    "total_distance_km": 522.2,
    "latitude": 34.7692724292385,
    "longitude": 135.6040663883342,
    "is_shadow_confederation": false
  },
  {
    "rank": 6,
    "team_name": "四国大学",
    "team_short_name": "四国",
    "runner_name": "大洲",
    "total_distance_km": 520.7,
    "latitude": 34.778110130143624,
    "longitude": 135.61646785800963,
    "is_shadow_confederation": false
  },
  {
    "rank": 7,
    "team_name": "関西大学",
    "team_short_name": "関大",
    "runner_name": "枚方",
    "total_distance_km": 520.4,
    "latitude": 34.78032053128223,
    "longitude": 135.61834571288207,
    "is_shadow_confederation": false
  },
  {
    "rank": 8,
    "team_name": "鳥取大学",
    "team_short_name": "鳥取",
    "runner_name": "境",
    "total_distance_km": 518.0,
    "latitude": 34.79971979076522,
    "longitude": 135.6292527227432,
    "is_shadow_confederation": false
  },
  {
    "rank": 9,
    "team_name": "名古屋大学",
    "team_short_name": "名大",
    "runner_name": "多治見",
    "total_distance_km": 517.1,
    "latitude": 34.8026681637146,
    "longitude": 135.63787819593284,
    "is_shadow_confederation": false
  },
  {
    "rank": 10,
    "team_name": "広島経済大学",
    "team_short_name": "広経",
    "runner_name": "高梁",
    "total_distance_km": 516.7,
    "latitude": 34.80243920108111,
    "longitude": 135.64221822671826,
    "is_shadow_confederation": false
  },
  {
    "rank": 11,
    "team_name": "三重大学",
    "team_short_name": "三重",
    "runner_name": "奈良",
    "total_distance_km": 508.7,
    "latitude": 34.850897523135785,
    "longitude": 135.70349946857942,
    "is_shadow_confederation": false
  },
  {
    "rank": 12,
    "team_name": "山梨学院大学",
    "team_short_name": "山学",
    "runner_name": "甲府",
    "total_distance_km": 507.0,
    "latitude": 34.86099859771736,
    "longitude": 135.71713237444945,
    "is_shadow_confederation": false
  },
  {
    "rank": 13,
    "team_name": "上武大学",
    "team_short_name": "上武",
    "runner_name": "桐生",
    "total_distance_km": 505.8,
    "latitude": 34.86787091360851,
    "longitude": 135.7271312355686,
    "is_shadow_confederation": false
  },
  {
    "rank": 14,
    "team_name": "金沢大学",
    "team_short_name": "金沢",
    "runner_name": "福井",
    "total_distance_km": 505.0,
    "latitude": 34.87396106862978,
    "longitude": 135.73181702157152,
    "is_shadow_confederation": false
  },
  {
    "rank": 15,
    "team_name": "日本大学",
    "team_short_name": "日大",
    "runner_name": "牛久",
    "total_distance_km": 487.5,
    "latitude": 35.00891148726392,
    "longitude": 135.77147345956834,
    "is_shadow_confederation": false
  },
  {
    "rank": 16,
    "team_name": "東北大学",
    "team_short_name": "東北",
    "runner_name": "一関",
    "total_distance_km": 460.0,
    "latitude": 35.030854100609126,
    "longitude": 136.0124222276544,
    "is_shadow_confederation": false
  },
  {
    "rank": 17,
    "team_name": "福島大学",
    "team_short_name": "福島",
    "runner_name": "福島",
    "total_distance_km": 459.6,
    "latitude": 35.03141789254348,
    "longitude": 136.01675166364313,
    "is_shadow_confederation": false
  },
  {
    "rank": 18,
    "team_name": "学連選抜",
    "team_short_name": "学連",
    "runner_name": "久世",
    "total_distance_km": 448.8,
    "latitude": 34.984606029121316,
    "longitude": 136.11809658784318,
    "is_shadow_confederation": false
  }
]