[
  {
    "rank": 1,
    "team_name": "琉球大学",
    "team_short_name": "琉球",
    "runner_name": "大原",
    "total_distance_km": 878.9,
    "latitude": 34.36052117138438,
    "longitude": 132.3452628171177,
    "is_shadow_confederation": false
  },
  {
    "rank": 2,
    "team_name": "鹿児島大学",
    "team_short_name": "鹿大",
    "runner_name": "鹿児島",
    "total_distance_km": 713.6,
    "latitude": 34.645640844458775,
    "longitude": 133.84509299241813,
    "is_shadow_confederation": false
  },
  {
    "rank": 3,
    "team_name": "熊本学園大学",
    "team_short_name": "熊学",
    "runner_name": "犬飼",
    "total_distance_km": 688.4,
    "latitude": 34.71444467992155,
    "longitude": 134.09187801501838,
    "is_shadow_confederation": false
  },
  {
    "rank": 4,
    "team_name": "福岡大学",
    "team_short_name": "福岡",
    "runner_name": "口之津",
    "total_distance_km": 658.0,
    "latitude": 34.832264629700745,
    "longitude": 134.3532903963403,
    "is_shadow_confederation": false
  },
  {
    "rank": 5,
    "team_name": "四国大学",
    "team_short_name": "四国",
    "runner_name": "徳島",
    "total_distance_km": 623.8,
    "latitude": 34.83238092745658,
    "longitude": 134.69639515062104,
    "is_shadow_confederation": false
  },
  {
    "rank": 6,
    "team_name": "名古屋大学",
    "team_short_name": "名大",
    "runner_name": "豊田（愛知）",
    "total_distance_km": 621.2,
    "latitude": 34.82539827773113,
    "longitude": 134.7234210577458,
    "is_shadow_confederation": false
  },
  {
    "rank": 7,
    "team_name": "日本大学",
    "team_short_name": "日大",
    "runner_name": "八王子",
    "total_distance_km": 595.9,
    "latitude": 34.68724341609713,
    "longitude": 134.9330213063605,
    "is_shadow_confederation": false
  },
  {
    "rank": 8,
    "team_name": "上武大学",
    "team_short_name": "上武",
    "runner_name": "伊勢崎",
    "total_distance_km": 594.0,
    "latitude": 34.67658354630622,
    "longitude": 134.94896962338743,
    "is_shadow_confederation": false
  },
  {
    "rank": 9,
    "team_name": "広島経済大学",
    "team_short_name": "広経",
    "runner_name": "高松（香川）",
    "total_distance_km": 584.9,
    "latitude": 34.63632966285137,
    "longitude": 135.02987322845163,
    "is_shadow_confederation": false
  },
  {
    "rank": 10,
    "team_name": "三重大学",
    "team_short_name": "三重",
    "runner_name": "新宮",
    "total_distance_km": 582.4,
    "latitude": 34.628193006137266,
    "longitude": 135.05319449916055,
    "is_shadow_confederation": false
  },
  {
    "rank": 11,
    "team_name": "関西大学",
    "team_short_name": "関大",
    "runner_name": "豊中",
    "total_distance_km": 577.6,
    "latitude": 34.638803065531654,
    "longitude": 135.10338441593035,
    "is_shadow_confederation": false
  },
  {
    "rank": 12,
    "team_name": "鳥取大学",
    "team_short_name": "鳥取",
    "runner_name": "松江",
    "total_distance_km": 574.6,
    "latitude": 34.65323782439179,
    "longitude": 135.13004346067515,
    "is_shadow_confederation": false
  },
  {
    "rank": 13,
    "team_name": "山梨学院大学",
    "team_short_name": "山学",
    "runner_name": "静岡",
    "total_distance_km": 568.1,
    "latitude": 34.688429649030006,
    "longitude": 135.1851395434919,
    "is_shadow_confederation": false
  },
  {
    "rank": 14,
    "team_name": "立命館大学",
    "team_short_name": "立命",
    "runner_name": "彦根",
    "total_distance_km": 548.1,
    "latitude": 34.729636014788554,
    "longitude": 135.3879231329189,
    "is_shadow_confederation": false
  },
  {
    "rank": 15,
    "team_name": "福島大学",
    "team_short_name": "福島",
    "runner_name": "福島",
    "total_distance_km": 515.3,
    "latitude": 34.808023358895134,
    "longitude": 135.65590868130823,
    "is_shadow_confederation": false
  },
  {
    "rank": 16,
    "team_name": "金沢大学",
    "team_short_name": "金沢",
    "runner_name": "福井",
    "total_distance_km": 491.0,
    "latitude": 34.991278205366726,
    "longitude": 135.75301305370618,
    "is_shadow_confederation": false
  },
  {
    "rank": 17,
    "team_name": "東北大学",
    "team_short_name": "東北",
    "runner_name": "大館",
    "total_distance_km": 407.1,
    "latitude": 34.86034919134231,
    "longitude": 136.4849867525619,
    "is_shadow_confederation": false
  },
  {
    "rank": 18,
    "team_name": "学連選抜",
    "team_short_name": "学連",
    "runner_name": "上",
    "total_distance_km": 336.9,
    "latitude": 35.03717367679408,
    "longitude": 137.0129340860921,
    "is_shadow_confederation": false
  },
  {
    "rank": null,
    "team_name": "区間記録連合",
    "team_short_name": "区間記録",
    "runner_name": "豊中",
    "total_distance_km": 889.1,
    "latitude": 34.29077345053185,
    "longitude": 132.2824946906408,
    "is_shadow_confederation": true
  }
]