[
  {
    "rank": 1,
    "team_name": "琉球大学",
    "team_short_name": "琉球",
    "runner_name": "那覇",
    "total_distance_km": 750.6,
    "latitude": 34.50249406170866,
    "longitude": 133.50494661073685,
    "is_shadow_confederation": false
  },
  {
    "rank": 2,
    "team_name": "鹿児島大学",
    "team_short_name": "鹿大",
    "runner_name": "笠利",
    "total_distance_km": 652.0,
    "latitude": 34.832624722271504,
    "longitude": 134.4149380789515,
    "is_shadow_confederation": false
  },
  {
    "rank": 3,
    "team_name": "熊本学園大学",
    "team_short_name": "熊学",
    "runner_name": "大分",
    "total_distance_km": 635.1,
    "latitude": 34.83306286832256,
    "longitude": 134.58996472301868,
    "is_shadow_confederation": false
  },
  {
    "rank": 4,
    "team_name": "福岡大学",
    "team_short_name": "福岡",
    "runner_name": "博多",
    "total_distance_km": 611.2,
    "latitude": 34.78195221781764,
    "longitude": 134.81516630026394,
    "is_shadow_confederation": false
  },
  {
    "rank": 5,
    "team_name": "四国大学",
    "team_short_name": "四国",
    "runner_name": "徳島",
    "total_distance_km": 587.0,
    "latitude": 34.645560828060454,
    "longitude": 135.010260014125,
    "is_shadow_confederation": false
  },
  {
    "rank": 6,
    "team_name": "広島経済大学",
    "team_short_name": "広経",
    "runner_name": "高松（香川）",
    "total_distance_km": 567.1,
    "latitude": 34.69315240769596,
    "longitude": 135.19438890526516,
    "is_shadow_confederation": false
  },
  {
    "rank": 7,
    "team_name": "名古屋大学",
    "team_short_name": "名大",
    "runner_name": "豊田（愛知）",
    "total_distance_km": 555.1,
    "latitude": 34.73368308445955,
    "longitude": 135.31360906389716,
    "is_shadow_confederation": false
  },
  {
    "rank": 8,
    "team_name": "鳥取大学",
    "team_short_name": "鳥取",
    "runner_name": "松江",
    "total_distance_km": 553.4,
    "latitude": 34.7382071029114,
    "longitude": 135.3313425241521,
    "is_shadow_confederation": false
  },
  {
    "rank": 9,
    "team_name": "関西大学",
    "team_short_name": "関大",
    "runner_name": "豊中",
    "total_distance_km": 551.0,
    "latitude": 34.73618289013216,
    "longitude": 135.35727598515803,
    "is_shadow_confederation": false
  },
  {
    "rank": 10,
    "team_name": "立命館大学",
    "team_short_name": "立命",
    "runner_name": "舞鶴",
    "total_distance_km": 540.1,
    "latitude": 34.70302719975026,
    "longitude": 135.46510987609548,
    "is_shadow_confederation": false
  },
  {
    "rank": 11,
    "team_name": "三重大学",
    "team_short_name": "三重",
    "runner_name": "奈良",
    "total_distance_km": 534.5,
    "latitude": 34.69748380760654,
    "longitude": 135.51984508914242,
    "is_shadow_confederation": false
  },
  {
    "rank": 12,
    "team_name": "日本大学",
    "team_short_name": "日大",
    "runner_name": "牛久",
    "total_distance_km": 523.3,
    "latitude": 34.763349633209984,
    "longitude": 135.59447968348258,
    "is_shadow_confederation": false
  },
  {
    "rank": 13,
    "team_name": "金沢大学",
    "team_short_name": "金沢",
    "runner_name": "福井",
    "total_distance_km": 519.9,
    "latitude": 34.784048735022,
    "longitude": 135.62141534170974,
    "is_shadow_confederation": false
  },
  {
    "rank": 14,
    "team_name": "上武大学",
    "team_short_name": "上武",
    "runner_name": "桐生",
    "total_distance_km": 519.8,
    "latitude": 34.784794375769955,
    "longitude": 135.62202926747526,
    "is_shadow_confederation": false
  },
  {
    "rank": 15,
    "team_name": "山梨学院大学",
    "team_short_name": "山学",
    "runner_name": "甲府",
    "total_distance_km": 493.2,
    "latitude": 34.977516305563846,
    "longitude": 135.74621174481447,
    "is_shadow_confederation": false
  },
  {
    "rank": 16,
    "team_name": "学連選抜",
    "team_short_name": "学連",
    "runner_name": "久世",
    "total_distance_km": 458.1,
    "latitude": 35.027601150353654,
    "longitude": 136.03215088801525,
    "is_shadow_confederation": false
  },
  {
    "rank": 17,
    "team_name": "福島大学",
    "team_short_name": "福島",
    "runner_name": "福島",
    "total_distance_km": 457.2,
    "latitude": 35.02437375761741,
    "longitude": 136.04119885106076,
    "is_shadow_confederation": false
  },
  {
    "rank": 18,
    "team_name": "東北大学",
    "team_short_name": "東北",
    "runner_name": "大館",
    "total_distance_km": 387.2,
    "latitude": 34.97449716730851,
    "longitude": 136.62522964603608,
    "is_shadow_confederation": false
  }
]