[
  {
    "rank": 1,
    "team_name": "琉球大学",
    "team_short_name": "琉球",
    "runner_name": "久米島",
    "total_distance_km": 560.3,
    "latitude": 34.71804343417981,
    "longitude": 135.2602105246758,
    "is_shadow_confederation": false
  },
  {
    "rank": 2,
    "team_name": "鹿児島大学",
    "team_short_name": "鹿大",
    "runner_name": "西都",
    "total_distance_km": 445.1,
    "latitude": 34.98000526925136,
    "longitude": 136.1570031457204,
    "is_shadow_confederation": false
  },
  {
    "rank": 3,
    "team_name": "熊本学園大学",
    "team_short_name": "熊学",
    "runner_name": "熊本",
    "total_distance_km": 439.3,
    "latitude": 34.95666531448691,
    "longitude": 136.2116529824883,
    "is_shadow_confederation": false
  },
  {
    "rank": 4,
    "team_name": "福岡大学",
    "team_short_name": "福岡",
    "runner_name": "朝倉",
    "total_distance_km": 416.0,
    "latitude": 34.85208475563138,
    "longitude": 136.39764858920273,
    "is_shadow_confederation": false
  },
  {
    "rank": 5,
    "team_name": "名古屋大学",
    "team_short_name": "名大",
    "runner_name": "愛西",
    "total_distance_km": 382.7,
    "latitude": 35.0052075983296,
    "longitude": 136.6550221808504,
    "is_shadow_confederation": false
  },
  {
    "rank": 6,
    "team_name": "四国大学",
    "team_short_name": "四国",
    "runner_name": "松山",
    "total_distance_km": 375.7,
    "latitude": 35.06002298482546,
    "longitude": 136.684851178876,
    "is_shadow_confederation": false
  },
  {
    "rank": 7,
    "team_name": "上武大学",
    "team_short_name": "上武",
    "runner_name": "寄居",
    "total_distance_km": 364.0,
    "latitude": 35.12175109194764,
    "longitude": 136.76875647443592,
    "is_shadow_confederation": false
  },
  {
    "rank": 7,
    "team_name": "広島経済大学",
    "team_short_name": "広経",
    "runner_name": "大竹",
    "total_distance_km": 364.0,
    "latitude": 35.12175109194764,
    "longitude": 136.76875647443592,
    "is_shadow_confederation": false
  },
  {
    "rank": 9,
    "team_name": "三重大学",
    "team_short_name": "三重",
    "runner_name": "風屋",
    "total_distance_km": 362.3,
    "latitude": 35.12460073346613,
    "longitude": 136.78703319916374,
    "is_shadow_confederation": false
  },
  {
    "rank": 10,
    "team_name": "日本大学",
    "team_short_name": "日大",
    "runner_name": "小田原",
    "total_distance_km": 360.1,
    "latitude": 35.12629388594323,
    "longitude": 136.81108143130757,
    "is_shadow_confederation": false
  },
  {
    "rank": 11,
    "team_name": "鳥取大学",
    "team_short_name": "鳥取",
    "runner_name": "防府",
    "total_distance_km": 359.2,
    "latitude": 35.12630266848333,
    "longitude": 136.82094899534437,
    "is_shadow_confederation": false
  },
  {
    "rank": 12,
    "team_name": "関西大学",
    "team_short_name": "関大",
    "runner_name": "柏原",
    "total_distance_km": 353.6,
    "latitude": 35.12429304466674,
    "longitude": 136.8817066362339,
    "is_shadow_confederation": false
  },
  {
    "rank": 13,
    "team_name": "立命館大学",
    "team_short_name": "立命",
    "runner_name": "米原",
    "total_distance_km": 345.7,
    "latitude": 35.08279968010762,
    "longitude": 136.93739493737556,
    "is_shadow_confederation": false
  },
  {
    "rank": 14,
    "team_name": "福島大学",
    "team_short_name": "福島",
    "runner_name": "津川",
    "total_distance_km": 314.0,
    "latitude": 34.91910354027316,
    "longitude": 137.2080936919431,
    "is_shadow_confederation": false
  },
  {
    "rank": 15,
    "team_name": "山梨学院大学",
    "team_short_name": "山学",
    "runner_name": "大月",
    "total_distance_km": 310.8,
    "latitude": 34.902856985003815,
    "longitude": 137.23576796784374,
    "is_shadow_confederation": false
  },
  {
    "rank": 16,
    "team_name": "金沢大学",
    "team_short_name": "金沢",
    "runner_name": "七尾",
    "total_distance_km": 291.8,
    "latitude": 34.78541212861839,
    "longitude": 137.37852022195597,
    "is_shadow_confederation": false
  },
  {
    "rank": 17,
    "team_name": "東北大学",
    "team_short_name": "東北",
    "runner_name": "高畠",
    "total_distance_km": 234.5,
    "latitude": 34.74021533608126,
    "longitude": 137.8909115709582,
    "is_shadow_confederation": false
  },
  {
    "rank": 18,
    "team_name": "学連選抜",
    "team_short_name": "学連",
    "runner_name": "新潟",
    "total_distance_km": 137.3,
    "latitude": 35.142233923998624,
    "longitude": 138.70960303308672,
    "is_shadow_confederation": false
  },
  {
    "rank": null,
    "team_name": "区間記録連合",
    "team_short_name": "区間記録",
    "runner_name": "勝沼",
    "total_distance_km": 575.9,
    "latitude": 34.64685825978711,
    "longitude": 135.11816612082072,
    "is_shadow_confederation": true
  }
]