[
  {
    "rank": 1,
    "team_name": "琉球大学",
    "team_short_name": "琉球",
    "runner_name": "大原",
    "total_distance_km": 947.1,
    "latitude": 34.02829289566248,
    "longitude": 131.85450563400454,
    "is_shadow_confederation": false
  },
  {
    "rank": 2,
    "team_name": "鹿児島大学",
    "team_short_name": "鹿大",
    "runner_name": "さつま柏原",
    "total_distance_km": 794.7,
    "latitude": 34.390235158571734,
    "longitude": 133.11061678817538,
    "is_shadow_confederation": false
  },
  {
    "rank": 3,
    "team_name": "熊本学園大学",
    "team_short_name": "熊学",
    "runner_name": "三角",
    "total_distance_km": 767.1,
    "latitude": 34.483598515831126,
    "longitude": 133.342448418259,
    "is_shadow_confederation": false
  },
  {
    "rank": 4,
    "team_name": "福岡大学",
    "team_short_name": "福岡",
    "runner_name": "大牟田",
    "total_distance_km": 754.4,
    "latitude": 34.50859275443477,
    "longitude": 133.46904231921323,
    "is_shadow_confederation": false
  },
  {
    "rank": 5,
    "team_name": "四国大学",
    "team_short_name": "四国",
    "runner_name": "新居浜",
    "total_distance_km": 715.1,
    "latitude": 34.640776336237955,
    "longitude": 133.8298280129259,
    "is_shadow_confederation": false
  },
  {
    "rank": 6,
    "team_name": "広島経済大学",
    "team_short_name": "広経",
    "runner_name": "福山",
    "total_distance_km": 697.6,
    "latitude": 34.68741207754354,
    "longitude": 134.00130403145045,
    "is_shadow_confederation": false
  },
  {
    "rank": 7,
    "team_name": "鳥取大学",
    "team_short_name": "鳥取",
    "runner_name": "米子",
    "total_distance_km": 682.5,
    "latitude": 34.73665405563073,
    "longitude": 134.14609376767032,
    "is_shadow_confederation": false
  },
  {
    "rank": 8,
    "team_name": "関西大学",
    "team_short_name": "関大",
    "runner_name": "八尾（大阪）",
    "total_distance_km": 680.7,
    "latitude": 34.739992427934006,
    "longitude": 134.16525273543712,
    "is_shadow_confederation": false
  },
  {
    "rank": 9,
    "team_name": "名古屋大学",
    "team_short_name": "名大",
    "runner_name": "名古屋",
    "total_distance_km": 680.3,
    "latitude": 34.740945346469964,
    "longitude": 134.16946540281722,
    "is_shadow_confederation": false
  },
  {
    "rank": 10,
    "team_name": "三重大学",
    "team_short_name": "三重",
    "runner_name": "津",
    "total_distance_km": 671.4,
    "latitude": 34.78037768772969,
    "longitude": 134.2514844333069,
    "is_shadow_confederation": false
  },
  {
    "rank": 11,
    "team_name": "立命館大学",
    "team_short_name": "立命",
    "runner_name": "彦根",
    "total_distance_km": 656.4,
    "latitude": 34.82558283512715,
    "longitude": 134.3686069874964,
    "is_shadow_confederation": false
  },
  {
    "rank": 12,
    "team_name": "上武大学",
    "team_short_name": "上武",
    "runner_name": "伊勢崎",
    "total_distance_km": 637.8,
    "latitude": 34.832757211842186,
    "longitude": 134.56069248289535,
    "is_shadow_confederation": false
  },
  {
    "rank": 13,
    "team_name": "日本大学",
    "team_short_name": "日大",
    "runner_name": "八王子",
    "total_distance_km": 635.4,
    "latitude": 34.83299786727886,
    "longitude": 134.58668602108477,
    "is_shadow_confederation": false
  },
  {
    "rank": 14,
    "team_name": "金沢大学",
    "team_short_name": "金沢",
    "runner_name": "富山",
    "total_distance_km": 634.5,
    "latitude": 34.83288356931341,
    "longitude": 134.59648553165368,
    "is_shadow_confederation": false
  },
  {
    "rank": 15,
    "team_name": "山梨学院大学",
    "team_short_name": "山学",
    "runner_name": "静岡",
    "total_distance_km": 620.6,
    "latitude": 34.82307903176536,
    "longitude": 134.7293459425279,
    "is_shadow_confederation": false
  },
  {
    "rank": 16,
    "team_name": "学連選抜",
    "team_short_name": "学連",
    "runner_name": "多度津",
    "total_distance_km": 581.1,
    "latitude": 34.62940269058422,
    "longitude": 135.0672590107451,
    "is_shadow_confederation": false
  },
  {
    "rank": 17,
    "team_name": "福島大学",
    "team_short_name": "福島",
    "runner_name": "浪江",
    "total_distance_km": 561.2,
    "latitude": 34.715924043238395,
    "longitude": 135.25085129333917,
    "is_shadow_confederation": false
  },
  {
    "rank": 18,
    "team_name": "東北大学",
    "team_short_name": "東北",
    "runner_name": "一関",
    "total_distance_km": 478.5,
    "latitude": 34.99384866392126,
    "longitude": 135.85463060808686,
    "is_shadow_confederation": false
  }
]