[
  {
    "rank": 1,
    "team_name": "名古屋大学",
    "team_short_name": "名大",
    "runner_name": "多治見",
    "total_distance_km": 544.1,
    "latitude": 34.71948637655977,
    "longitude": 135.4293456608765,
    "is_shadow_confederation": false
  },
  {
    "rank": 2,
    "team_name": "四国大学",
    "team_short_name": "四国",
    "runner_name": "大洲",
    "total_distance_km": 540.2,
    "latitude": 34.70374078020608,
    "longitude": 135.4644429478999,
    "is_shadow_confederation": false
  },
  {
    "rank": 3,
    "team_name": "熊本学園大学",
    "team_short_name": "熊学",
    "runner_name": "熊本",
    "total_distance_km": 536.3,
    "latitude": 34.69801933041898,
    "longitude": 135.50035494186454,
    "is_shadow_confederation": false
  },
  {
    "rank": 4,
    "team_name": "福岡大学",
    "team_short_name": "福岡",
    "runner_name": "前原",
    "total_distance_km": 535.2,
    "latitude": 34.69723306445983,
    "longitude": 135.51232289785108,
    "is_shadow_confederation": false
  },
  {
    "rank": 5,
    "team_name": "琉球大学",
    "team_short_name": "琉球",
    "runner_name": "波照間",
    "total_distance_km": 533.3,
    "latitude": 34.69856436159313,
    "longitude": 135.53268115586778,
    "is_shadow_confederation": false
  },
  {
    "rank": 6,
    "team_name": "立命館大学",
    "team_short_name": "立命",
    "runner_name": "舞鶴",
    "total_distance_km": 532.7,
    "latitude": 34.69984248899447,
    "longitude": 135.53904428038484,
    "is_shadow_confederation": false
  },
  {
    "rank": 7,
    "team_name": "広島経済大学",
    "team_short_name": "広経",
    "runner_name": "高梁",
    "total_distance_km": 529.9,
    "latitude": 34.71958605639725,
    "longitude": 135.5476694614613,
    "is_shadow_confederation": false
  },
  {
    "rank": 8,
    "team_name": "関西大学",
    "team_short_name": "関大",
    "runner_name": "枚方",
    "total_distance_km": 529.8,
    "latitude": 34.72046389814617,
    "longitude": 135.54791754937787,
    "is_shadow_confederation": false
  },
  {
    "rank": 9,
    "team_name": "三重大学",
    "team_short_name": "三重",
    "runner_name": "奈良",
    "total_distance_km": 522.4,
    "latitude": 34.768094069117815,
    "longitude": 135.60241285904414,
    "is_shadow_confederation": false
  },
  {
    "rank": 10,
    "team_name": "鹿児島大学",
    "team_short_name": "鹿大",
    "runner_name": "西都",
    "total_distance_km": 522.0,
    "latitude": 34.77045078935918,
    "longitude": 135.60571991762424,
    "is_shadow_confederation": false
  },
  {
    "rank": 11,
    "team_name": "日本大学",
    "team_short_name": "日大",
    "runner_name": "牛久",
    "total_distance_km": 521.7,
    "latitude": 34.77221832954021,
    "longitude": 135.60820021155934,
    "is_shadow_confederation": false
  },
  {
    "rank": 12,
    "team_name": "山梨学院大学",
    "team_short_name": "山学",
    "runner_name": "甲府",
    "total_distance_km": 520.3,
    "latitude": 34.78106617203018,
    "longitude": 135.61895963864762,
    "is_shadow_confederation": false
  },
  {
    "rank": 13,
    "team_name": "鳥取大学",
    "team_short_name": "鳥取",
    "runner_name": "境",
    "total_distance_km": 520.1,
    "latitude": 34.78255745352609,
    "longitude": 135.62018749017867,
    "is_shadow_confederation": false
  },
  {
    "rank": 14,
    "team_name": "上武大学",
    "team_short_name": "上武",
    "runner_name": "桐生",
    "total_distance_km": 511.5,
    "latitude": 34.82960736873837,
    "longitude": 135.68752935109185,
    "is_shadow_confederation": false
  },
  {
    "rank": 15,
    "team_name": "金沢大学",
    "team_short_name": "金沢",
    "runner_name": "福井",
    "total_distance_km": 511.3,
    "latitude": 34.830929519414546,
    "longitude": 135.68901565542822,
    "is_shadow_confederation": false
  },
  {
    "rank": 16,
    "team_name": "福島大学",
    "team_short_name": "福島",
    "runner_name": "福島",
    "total_distance_km": 499.8,
    "latitude": 34.918047612293,
    "longitude": 135.74455721542253,
    "is_shadow_confederation": false
  },
  {
    "rank": 17,
    "team_name": "学連選抜",
    "team_short_name": "学連",
    "runner_name": "久世",
    "total_distance_km": 479.1,
    "latitude": 34.992046965839386,
    "longitude": 135.84904883469457,
    "is_shadow_confederation": false
  },
  {
    "rank": 18,
    "team_name": "東北大学",
    "team_short_name": "東北",
    "runner_name": "一関",
    "total_distance_km": 457.3,
    "latitude": 35.024732356810325,
    "longitude": 136.0401935218335,
    "is_shadow_confederation": false
  },
  {
    "rank": null,
    "team_name": "区間記録連合",
    "team_short_name": "区間記録",
    "runner_name": "桐生",
    "total_distance_km": 544.1,
    "latitude": 34.71948637655977,
    "longitude": 135.4293456608765,
    "is_shadow_confederation": true
  }
]