[
  {
    "rank": 1,
    "team_name": "熊本学園大学",
    "team_short_name": "熊学",
    "runner_name": "甲佐",
    "total_distance_km": 97.2,
    "latitude": 35.203449081869614,
    "longitude": 139.055302522402,
    "is_shadow_confederation": false
  },
  {
    "rank": 2,
    "team_name": "琉球大学",
    "team_short_name": "琉球",
    "runner_name": "北原",
    "total_distance_km": 96.0,
    "latitude": 35.20897424231839,
    "longitude": 139.06051002389228,
    "is_shadow_confederation": false
  },
  {
    "rank": 3,
    "team_name": "鹿児島大学",
    "team_short_name": "鹿大",
    "runner_name": "東市来",
    "total_distance_km": 92.5,
    "latitude": 35.22101373095763,
    "longitude": 139.0790978137676,
    "is_shadow_confederation": false
  },
  {
    "rank": 4,
    "team_name": "福岡大学",
    "team_short_name": "福岡",
    "runner_name": "久留米",
    "total_distance_km": 92.4,
    "latitude": 35.22138088658116,
    "longitude": 139.08010094554677,
    "is_shadow_confederation": false
  },
  {
    "rank": 5,
    "team_name": "四国大学",
    "team_short_name": "四国",
    "runner_name": "穴吹",
    "total_distance_km": 86.0,
    "latitude": 35.246745640397904,
    "longitude": 139.13871910550623,
    "is_shadow_confederation": false
  },
  {
    "rank": 6,
    "team_name": "関西大学",
    "team_short_name": "関大",
    "runner_name": "福崎",
    "total_distance_km": 83.7,
    "latitude": 35.25026288695184,
    "longitude": 139.16175505254023,
    "is_shadow_confederation": false
  },
  {
    "rank": 7,
    "team_name": "広島経済大学",
    "team_short_name": "広経",
    "runner_name": "三次",
    "total_distance_km": 83.3,
    "latitude": 35.2522854008949,
    "longitude": 139.16468742567784,
    "is_shadow_confederation": false
  },
  {
    "rank": 8,
    "team_name": "三重大学",
    "team_short_name": "三重",
    "runner_name": "粥見",
    "total_distance_km": 80.3,
    "latitude": 35.26742912898351,
    "longitude": 139.19128020344803,
    "is_shadow_confederation": false
  },
  {
    "rank": 9,
    "team_name": "立命館大学",
    "team_short_name": "立命",
    "runner_name": "東近江",
    "total_distance_km": 80.1,
    "latitude": 35.26838518292499,
    "longitude": 139.19313188892923,
    "is_shadow_confederation": false
  },
  {
    "rank": 10,
    "team_name": "鳥取大学",
    "team_short_name": "鳥取",
    "runner_name": "川本",
    "total_distance_km": 79.3,
    "latitude": 35.27286584069698,
    "longitude": 139.2000008366632,
    "is_shadow_confederation": false
  },
  {
    "rank": 11,
    "team_name": "名古屋大学",
    "team_short_name": "名大",
    "runner_name": "美濃加茂",
    "total_distance_km": 77.7,
    "latitude": 35.28035541170854,
    "longitude": 139.21363979799426,
    "is_shadow_confederation": false
  },
  {
    "rank": 12,
    "team_name": "上武大学",
    "team_short_name": "上武",
    "runner_name": "佐野",
    "total_distance_km": 69.6,
    "latitude": 35.30511422795099,
    "longitude": 139.2951670440476,
    "is_shadow_confederation": false
  },
  {
    "rank": 13,
    "team_name": "金沢大学",
    "team_short_name": "金沢",
    "runner_name": "秋ヶ島",
    "total_distance_km": 67.7,
    "latitude": 35.308535715631336,
    "longitude": 139.3148399472696,
    "is_shadow_confederation": false
  },
  {
    "rank": 14,
    "team_name": "日本大学",
    "team_short_name": "日大",
    "runner_name": "大子",
    "total_distance_km": 67.1,
    "latitude": 35.31014648311178,
    "longitude": 139.31930945970228,
    "is_shadow_confederation": false
  },
  {
    "rank": 15,
    "team_name": "福島大学",
    "team_short_name": "福島",
    "runner_name": "梁川",
    "total_distance_km": 63.6,
    "latitude": 35.31614339942608,
    "longitude": 139.35650258951551,
    "is_shadow_confederation": false
  },
  {
    "rank": 16,
    "team_name": "山梨学院大学",
    "team_short_name": "山学",
    "runner_name": "長野",
    "total_distance_km": 60.6,
    "latitude": 35.31721229151605,
    "longitude": 139.3874668318944,
    "is_shadow_confederation": false
  },
  {
    "rank": 17,
    "team_name": "東北大学",
    "team_short_name": "東北",
    "runner_name": "帯広",
    "total_distance_km": 48.0,
    "latitude": 35.36554952474171,
    "longitude": 139.49823650073682,
    "is_shadow_confederation": false
  },
  {
    "rank": 18,
    "team_name": "学連選抜",
    "team_short_name": "学連",
    "runner_name": "美幌",
    "total_distance_km": 40.8,
    "latitude": 35.41425968882621,
    "longitude": 139.54121663083532,
    "is_shadow_confederation": false
  }
]