[
  {
    "rank": 1,
    "team_name": "名古屋大学",
    "team_short_name": "名大",
    "runner_name": "大垣",
    "total_distance_km": 315.6,
    "latitude": 34.930514217361214,
    "longitude": 137.1974720842116,
    "is_shadow_confederation": false
  },
  {
    "rank": 2,
    "team_name": "四国大学",
    "team_short_name": "四国",
    "runner_name": "御荘",
    "total_distance_km": 309.4,
    "latitude": 34.897239173836,
    "longitude": 137.24908303113625,
    "is_shadow_confederation": false
  },
  {
    "rank": 3,
    "team_name": "立命館大学",
    "team_short_name": "立命",
    "runner_name": "京田辺",
    "total_distance_km": 309.3,
    "latitude": 34.89680613480893,
    "longitude": 137.2500425784064,
    "is_shadow_confederation": false
  },
  {
    "rank": 4,
    "team_name": "熊本学園大学",
    "team_short_name": "熊学",
    "runner_name": "八代",
    "total_distance_km": 308.0,
    "latitude": 34.891177400478874,
    "longitude": 137.26234221332902,
    "is_shadow_confederation": false
  },
  {
    "rank": 5,
    "team_name": "福岡大学",
    "team_short_name": "福岡",
    "runner_name": "黒木",
    "total_distance_km": 306.8,
    "latitude": 34.88195939052322,
    "longitude": 137.26819352837205,
    "is_shadow_confederation": false
  },
  {
    "rank": 6,
    "team_name": "関西大学",
    "team_short_name": "関大",
    "runner_name": "上郡",
    "total_distance_km": 305.2,
    "latitude": 34.873313289193476,
    "longitude": 137.28214573043144,
    "is_shadow_confederation": false
  },
  {
    "rank": 7,
    "team_name": "広島経済大学",
    "team_short_name": "広経",
    "runner_name": "府中（広島）",
    "total_distance_km": 304.6,
    "latitude": 34.87041572707823,
    "longitude": 137.2876858664225,
    "is_shadow_confederation": false
  },
  {
    "rank": 8,
    "team_name": "鳥取大学",
    "team_short_name": "鳥取",
    "runner_name": "広瀬",
    "total_distance_km": 304.4,
    "latitude": 34.86948854185195,
    "longitude": 137.2895611827147,
    "is_shadow_confederation": false
  },
  {
    "rank": 9,
    "team_name": "日本大学",
    "team_short_name": "日大",
    "runner_name": "下館",
    "total_distance_km": 303.4,
    "latitude": 34.86527047702739,
    "longitude": 137.29922643321302,
    "is_shadow_confederation": false
  },
  {
    "rank": 10,
    "team_name": "上武大学",
    "team_short_name": "上武",
    "runner_name": "熊谷",
    "total_distance_km": 301.8,
    "latitude": 34.855992469255135,
    "longitude": 137.3122325178166,
    "is_shadow_confederation": false
  },
  {
    "rank": 11,
    "team_name": "琉球大学",
    "team_short_name": "琉球",
    "runner_name": "盛山",
    "total_distance_km": 300.2,
    "latitude": 34.84412683650868,
    "longitude": 137.3220630683705,
    "is_shadow_confederation": false
  },
  {
    "rank": 12,
    "team_name": "三重大学",
    "team_short_name": "三重",
    "runner_name": "小俣",
    "total_distance_km": 299.7,
    "latitude": 34.84023919881206,
    "longitude": 137.32482896219048,
    "is_shadow_confederation": false
  },
  {
    "rank": 13,
    "team_name": "鹿児島大学",
    "team_short_name": "鹿大",
    "runner_name": "加久藤",
    "total_distance_km": 296.7,
    "latitude": 34.82041174662837,
    "longitude": 137.3459111510433,
    "is_shadow_confederation": false
  },
  {
    "rank": 14,
    "team_name": "山梨学院大学",
    "team_short_name": "山学",
    "runner_name": "大月",
    "total_distance_km": 295.8,
    "latitude": 34.814168966152764,
    "longitude": 137.35219355612494,
    "is_shadow_confederation": false
  },
  {
    "rank": 15,
    "team_name": "金沢大学",
    "team_short_name": "金沢",
    "runner_name": "七尾",
    "total_distance_km": 295.3,
    "latitude": 34.81070075477743,
    "longitude": 137.35568378117028,
    "is_shadow_confederation": false
  },
  {
    "rank": 16,
    "team_name": "福島大学",
    "team_short_name": "福島",
    "runner_name": "津川",
    "total_distance_km": 284.1,
    "latitude": 34.73272328389996,
    "longitude": 137.4245750804985,
    "is_shadow_confederation": false
  },
  {
    "rank": 17,
    "team_name": "東北大学",
    "team_short_name": "東北",
    "runner_name": "高畠",
    "total_distance_km": 255.9,
    "latitude": 34.68807030611563,
    "longitude": 137.68901605156069,
    "is_shadow_confederation": false
  },
  {
    "rank": 18,
    "team_name": "学連選抜",
    "team_short_name": "学連",
    "runner_name": "大村",
    "total_distance_km": 251.2,
    "latitude": 34.7051856171919,
    "longitude": 137.72831310042173,
    "is_shadow_confederation": false
  },
  {
    "rank": null,
    "team_name": "区間記録連合",
    "team_short_name": "区間記録",
    "runner_name": "伊勢崎",
    "total_distance_km": 315.6,
    "latitude": 34.930514217361214,
    "longitude": 137.1974720842116,
    "is_shadow_confederation": true
  }
]