[
  {
    "rank": 1,
    "team_name": "琉球大学",
    "team_short_name": "琉球",
    "runner_name": "大原",
    "total_distance_km": 921.7,
    "latitude": 34.100097726096976,
    "longitude": 132.0884410636429,
    "is_shadow_confederation": false
  },
  {
    "rank": 2,
    "team_name": "鹿児島大学",
    "team_short_name": "鹿大",
    "runner_name": "さつま柏原",
    "total_distance_km": 774.2,
    "latitude": 34.45850613700204,
    "longitude": 133.27611379508303,
    "is_shadow_confederation": false
  },
  {
    "rank": 3,
    "team_name": "熊本学園大学",
    "team_short_name": "熊学",
    "runner_name": "犬飼",
    "total_distance_km": 747.0,
    "latitude": 34.50079228584908,
    "longitude": 133.5427509211885,
    "is_shadow_confederation": false
  },
  {
    "rank": 4,
    "team_name": "福岡大学",
    "team_short_name": "福岡",
    "runner_name": "口之津",
    "total_distance_km": 733.2,
    "latitude": 34.55550060548079,
    "longitude": 133.6720580055372,
    "is_shadow_confederation": false
  },
  {
    "rank": 5,
    "team_name": "四国大学",
    "team_short_name": "四国",
    "runner_name": "新居浜",
    "total_distance_km": 695.9,
    "latitude": 34.69632996940652,
    "longitude": 134.016391611733,
    "is_shadow_confederation": false
  },
  {
    "rank": 6,
    "team_name": "広島経済大学",
    "team_short_name": "広経",
    "runner_name": "福山",
    "total_distance_km": 675.7,
    "latitude": 34.757514161260524,
    "longitude": 134.21517992764458,
    "is_shadow_confederation": false
  },
  {
    "rank": 7,
    "team_name": "鳥取大学",
    "team_short_name": "鳥取",
    "runner_name": "米子",
    "total_distance_km": 661.2,
    "latitude": 34.84228033115553,
    "longitude": 134.32308862732006,
    "is_shadow_confederation": false
  },
  {
    "rank": 8,
    "team_name": "名古屋大学",
    "team_short_name": "名大",
    "runner_name": "名古屋",
    "total_distance_km": 659.9,
    "latitude": 34.842149792400086,
    "longitude": 134.33642445975778,
    "is_shadow_confederation": false
  },
  {
    "rank": 9,
    "team_name": "関西大学",
    "team_short_name": "関大",
    "runner_name": "八尾（大阪）",
    "total_distance_km": 658.9,
    "latitude": 34.83643456304576,
    "longitude": 134.34485081465576,
    "is_shadow_confederation": false
  },
  {
    "rank": 10,
    "team_name": "三重大学",
    "team_short_name": "三重",
    "runner_name": "新宮",
    "total_distance_km": 651.7,
    "latitude": 34.83305877463334,
    "longitude": 134.4181718192419,
    "is_shadow_confederation": false
  },
  {
    "rank": 11,
    "team_name": "立命館大学",
    "team_short_name": "立命",
    "runner_name": "彦根",
    "total_distance_km": 637.5,
    "latitude": 34.83321885441817,
    "longitude": 134.5639239809272,
    "is_shadow_confederation": false
  },
  {
    "rank": 12,
    "team_name": "上武大学",
    "team_short_name": "上武",
    "runner_name": "伊勢崎",
    "total_distance_km": 616.5,
    "latitude": 34.79990777327437,
    "longitude": 134.76366355121104,
    "is_shadow_confederation": false
  },
  {
    "rank": 12,
    "team_name": "金沢大学",
    "team_short_name": "金沢",
    "runner_name": "富山",
    "total_distance_km": 616.5,
    "latitude": 34.79990777327437,
    "longitude": 134.76366355121104,
    "is_shadow_confederation": false
  },
  {
    "rank": 14,
    "team_name": "日本大学",
    "team_short_name": "日大",
    "runner_name": "八王子",
    "total_distance_km": 615.6,
    "latitude": 34.79517984434596,
    "longitude": 134.77150873555962,
    "is_shadow_confederation": false
  },
  {
    "rank": 15,
    "team_name": "山梨学院大学",
    "team_short_name": "山学",
    "runner_name": "静岡",
    "total_distance_km": 599.8,
    "latitude": 34.71068089575375,
    "longitude": 134.9021268047052,
    "is_shadow_confederation": false
  },
  {
    "rank": 16,
    "team_name": "学連選抜",
    "team_short_name": "学連",
    "runner_name": "多度津",
    "total_distance_km": 561.4,
    "latitude": 34.715223407692605,
    "longitude": 135.24883965722867,
    "is_shadow_confederation": false
  },
  {
    "rank": 17,
    "team_name": "福島大学",
    "team_short_name": "福島",
    "runner_name": "浪江",
    "total_distance_km": 542.0,
    "latitude": 34.713693839674825,
    "longitude": 135.44918894627003,
    "is_shadow_confederation": false
  },
  {
    "rank": 18,
    "team_name": "東北大学",
    "team_short_name": "東北",
    "runner_name": "一関",
    "total_distance_km": 459.1,
    "latitude": 35.0311871422828,
    "longitude": 136.02209759574245,
    "is_shadow_confederation": false
  }
]