[
  {
    "rank": 1,
    "team_name": "琉球大学",
    "team_short_name": "琉球",
    "runner_name": "西表島",
    "total_distance_km": 779.6,
    "latitude": 34.43361268415518,
    "longitude": 133.22983641109576,
    "is_shadow_confederation": false
  },
  {
    "rank": 2,
    "team_name": "鹿児島大学",
    "team_short_name": "鹿大",
    "runner_name": "鹿児島",
    "total_distance_km": 674.2,
    "latitude": 34.7663460099907,
    "longitude": 134.22676325924814,
    "is_shadow_confederation": false
  },
  {
    "rank": 3,
    "team_name": "熊本学園大学",
    "team_short_name": "熊学",
    "runner_name": "大分",
    "total_distance_km": 656.4,
    "latitude": 34.82558283512715,
    "longitude": 134.3686069874964,
    "is_shadow_confederation": false
  },
  {
    "rank": 4,
    "team_name": "福岡大学",
    "team_short_name": "福岡",
    "runner_name": "博多",
    "total_distance_km": 631.4,
    "latitude": 34.8378527015788,
    "longitude": 134.62003197512217,
    "is_shadow_confederation": false
  },
  {
    "rank": 5,
    "team_name": "四国大学",
    "team_short_name": "四国",
    "runner_name": "徳島",
    "total_distance_km": 604.5,
    "latitude": 34.74176250376657,
    "longitude": 134.86848189098373,
    "is_shadow_confederation": false
  },
  {
    "rank": 6,
    "team_name": "広島経済大学",
    "team_short_name": "広経",
    "runner_name": "高松（香川）",
    "total_distance_km": 586.2,
    "latitude": 34.643060434141354,
    "longitude": 135.01842710740715,
    "is_shadow_confederation": false
  },
  {
    "rank": 7,
    "team_name": "名古屋大学",
    "team_short_name": "名大",
    "runner_name": "豊田（愛知）",
    "total_distance_km": 572.4,
    "latitude": 34.66550045242419,
    "longitude": 135.14889862168323,
    "is_shadow_confederation": false
  },
  {
    "rank": 8,
    "team_name": "鳥取大学",
    "team_short_name": "鳥取",
    "runner_name": "松江",
    "total_distance_km": 570.5,
    "latitude": 34.67407370423991,
    "longitude": 135.16623038406223,
    "is_shadow_confederation": false
  },
  {
    "rank": 9,
    "team_name": "関西大学",
    "team_short_name": "関大",
    "runner_name": "豊中",
    "total_distance_km": 567.8,
    "latitude": 34.68968020212509,
    "longitude": 135.1880306313491,
    "is_shadow_confederation": false
  },
  {
    "rank": 10,
    "team_name": "立命館大学",
    "team_short_name": "立命",
    "runner_name": "彦根",
    "total_distance_km": 556.3,
    "latitude": 34.73104941309074,
    "longitude": 135.30091317636095,
    "is_shadow_confederation": false
  },
  {
    "rank": 11,
    "team_name": "三重大学",
    "team_short_name": "三重",
    "runner_name": "新宮",
    "total_distance_km": 555.8,
    "latitude": 34.73224222636895,
    "longitude": 135.3061677491695,
    "is_shadow_confederation": false
  },
  {
    "rank": 12,
    "team_name": "日本大学",
    "team_short_name": "日大",
    "runner_name": "八王子",
    "total_distance_km": 537.9,
    "latitude": 34.6945092828519,
    "longitude": 135.4838934323262,
    "is_shadow_confederation": false
  },
  {
    "rank": 13,
    "team_name": "上武大学",
    "team_short_name": "上武",
    "runner_name": "桐生",
    "total_distance_km": 535.6,
    "latitude": 34.697518979354065,
    "longitude": 135.50797091385596,
    "is_shadow_confederation": false
  },
  {
    "rank": 14,
    "team_name": "金沢大学",
    "team_short_name": "金沢",
    "runner_name": "福井",
    "total_distance_km": 534.5,
    "latitude": 34.69748380760654,
    "longitude": 135.51984508914242,
    "is_shadow_confederation": false
  },
  {
    "rank": 15,
    "team_name": "山梨学院大学",
    "team_short_name": "山学",
    "runner_name": "甲府",
    "total_distance_km": 508.9,
    "latitude": 34.84922881569168,
    "longitude": 135.7026718254771,
    "is_shadow_confederation": false
  },
  {
    "rank": 16,
    "team_name": "福島大学",
    "team_short_name": "福島",
    "runner_name": "福島",
    "total_distance_km": 470.1,
    "latitude": 34.9834705005784,
    "longitude": 135.92210825765636,
    "is_shadow_confederation": false
  },
  {
    "rank": 17,
    "team_name": "学連選抜",
    "team_short_name": "学連",
    "runner_name": "久世",
    "total_distance_km": 467.6,
    "latitude": 34.99682492959193,
    "longitude": 135.94394111433857,
    "is_shadow_confederation": false
  },
  {
    "rank": 18,
    "team_name": "東北大学",
    "team_short_name": "東北",
    "runner_name": "大館",
    "total_distance_km": 394.2,
    "latitude": 34.923551030054256,
    "longitude": 136.58437593735246,
    "is_shadow_confederation": false
  }
]