[
  {
    "rank": 1,
    "team_name": "琉球大学",
    "team_short_name": "琉球",
    "runner_name": "ゴール",
    "total_distance_km": 1057.8,
    "latitude": 33.950916,
    "longitude": 130.924104,
    "is_shadow_confederation": false
  },
  {
    "rank": 2,
    "team_name": "鹿児島大学",
    "team_short_name": "鹿大",
    "runner_name": "ゴール",
    "total_distance_km": 1056.2,
    "latitude": 33.95222710186592,
    "longitude": 130.9325647285639,
    "is_shadow_confederation": false
  },
  {
    "rank": 3,
    "team_name": "熊本学園大学",
    "team_short_name": "熊学",
    "runner_name": "ゴール",
    "total_distance_km": 1071.9,
    "latitude": 33.950916,
    "longitude": 130.924104,
    "is_shadow_confederation": false
  },
  {
    "rank": 4,
    "team_name": "福岡大学",
    "team_short_name": "福岡",
    "runner_name": "太宰府",
    "total_distance_km": 1071.6,
    "latitude": 33.950916,
    "longitude": 130.924104,
    "is_shadow_confederation": false
  },
  {
    "rank": 5,
    "team_name": "四国大学",
    "team_short_name": "四国",
    "runner_name": "中村",
    "total_distance_km": 1046.3,
    "latitude": 34.01259830474002,
    "longitude": 130.99750645733394,
    "is_shadow_confederation": false
  },
  {
    "rank": 6,
    "team_name": "広島経済大学",
    "team_short_name": "広経",
    "runner_name": "財田",
    "total_distance_km": 1011.7,
    "latitude": 34.04873762428057,
    "longitude": 131.2820225315255,
    "is_shadow_confederation": false
  },
  {
    "rank": 7,
    "team_name": "関西大学",
    "team_short_name": "関大",
    "runner_name": "大阪",
    "total_distance_km": 992.1,
    "latitude": 34.07970045708986,
    "longitude": 131.44936514621986,
    "is_shadow_confederation": false
  },
  {
    "rank": 8,
    "team_name": "鳥取大学",
    "team_short_name": "鳥取",
    "runner_name": "山口（山口）",
    "total_distance_km": 990.8,
    "latitude": 34.0726093915803,
    "longitude": 131.46041524153296,
    "is_shadow_confederation": false
  },
  {
    "rank": 9,
    "team_name": "名古屋大学",
    "team_short_name": "名大",
    "runner_name": "岐阜",
    "total_distance_km": 987.4,
    "latitude": 34.060936185355644,
    "longitude": 131.4929326955031,
    "is_shadow_confederation": false
  },
  {
    "rank": 10,
    "team_name": "三重大学",
    "team_short_name": "三重",
    "runner_name": "桑名",
    "total_distance_km": 978.8,
    "latitude": 34.056612435312516,
    "longitude": 131.57362537277277,
    "is_shadow_confederation": false
  },
  {
    "rank": 11,
    "team_name": "日本大学",
    "team_short_name": "日大",
    "runner_name": "海老名",
    "total_distance_km": 949.1,
    "latitude": 34.03384575748286,
    "longitude": 131.83536889738045,
    "is_shadow_confederation": false
  },
  {
    "rank": 12,
    "team_name": "上武大学",
    "team_short_name": "上武",
    "runner_name": "館林",
    "total_distance_km": 941.3,
    "latitude": 34.03062298061162,
    "longitude": 131.91441053109864,
    "is_shadow_confederation": false
  },
  {
    "rank": 13,
    "team_name": "立命館大学",
    "team_short_name": "立命",
    "runner_name": "園部",
    "total_distance_km": 937.1,
    "latitude": 34.0431212996698,
    "longitude": 131.95380326458113,
    "is_shadow_confederation": false
  },
  {
    "rank": 14,
    "team_name": "金沢大学",
    "team_short_name": "金沢",
    "runner_name": "大野（福井）",
    "total_distance_km": 923.7,
    "latitude": 34.09322690574298,
    "longitude": 132.0685830793941,
    "is_shadow_confederation": false
  },
  {
    "rank": 15,
    "team_name": "山梨学院大学",
    "team_short_name": "山学",
    "runner_name": "佐久間",
    "total_distance_km": 905.3,
    "latitude": 34.175860878712875,
    "longitude": 132.22385901143642,
    "is_shadow_confederation": false
  },
  {
    "rank": 16,
    "team_name": "学連選抜",
    "team_short_name": "学連",
    "runner_name": "恵那",
    "total_distance_km": 899.8,
    "latitude": 34.220282264467215,
    "longitude": 132.2244947495105,
    "is_shadow_confederation": false
  },
  {
    "rank": 17,
    "team_name": "福島大学",
    "team_short_name": "福島",
    "runner_name": "喜多方",
    "total_distance_km": 812.5,
    "latitude": 34.393317161532664,
    "longitude": 132.94232881676731,
    "is_shadow_confederation": false
  },
  {
    "rank": 18,
    "team_name": "東北大学",
    "team_short_name": "東北",
    "runner_name": "秋田",
    "total_distance_km": 719.5,
    "latitude": 34.61957064031184,
    "longitude": 133.7911943163715,
    "is_shadow_confederation": false
  }
]