[
  {
    "rank": 1,
    "team_name": "琉球大学",
    "team_short_name": "琉球",
    "runner_name": "波照間",
    "total_distance_km": 529.8,
    "latitude": 34.72046389814617,
    "longitude": 135.54791754937787,
    "is_shadow_confederation": false
  },
  {
    "rank": 2,
    "team_name": "熊本学園大学",
    "team_short_name": "熊学",
    "runner_name": "熊本",
    "total_distance_km": 467.2,
    "latitude": 34.99943008028616,
    "longitude": 135.94696945501371,
    "is_shadow_confederation": false
  },
  {
    "rank": 3,
    "team_name": "鹿児島大学",
    "team_short_name": "鹿大",
    "runner_name": "西都",
    "total_distance_km": 450.7,
    "latitude": 34.99306982808358,
    "longitude": 136.10116272373457,
    "is_shadow_confederation": false
  },
  {
    "rank": 4,
    "team_name": "福岡大学",
    "team_short_name": "福岡",
    "runner_name": "前原",
    "total_distance_km": 434.1,
    "latitude": 34.938421214855204,
    "longitude": 136.26327644146807,
    "is_shadow_confederation": false
  },
  {
    "rank": 5,
    "team_name": "四国大学",
    "team_short_name": "四国",
    "runner_name": "大洲",
    "total_distance_km": 419.8,
    "latitude": 34.86964321457085,
    "longitude": 136.36876365135635,
    "is_shadow_confederation": false
  },
  {
    "rank": 6,
    "team_name": "広島経済大学",
    "team_short_name": "広経",
    "runner_name": "高梁",
    "total_distance_km": 406.1,
    "latitude": 34.8681145836448,
    "longitude": 136.4904440209181,
    "is_shadow_confederation": false
  },
  {
    "rank": 7,
    "team_name": "鳥取大学",
    "team_short_name": "鳥取",
    "runner_name": "防府",
    "total_distance_km": 393.5,
    "latitude": 34.9290162985631,
    "longitude": 136.58782168590216,
    "is_shadow_confederation": false
  },
  {
    "rank": 8,
    "team_name": "名古屋大学",
    "team_short_name": "名大",
    "runner_name": "愛西",
    "total_distance_km": 390.7,
    "latitude": 34.94790384045427,
    "longitude": 136.6066960337723,
    "is_shadow_confederation": false
  },
  {
    "rank": 9,
    "team_name": "関西大学",
    "team_short_name": "関大",
    "runner_name": "柏原",
    "total_distance_km": 386.0,
    "latitude": 34.98372572758683,
    "longitude": 136.63182074419694,
    "is_shadow_confederation": false
  },
  {
    "rank": 10,
    "team_name": "立命館大学",
    "team_short_name": "立命",
    "runner_name": "米原",
    "total_distance_km": 380.1,
    "latitude": 35.02344058049816,
    "longitude": 136.67058543133683,
    "is_shadow_confederation": false
  },
  {
    "rank": 11,
    "team_name": "三重大学",
    "team_short_name": "三重",
    "runner_name": "風屋",
    "total_distance_km": 378.0,
    "latitude": 35.04173522156561,
    "longitude": 136.6736627521867,
    "is_shadow_confederation": false
  },
  {
    "rank": 12,
    "team_name": "金沢大学",
    "team_short_name": "金沢",
    "runner_name": "志賀",
    "total_distance_km": 363.6,
    "latitude": 35.122729750071194,
    "longitude": 136.77297988321214,
    "is_shadow_confederation": false
  },
  {
    "rank": 13,
    "team_name": "日本大学",
    "team_short_name": "日大",
    "runner_name": "小田原",
    "total_distance_km": 359.1,
    "latitude": 35.1262895903189,
    "longitude": 136.82204600069406,
    "is_shadow_confederation": false
  },
  {
    "rank": 14,
    "team_name": "上武大学",
    "team_short_name": "上武",
    "runner_name": "寄居",
    "total_distance_km": 358.0,
    "latitude": 35.124189696327115,
    "longitude": 136.83362588437282,
    "is_shadow_confederation": false
  },
  {
    "rank": 15,
    "team_name": "山梨学院大学",
    "team_short_name": "山学",
    "runner_name": "浜松",
    "total_distance_km": 339.4,
    "latitude": 35.05451477587052,
    "longitude": 136.99570809391741,
    "is_shadow_confederation": false
  },
  {
    "rank": 16,
    "team_name": "福島大学",
    "team_short_name": "福島",
    "runner_name": "津川",
    "total_distance_km": 310.7,
    "latitude": 34.902190872449154,
    "longitude": 137.23648325035523,
    "is_shadow_confederation": false
  },
  {
    "rank": 17,
    "team_name": "学連選抜",
    "team_short_name": "学連",
    "runner_name": "大村",
    "total_distance_km": 289.2,
    "latitude": 34.76723167616192,
    "longitude": 137.39336816387018,
    "is_shadow_confederation": false
  },
  {
    "rank": 18,
    "team_name": "東北大学",
    "team_short_name": "東北",
    "runner_name": "高畠",
    "total_distance_km": 258.4,
    "latitude": 34.685442163344405,
    "longitude": 137.66211202500654,
    "is_shadow_confederation": false
  }
]