[
  {
    "rank": 1,
    "team_name": "琉球大学",
    "team_short_name": "琉球",
    "runner_name": "名護",
    "total_distance_km": 383.9,
    "latitude": 34.99743599271154,
    "longitude": 136.64754817030513,
    "is_shadow_confederation": false
  },
  {
    "rank": 2,
    "team_name": "鹿児島大学",
    "team_short_name": "鹿大",
    "runner_name": "加久藤",
    "total_distance_km": 293.1,
    "latitude": 34.79458004317435,
    "longitude": 137.36967372942942,
    "is_shadow_confederation": false
  },
  {
    "rank": 3,
    "team_name": "熊本学園大学",
    "team_short_name": "熊学",
    "runner_name": "八代",
    "total_distance_km": 286.9,
    "latitude": 34.754166539882185,
    "longitude": 137.41131816108486,
    "is_shadow_confederation": false
  },
  {
    "rank": 4,
    "team_name": "福岡大学",
    "team_short_name": "福岡",
    "runner_name": "黒木",
    "total_distance_km": 269.6,
    "latitude": 34.68388544276753,
    "longitude": 137.54734870320746,
    "is_shadow_confederation": false
  },
  {
    "rank": 5,
    "team_name": "名古屋大学",
    "team_short_name": "名大",
    "runner_name": "大垣",
    "total_distance_km": 248.1,
    "latitude": 34.711950165832015,
    "longitude": 137.75675811665968,
    "is_shadow_confederation": false
  },
  {
    "rank": 6,
    "team_name": "日本大学",
    "team_short_name": "日大",
    "runner_name": "下館",
    "total_distance_km": 239.0,
    "latitude": 34.72464816986833,
    "longitude": 137.84748662035062,
    "is_shadow_confederation": false
  },
  {
    "rank": 7,
    "team_name": "四国大学",
    "team_short_name": "四国",
    "runner_name": "御荘",
    "total_distance_km": 237.9,
    "latitude": 34.72483303138717,
    "longitude": 137.85927764320397,
    "is_shadow_confederation": false
  },
  {
    "rank": 8,
    "team_name": "上武大学",
    "team_short_name": "上武",
    "runner_name": "熊谷",
    "total_distance_km": 237.8,
    "latitude": 34.725064317211704,
    "longitude": 137.86033288477836,
    "is_shadow_confederation": false
  },
  {
    "rank": 9,
    "team_name": "三重大学",
    "team_short_name": "三重",
    "runner_name": "小俣",
    "total_distance_km": 232.0,
    "latitude": 34.747844670007126,
    "longitude": 137.91647335507088,
    "is_shadow_confederation": false
  },
  {
    "rank": 10,
    "team_name": "広島経済大学",
    "team_short_name": "広経",
    "runner_name": "加計",
    "total_distance_km": 226.4,
    "latitude": 34.764496942130506,
    "longitude": 137.9725477210886,
    "is_shadow_confederation": false
  },
  {
    "rank": 11,
    "team_name": "鳥取大学",
    "team_short_name": "鳥取",
    "runner_name": "鳥取",
    "total_distance_km": 217.5,
    "latitude": 34.7848427656755,
    "longitude": 138.06188013500523,
    "is_shadow_confederation": false
  },
  {
    "rank": 12,
    "team_name": "関西大学",
    "team_short_name": "関大",
    "runner_name": "和田山",
    "total_distance_km": 215.7,
    "latitude": 34.79625240888864,
    "longitude": 138.07364739122522,
    "is_shadow_confederation": false
  },
  {
    "rank": 13,
    "team_name": "立命館大学",
    "team_short_name": "立命",
    "runner_name": "福知山",
    "total_distance_km": 206.4,
    "latitude": 34.83775383906504,
    "longitude": 138.13151885344516,
    "is_shadow_confederation": false
  },
  {
    "rank": 14,
    "team_name": "福島大学",
    "team_short_name": "福島",
    "runner_name": "石川",
    "total_distance_km": 199.9,
    "latitude": 34.853089760989505,
    "longitude": 138.1986979153823,
    "is_shadow_confederation": false
  },
  {
    "rank": 15,
    "team_name": "山梨学院大学",
    "team_short_name": "山学",
    "runner_name": "南信濃",
    "total_distance_km": 189.7,
    "latitude": 34.90392159451466,
    "longitude": 138.28640181695005,
    "is_shadow_confederation": false
  },
  {
    "rank": 16,
    "team_name": "金沢大学",
    "team_short_name": "金沢",
    "runner_name": "小浜",
    "total_distance_km": 177.3,
    "latitude": 34.964098432226855,
    "longitude": 138.37818093198206,
    "is_shadow_confederation": false
  },
  {
    "rank": 17,
    "team_name": "東北大学",
    "team_short_name": "東北",
    "runner_name": "山形（山形）",
    "total_distance_km": 126.9,
    "latitude": 35.11464806051132,
    "longitude": 138.8180213195659,
    "is_shadow_confederation": false
  },
  {
    "rank": 18,
    "team_name": "学連選抜",
    "team_short_name": "学連",
    "runner_name": "美幌",
    "total_distance_km": 56.1,
    "latitude": 35.32236915434328,
    "longitude": 139.43505928283741,
    "is_shadow_confederation": false
  },
  {
    "rank": null,
    "team_name": "区間記録連合",
    "team_short_name": "区間記録",
    "runner_name": "風屋",
    "total_distance_km": 432.8,
    "latitude": 34.93816495529414,
    "longitude": 136.27728060463892,
    "is_shadow_confederation": true
  }
]