[
  {
    "rank": 1,
    "team_name": "琉球大学",
    "team_short_name": "琉球",
    "runner_name": "那覇",
    "total_distance_km": 724.4,
    "latitude": 34.59058762784265,
    "longitude": 133.7510403499466,
    "is_shadow_confederation": false
  },
  {
    "rank": 2,
    "team_name": "熊本学園大学",
    "team_short_name": "熊学",
    "runner_name": "犬飼",
    "total_distance_km": 675.1,
    "latitude": 34.75977454745154,
    "longitude": 134.22108598958056,
    "is_shadow_confederation": false
  },
  {
    "rank": 3,
    "team_name": "福岡大学",
    "team_short_name": "福岡",
    "runner_name": "博多",
    "total_distance_km": 663.4,
    "latitude": 34.830088222121184,
    "longitude": 134.30902917636317,
    "is_shadow_confederation": false
  },
  {
    "rank": 4,
    "team_name": "鹿児島大学",
    "team_short_name": "鹿大",
    "runner_name": "笠利",
    "total_distance_km": 657.5,
    "latitude": 34.829948000064626,
    "longitude": 134.35797905283172,
    "is_shadow_confederation": false
  },
  {
    "rank": 5,
    "team_name": "名古屋大学",
    "team_short_name": "名大",
    "runner_name": "豊田（愛知）",
    "total_distance_km": 655.8,
    "latitude": 34.82581836213955,
    "longitude": 134.3749938593367,
    "is_shadow_confederation": false
  },
  {
    "rank": 6,
    "team_name": "関西大学",
    "team_short_name": "関大",
    "runner_name": "豊中",
    "total_distance_km": 652.8,
    "latitude": 34.830698737053034,
    "longitude": 134.4068119658417,
    "is_shadow_confederation": false
  },
  {
    "rank": 7,
    "team_name": "四国大学",
    "team_short_name": "四国",
    "runner_name": "徳島",
    "total_distance_km": 648.6,
    "latitude": 34.82678957982295,
    "longitude": 134.45016381331604,
    "is_shadow_confederation": false
  },
  {
    "rank": 7,
    "team_name": "鳥取大学",
    "team_short_name": "鳥取",
    "runner_name": "松江",
    "total_distance_km": 648.6,
    "latitude": 34.82678957982295,
    "longitude": 134.45016381331604,
    "is_shadow_confederation": false
  },
  {
    "rank": 9,
    "team_name": "広島経済大学",
    "team_short_name": "広経",
    "runner_name": "高松（香川）",
    "total_distance_km": 648.0,
    "latitude": 34.825827676141664,
    "longitude": 134.4564986061796,
    "is_shadow_confederation": false
  },
  {
    "rank": 10,
    "team_name": "立命館大学",
    "team_short_name": "立命",
    "runner_name": "彦根",
    "total_distance_km": 646.6,
    "latitude": 34.81901349982632,
    "longitude": 134.46767710879493,
    "is_shadow_confederation": false
  },
  {
    "rank": 11,
    "team_name": "山梨学院大学",
    "team_short_name": "山学",
    "runner_name": "静岡",
    "total_distance_km": 638.7,
    "latitude": 34.83223152712986,
    "longitude": 134.55095529753854,
    "is_shadow_confederation": false
  },
  {
    "rank": 12,
    "team_name": "上武大学",
    "team_short_name": "上武",
    "runner_name": "伊勢崎",
    "total_distance_km": 636.2,
    "latitude": 34.83380160342246,
    "longitude": 134.57810942660532,
    "is_shadow_confederation": false
  },
  {
    "rank": 13,
    "team_name": "三重大学",
    "team_short_name": "三重",
    "runner_name": "新宮",
    "total_distance_km": 634.8,
    "latitude": 34.83312786936625,
    "longitude": 134.59324342495262,
    "is_shadow_confederation": false
  },
  {
    "rank": 14,
    "team_name": "金沢大学",
    "team_short_name": "金沢",
    "runner_name": "富山",
    "total_distance_km": 629.5,
    "latitude": 34.84500965408971,
    "longitude": 134.63682030630918,
    "is_shadow_confederation": false
  },
  {
    "rank": 15,
    "team_name": "日本大学",
    "team_short_name": "日大",
    "runner_name": "八王子",
    "total_distance_km": 607.0,
    "latitude": 34.756858032685344,
    "longitude": 134.84825179812205,
    "is_shadow_confederation": false
  },
  {
    "rank": 16,
    "team_name": "学連選抜",
    "team_short_name": "学連",
    "runner_name": "多度津",
    "total_distance_km": 576.2,
    "latitude": 34.64494375247727,
    "longitude": 135.11593070673072,
    "is_shadow_confederation": false
  },
  {
    "rank": 17,
    "team_name": "福島大学",
    "team_short_name": "福島",
    "runner_name": "浪江",
    "total_distance_km": 575.6,
    "latitude": 34.64826082506664,
    "longitude": 135.1209639732032,
    "is_shadow_confederation": false
  },
  {
    "rank": 18,
    "team_name": "東北大学",
    "team_short_name": "東北",
    "runner_name": "丸森",
    "total_distance_km": 567.9,
    "latitude": 34.689193401525,
    "longitude": 135.18711664115702,
    "is_shadow_confederation": false
  }
]