[
  {
    "rank": 1,
    "team_name": "琉球大学",
    "team_short_name": "琉球",
    "runner_name": "仲筋",
    "total_distance_km": 211.5,
    "latitude": 34.82110409051318,
    "longitude": 138.1007366857873,
    "is_shadow_confederation": false
  },
  {
    "rank": 2,
    "team_name": "鹿児島大学",
    "team_short_name": "鹿大",
    "runner_name": "川内（鹿児島）",
    "total_distance_km": 157.8,
    "latitude": 35.064851840773834,
    "longitude": 138.54003059642704,
    "is_shadow_confederation": false
  },
  {
    "rank": 3,
    "team_name": "熊本学園大学",
    "team_short_name": "熊学",
    "runner_name": "岱明",
    "total_distance_km": 151.7,
    "latitude": 35.11046060220841,
    "longitude": 138.5701105126682,
    "is_shadow_confederation": false
  },
  {
    "rank": 4,
    "team_name": "福岡大学",
    "team_short_name": "福岡",
    "runner_name": "福岡",
    "total_distance_km": 140.1,
    "latitude": 35.143723632730904,
    "longitude": 138.681654428957,
    "is_shadow_confederation": false
  },
  {
    "rank": 5,
    "team_name": "名古屋大学",
    "team_short_name": "名大",
    "runner_name": "美濃",
    "total_distance_km": 127.4,
    "latitude": 35.11664954850368,
    "longitude": 138.81310685820765,
    "is_shadow_confederation": false
  },
  {
    "rank": 6,
    "team_name": "四国大学",
    "team_short_name": "四国",
    "runner_name": "大三島",
    "total_distance_km": 124.5,
    "latitude": 35.10252569368252,
    "longitude": 138.83967213776526,
    "is_shadow_confederation": false
  },
  {
    "rank": 7,
    "team_name": "三重大学",
    "team_short_name": "三重",
    "runner_name": "五條",
    "total_distance_km": 121.6,
    "latitude": 35.100242094644834,
    "longitude": 138.87086590870817,
    "is_shadow_confederation": false
  },
  {
    "rank": 8,
    "team_name": "上武大学",
    "team_short_name": "上武",
    "runner_name": "越谷",
    "total_distance_km": 119.9,
    "latitude": 35.105329315888035,
    "longitude": 138.8878332441501,
    "is_shadow_confederation": false
  },
  {
    "rank": 9,
    "team_name": "日本大学",
    "team_short_name": "日大",
    "runner_name": "古河",
    "total_distance_km": 118.4,
    "latitude": 35.11300515307377,
    "longitude": 138.9004779063699,
    "is_shadow_confederation": false
  },
  {
    "rank": 10,
    "team_name": "関西大学",
    "team_short_name": "関大",
    "runner_name": "和田山",
    "total_distance_km": 112.4,
    "latitude": 35.13692626418927,
    "longitude": 138.95620573930955,
    "is_shadow_confederation": false
  },
  {
    "rank": 11,
    "team_name": "鳥取大学",
    "team_short_name": "鳥取",
    "runner_name": "川本",
    "total_distance_km": 107.9,
    "latitude": 35.1534937726786,
    "longitude": 138.99232020498508,
    "is_shadow_confederation": false
  },
  {
    "rank": 12,
    "team_name": "広島経済大学",
    "team_short_name": "広経",
    "runner_name": "三次",
    "total_distance_km": 107.5,
    "latitude": 35.155691193826065,
    "longitude": 138.99534723008787,
    "is_shadow_confederation": false
  },
  {
    "rank": 13,
    "team_name": "立命館大学",
    "team_short_name": "立命",
    "runner_name": "東近江",
    "total_distance_km": 103.2,
    "latitude": 35.176090598834705,
    "longitude": 139.01456324023258,
    "is_shadow_confederation": false
  },
  {
    "rank": 14,
    "team_name": "福島大学",
    "team_short_name": "福島",
    "runner_name": "梁川",
    "total_distance_km": 100.4,
    "latitude": 35.185250712297005,
    "longitude": 139.0320893507078,
    "is_shadow_confederation": false
  },
  {
    "rank": 15,
    "team_name": "金沢大学",
    "team_short_name": "金沢",
    "runner_name": "秋ヶ島",
    "total_distance_km": 80.7,
    "latitude": 35.26605991084717,
    "longitude": 139.187213543594,
    "is_shadow_confederation": false
  },
  {
    "rank": 16,
    "team_name": "山梨学院大学",
    "team_short_name": "山学",
    "runner_name": "長野",
    "total_distance_km": 74.6,
    "latitude": 35.292872204420455,
    "longitude": 139.24352193145162,
    "is_shadow_confederation": false
  },
  {
    "rank": 17,
    "team_name": "東北大学",
    "team_short_name": "東北",
    "runner_name": "帯広",
    "total_distance_km": 64.8,
    "latitude": 35.31516035421536,
    "longitude": 139.3433708875591,
    "is_shadow_confederation": false
  },
  {
    "rank": 18,
    "team_name": "学連選抜",
    "team_short_name": "学連",
    "runner_name": "美幌",
    "total_distance_km": 13.7,
    "latitude": 35.57310128092242,
    "longitude": 139.73329903757886,
    "is_shadow_confederation": false
  },
  {
    "rank": null,
    "team_name": "区間記録連合",
    "team_short_name": "区間記録",
    "runner_name": "佐野",
    "total_distance_km": 211.5,
    "latitude": 34.82110409051318,
    "longitude": 138.1007366857873,
    "is_shadow_confederation": true
  }
]