[
  {
    "rank": 1,
    "team_name": "名古屋大学",
    "team_short_name": "名大",
    "runner_name": "大垣",
    "total_distance_km": 312.4,
    "latitude": 34.91233511340699,
    "longitude": 137.2234806527252,
    "is_shadow_confederation": false
  },
  {
    "rank": 2,
    "team_name": "四国大学",
    "team_short_name": "四国",
    "runner_name": "御荘",
    "total_distance_km": 307.4,
    "latitude": 34.88643357739047,
    "longitude": 137.26490715955288,
    "is_shadow_confederation": false
  },
  {
    "rank": 3,
    "team_name": "熊本学園大学",
    "team_short_name": "熊学",
    "runner_name": "八代",
    "total_distance_km": 306.2,
    "latitude": 34.878371241220556,
    "longitude": 137.27310420626827,
    "is_shadow_confederation": false
  },
  {
    "rank": 4,
    "team_name": "立命館大学",
    "team_short_name": "立命",
    "runner_name": "京田辺",
    "total_distance_km": 306.0,
    "latitude": 34.87727885277047,
    "longitude": 137.27483742805563,
    "is_shadow_confederation": false
  },
  {
    "rank": 5,
    "team_name": "福岡大学",
    "team_short_name": "福岡",
    "runner_name": "黒木",
    "total_distance_km": 305.3,
    "latitude": 34.873808984640604,
    "longitude": 137.28123219263446,
    "is_shadow_confederation": false
  },
  {
    "rank": 6,
    "team_name": "関西大学",
    "team_short_name": "関大",
    "runner_name": "上郡",
    "total_distance_km": 302.6,
    "latitude": 34.86147446386689,
    "longitude": 137.30654887151775,
    "is_shadow_confederation": false
  },
  {
    "rank": 7,
    "team_name": "日本大学",
    "team_short_name": "日大",
    "runner_name": "下館",
    "total_distance_km": 300.5,
    "latitude": 34.84645941912665,
    "longitude": 137.3204035320785,
    "is_shadow_confederation": false
  },
  {
    "rank": 8,
    "team_name": "広島経済大学",
    "team_short_name": "広経",
    "runner_name": "府中（広島）",
    "total_distance_km": 300.1,
    "latitude": 34.84334930896936,
    "longitude": 137.3226162471345,
    "is_shadow_confederation": false
  },
  {
    "rank": 9,
    "team_name": "鳥取大学",
    "team_short_name": "鳥取",
    "runner_name": "広瀬",
    "total_distance_km": 299.0,
    "latitude": 34.83469014151857,
    "longitude": 137.32846898035962,
    "is_shadow_confederation": false
  },
  {
    "rank": 10,
    "team_name": "琉球大学",
    "team_short_name": "琉球",
    "runner_name": "盛山",
    "total_distance_km": 298.8,
    "latitude": 34.833095158153796,
    "longitude": 137.32948815963522,
    "is_shadow_confederation": false
  },
  {
    "rank": 11,
    "team_name": "上武大学",
    "team_short_name": "上武",
    "runner_name": "熊谷",
    "total_distance_km": 298.0,
    "latitude": 34.82849015858484,
    "longitude": 137.33585327234505,
    "is_shadow_confederation": false
  },
  {
    "rank": 12,
    "team_name": "三重大学",
    "team_short_name": "三重",
    "runner_name": "小俣",
    "total_distance_km": 297.8,
    "latitude": 34.82755373255961,
    "longitude": 137.33772151970786,
    "is_shadow_confederation": false
  },
  {
    "rank": 13,
    "team_name": "金沢大学",
    "team_short_name": "金沢",
    "runner_name": "七尾",
    "total_distance_km": 294.6,
    "latitude": 34.805568068665295,
    "longitude": 137.3601290379444,
    "is_shadow_confederation": false
  },
  {
    "rank": 14,
    "team_name": "鹿児島大学",
    "team_short_name": "鹿大",
    "runner_name": "加久藤",
    "total_distance_km": 294.4,
    "latitude": 34.8040915579528,
    "longitude": 137.3613831534612,
    "is_shadow_confederation": false
  },
  {
    "rank": 15,
    "team_name": "山梨学院大学",
    "team_short_name": "山学",
    "runner_name": "大月",
    "total_distance_km": 292.5,
    "latitude": 34.79034869799467,
    "longitude": 137.37375672598014,
    "is_shadow_confederation": false
  },
  {
    "rank": 16,
    "team_name": "福島大学",
    "team_short_name": "福島",
    "runner_name": "津川",
    "total_distance_km": 280.0,
    "latitude": 34.719457230690196,
    "longitude": 137.46191966992268,
    "is_shadow_confederation": false
  },
  {
    "rank": 17,
    "team_name": "東北大学",
    "team_short_name": "東北",
    "runner_name": "高畠",
    "total_distance_km": 251.0,
    "latitude": 34.70693424213162,
    "longitude": 137.72778168922358,
    "is_shadow_confederation": false
  },
  {
    "rank": 18,
    "team_name": "学連選抜",
    "team_short_name": "学連",
    "runner_name": "大村",
    "total_distance_km": 248.8,
    "latitude": 34.70936296752253,
    "longitude": 137.74982871544043,
    "is_shadow_confederation": false
  },
  {
    "rank": null,
    "team_name": "区間記録連合",
    "team_short_name": "区間記録",
    "runner_name": "伊勢崎",
    "total_distance_km": 312.4,
    "latitude": 34.91233511340699,
    "longitude": 137.2234806527252,
    "is_shadow_confederation": true
  }
]