[
  {
    "rank": 1,
    "team_name": "名古屋大学",
    "team_short_name": "名大",
    "runner_name": "愛西",
    "total_distance_km": 348.3,
    "latitude": 35.10331887195615,
    "longitude": 136.9243656224513,
    "is_shadow_confederation": false
  },
  {
    "rank": 2,
    "team_name": "立命館大学",
    "team_short_name": "立命",
    "runner_name": "米原",
    "total_distance_km": 341.4,
    "latitude": 35.06244653897967,
    "longitude": 136.97695518548085,
    "is_shadow_confederation": false
  },
  {
    "rank": 3,
    "team_name": "四国大学",
    "team_short_name": "四国",
    "runner_name": "松山",
    "total_distance_km": 340.8,
    "latitude": 35.06094312202235,
    "longitude": 136.98307860184718,
    "is_shadow_confederation": false
  },
  {
    "rank": 4,
    "team_name": "熊本学園大学",
    "team_short_name": "熊学",
    "runner_name": "八代",
    "total_distance_km": 337.9,
    "latitude": 35.044422655309326,
    "longitude": 137.0064607296964,
    "is_shadow_confederation": false
  },
  {
    "rank": 5,
    "team_name": "福岡大学",
    "team_short_name": "福岡",
    "runner_name": "黒木",
    "total_distance_km": 335.1,
    "latitude": 35.02492748986824,
    "longitude": 137.02577743919088,
    "is_shadow_confederation": false
  },
  {
    "rank": 6,
    "team_name": "関西大学",
    "team_short_name": "関大",
    "runner_name": "上郡",
    "total_distance_km": 334.8,
    "latitude": 35.02321205903273,
    "longitude": 137.0283185663354,
    "is_shadow_confederation": false
  },
  {
    "rank": 7,
    "team_name": "上武大学",
    "team_short_name": "上武",
    "runner_name": "熊谷",
    "total_distance_km": 333.3,
    "latitude": 35.014088540886476,
    "longitude": 137.04028040848468,
    "is_shadow_confederation": false
  },
  {
    "rank": 8,
    "team_name": "三重大学",
    "team_short_name": "三重",
    "runner_name": "小俣",
    "total_distance_km": 333.0,
    "latitude": 35.012587151314634,
    "longitude": 137.04301406825908,
    "is_shadow_confederation": false
  },
  {
    "rank": 9,
    "team_name": "日本大学",
    "team_short_name": "日大",
    "runner_name": "下館",
    "total_distance_km": 332.2,
    "latitude": 35.00839930677413,
    "longitude": 137.0501389302003,
    "is_shadow_confederation": false
  },
  {
    "rank": 10,
    "team_name": "広島経済大学",
    "team_short_name": "広経",
    "runner_name": "府中（広島）",
    "total_distance_km": 332.1,
    "latitude": 35.007690605603656,
    "longitude": 137.05080244601967,
    "is_shadow_confederation": false
  },
  {
    "rank": 11,
    "team_name": "琉球大学",
    "team_short_name": "琉球",
    "runner_name": "盛山",
    "total_distance_km": 330.6,
    "latitude": 34.999304251195824,
    "longitude": 137.0632379439108,
    "is_shadow_confederation": false
  },
  {
    "rank": 12,
    "team_name": "鳥取大学",
    "team_short_name": "鳥取",
    "runner_name": "広瀬",
    "total_distance_km": 329.9,
    "latitude": 34.99629967624,
    "longitude": 137.06997851978366,
    "is_shadow_confederation": false
  },
  {
    "rank": 13,
    "team_name": "山梨学院大学",
    "team_short_name": "山学",
    "runner_name": "大月",
    "total_distance_km": 328.7,
    "latitude": 34.99096530068606,
    "longitude": 137.08136247745094,
    "is_shadow_confederation": false
  },
  {
    "rank": 14,
    "team_name": "鹿児島大学",
    "team_short_name": "鹿大",
    "runner_name": "加久藤",
    "total_distance_km": 324.1,
    "latitude": 34.97093327144133,
    "longitude": 137.12486255093086,
    "is_shadow_confederation": false
  },
  {
    "rank": 15,
    "team_name": "金沢大学",
    "team_short_name": "金沢",
    "runner_name": "七尾",
    "total_distance_km": 322.1,
    "latitude": 34.96165995967114,
    "longitude": 137.14341554717174,
    "is_shadow_confederation": false
  },
  {
    "rank": 16,
    "team_name": "福島大学",
    "team_short_name": "福島",
    "runner_name": "津川",
    "total_distance_km": 312.1,
    "latitude": 34.91112442364603,
    "longitude": 137.2264161231635,
    "is_shadow_confederation": false
  },
  {
    "rank": 17,
    "team_name": "東北大学",
    "team_short_name": "東北",
    "runner_name": "高畠",
    "total_distance_km": 280.0,
    "latitude": 34.719457230690196,
    "longitude": 137.46191966992268,
    "is_shadow_confederation": false
  },
  {
    "rank": 18,
    "team_name": "学連選抜",
    "team_short_name": "学連",
    "runner_name": "大村",
    "total_distance_km": 279.5,
    "latitude": 34.71707670293822,
    "longitude": 137.4665547239577,
    "is_shadow_confederation": false
  },
  {
    "rank": null,
    "team_name": "区間記録連合",
    "team_short_name": "区間記録",
    "runner_name": "風屋",
    "total_distance_km": 356.1,
    "latitude": 35.1241572156617,
    "longitude": 136.85447059747008,
    "is_shadow_confederation": true
  }
]