[
  {
    "rank": 1,
    "team_name": "琉球大学",
    "team_short_name": "琉球",
    "runner_name": "名護",
    "total_distance_km": 381.4,
    "latitude": 35.01447215990269,
    "longitude": 136.66145574810747,
    "is_shadow_confederation": false
  },
  {
    "rank": 2,
    "team_name": "鹿児島大学",
    "team_short_name": "鹿大",
    "runner_name": "加久藤",
    "total_distance_km": 285.3,
    "latitude": 34.74163928097242,
    "longitude": 137.41882580169982,
    "is_shadow_confederation": false
  },
  {
    "rank": 3,
    "team_name": "熊本学園大学",
    "team_short_name": "熊学",
    "runner_name": "八代",
    "total_distance_km": 280.4,
    "latitude": 34.72064255875303,
    "longitude": 137.45786933268997,
    "is_shadow_confederation": false
  },
  {
    "rank": 4,
    "team_name": "福岡大学",
    "team_short_name": "福岡",
    "runner_name": "黒木",
    "total_distance_km": 261.6,
    "latitude": 34.68372949353902,
    "longitude": 137.62753022008272,
    "is_shadow_confederation": false
  },
  {
    "rank": 5,
    "team_name": "名古屋大学",
    "team_short_name": "名大",
    "runner_name": "大垣",
    "total_distance_km": 242.2,
    "latitude": 34.727188140815386,
    "longitude": 137.81335744662047,
    "is_shadow_confederation": false
  },
  {
    "rank": 6,
    "team_name": "四国大学",
    "team_short_name": "四国",
    "runner_name": "御荘",
    "total_distance_km": 232.2,
    "latitude": 34.74696181748155,
    "longitude": 137.91456899460005,
    "is_shadow_confederation": false
  },
  {
    "rank": 7,
    "team_name": "日本大学",
    "team_short_name": "日大",
    "runner_name": "下館",
    "total_distance_km": 230.9,
    "latitude": 34.75229932404253,
    "longitude": 137.92720046841936,
    "is_shadow_confederation": false
  },
  {
    "rank": 7,
    "team_name": "上武大学",
    "team_short_name": "上武",
    "runner_name": "熊谷",
    "total_distance_km": 230.9,
    "latitude": 34.75229932404253,
    "longitude": 137.92720046841936,
    "is_shadow_confederation": false
  },
  {
    "rank": 9,
    "team_name": "三重大学",
    "team_short_name": "三重",
    "runner_name": "小俣",
    "total_distance_km": 226.0,
    "latitude": 34.766965229072184,
    "longitude": 137.97570661522812,
    "is_shadow_confederation": false
  },
  {
    "rank": 10,
    "team_name": "広島経済大学",
    "team_short_name": "広経",
    "runner_name": "加計",
    "total_distance_km": 215.2,
    "latitude": 34.80032099506842,
    "longitude": 138.07588711272885,
    "is_shadow_confederation": false
  },
  {
    "rank": 11,
    "team_name": "鳥取大学",
    "team_short_name": "鳥取",
    "runner_name": "鳥取",
    "total_distance_km": 213.3,
    "latitude": 34.81428925102028,
    "longitude": 138.0852989063285,
    "is_shadow_confederation": false
  },
  {
    "rank": 12,
    "team_name": "関西大学",
    "team_short_name": "関大",
    "runner_name": "和田山",
    "total_distance_km": 211.2,
    "latitude": 34.821049287584614,
    "longitude": 138.10399095186443,
    "is_shadow_confederation": false
  },
  {
    "rank": 13,
    "team_name": "立命館大学",
    "team_short_name": "立命",
    "runner_name": "福知山",
    "total_distance_km": 200.7,
    "latitude": 34.8504179882141,
    "longitude": 138.19057263925635,
    "is_shadow_confederation": false
  },
  {
    "rank": 14,
    "team_name": "福島大学",
    "team_short_name": "福島",
    "runner_name": "石川",
    "total_distance_km": 188.6,
    "latitude": 34.91344808651929,
    "longitude": 138.28972262437233,
    "is_shadow_confederation": false
  },
  {
    "rank": 15,
    "team_name": "山梨学院大学",
    "team_short_name": "山学",
    "runner_name": "南信濃",
    "total_distance_km": 182.2,
    "latitude": 34.950918704489965,
    "longitude": 138.33325768503633,
    "is_shadow_confederation": false
  },
  {
    "rank": 16,
    "team_name": "金沢大学",
    "team_short_name": "金沢",
    "runner_name": "小浜",
    "total_distance_km": 173.8,
    "latitude": 34.983330559241985,
    "longitude": 138.4076700885272,
    "is_shadow_confederation": false
  },
  {
    "rank": 17,
    "team_name": "東北大学",
    "team_short_name": "東北",
    "runner_name": "山形（山形）",
    "total_distance_km": 115.2,
    "latitude": 35.12383017276878,
    "longitude": 138.9324988690889,
    "is_shadow_confederation": false
  },
  {
    "rank": 18,
    "team_name": "学連選抜",
    "team_short_name": "学連",
    "runner_name": "美幌",
    "total_distance_km": 52.0,
    "latitude": 35.33663719836943,
    "longitude": 139.4749651753383,
    "is_shadow_confederation": false
  },
  {
    "rank": null,
    "team_name": "区間記録連合",
    "team_short_name": "区間記録",
    "runner_name": "風屋",
    "total_distance_km": 432.8,
    "latitude": 34.93816495529414,
    "longitude": 136.27728060463892,
    "is_shadow_confederation": true
  }
]