[
  {
    "rank": 1,
    "team_name": "熊本学園大学",
    "team_short_name": "熊学",
    "runner_name": "岱明",
    "total_distance_km": 233.6,
    "latitude": 34.74261211449199,
    "longitude": 137.9002952394539,
    "is_shadow_confederation": false
  },
  {
    "rank": 2,
    "team_name": "琉球大学",
    "team_short_name": "琉球",
    "runner_name": "仲筋",
    "total_distance_km": 232.6,
    "latitude": 34.74529526121745,
    "longitude": 137.91070445900965,
    "is_shadow_confederation": false
  },
  {
    "rank": 3,
    "team_name": "福岡大学",
    "team_short_name": "福岡",
    "runner_name": "福岡",
    "total_distance_km": 227.3,
    "latitude": 34.76293093416764,
    "longitude": 137.96334127076005,
    "is_shadow_confederation": false
  },
  {
    "rank": 4,
    "team_name": "鹿児島大学",
    "team_short_name": "鹿大",
    "runner_name": "川内（鹿児島）",
    "total_distance_km": 221.4,
    "latitude": 34.77864019529804,
    "longitude": 138.0216365734309,
    "is_shadow_confederation": false
  },
  {
    "rank": 5,
    "team_name": "立命館大学",
    "team_short_name": "立命",
    "runner_name": "福知山",
    "total_distance_km": 220.8,
    "latitude": 34.7776241579083,
    "longitude": 138.02803655994705,
    "is_shadow_confederation": false
  },
  {
    "rank": 6,
    "team_name": "関西大学",
    "team_short_name": "関大",
    "runner_name": "和田山",
    "total_distance_km": 216.0,
    "latitude": 34.79368941181393,
    "longitude": 138.07260181966615,
    "is_shadow_confederation": false
  },
  {
    "rank": 7,
    "team_name": "広島経済大学",
    "team_short_name": "広経",
    "runner_name": "加計",
    "total_distance_km": 213.2,
    "latitude": 34.814936335577755,
    "longitude": 138.08605434093593,
    "is_shadow_confederation": false
  },
  {
    "rank": 8,
    "team_name": "鳥取大学",
    "team_short_name": "鳥取",
    "runner_name": "鳥取",
    "total_distance_km": 212.8,
    "latitude": 34.817412732706615,
    "longitude": 138.08902759128551,
    "is_shadow_confederation": false
  },
  {
    "rank": 9,
    "team_name": "三重大学",
    "team_short_name": "三重",
    "runner_name": "五條",
    "total_distance_km": 212.0,
    "latitude": 34.82159132885372,
    "longitude": 138.0958734808967,
    "is_shadow_confederation": false
  },
  {
    "rank": 10,
    "team_name": "金沢大学",
    "team_short_name": "金沢",
    "runner_name": "小浜",
    "total_distance_km": 211.9,
    "latitude": 34.82214531941998,
    "longitude": 138.0967284278094,
    "is_shadow_confederation": false
  },
  {
    "rank": 11,
    "team_name": "四国大学",
    "team_short_name": "四国",
    "runner_name": "大三島",
    "total_distance_km": 209.9,
    "latitude": 34.819514519059275,
    "longitude": 138.1173719378552,
    "is_shadow_confederation": false
  },
  {
    "rank": 12,
    "team_name": "名古屋大学",
    "team_short_name": "名大",
    "runner_name": "美濃",
    "total_distance_km": 207.4,
    "latitude": 34.8383757533453,
    "longitude": 138.12099556098374,
    "is_shadow_confederation": false
  },
  {
    "rank": 13,
    "team_name": "山梨学院大学",
    "team_short_name": "山学",
    "runner_name": "南信濃",
    "total_distance_km": 196.7,
    "latitude": 34.86950186215921,
    "longitude": 138.2242894646782,
    "is_shadow_confederation": false
  },
  {
    "rank": 14,
    "team_name": "上武大学",
    "team_short_name": "上武",
    "runner_name": "越谷",
    "total_distance_km": 191.8,
    "latitude": 34.89320502487003,
    "longitude": 138.26783914594805,
    "is_shadow_confederation": false
  },
  {
    "rank": 15,
    "team_name": "日本大学",
    "team_short_name": "日大",
    "runner_name": "古河",
    "total_distance_km": 190.5,
    "latitude": 34.899115980759014,
    "longitude": 138.27988363712612,
    "is_shadow_confederation": false
  },
  {
    "rank": 16,
    "team_name": "福島大学",
    "team_short_name": "福島",
    "runner_name": "石川",
    "total_distance_km": 178.5,
    "latitude": 34.95613987404799,
    "longitude": 138.36956162046363,
    "is_shadow_confederation": false
  },
  {
    "rank": 17,
    "team_name": "東北大学",
    "team_short_name": "東北",
    "runner_name": "山形（山形）",
    "total_distance_km": 160.1,
    "latitude": 35.050857551367365,
    "longitude": 138.5219089966959,
    "is_shadow_confederation": false
  },
  {
    "rank": 18,
    "team_name": "学連選抜",
    "team_short_name": "学連",
    "runner_name": "新潟",
    "total_distance_km": 143.4,
    "latitude": 35.133187041049005,
    "longitude": 138.64779286674903,
    "is_shadow_confederation": false
  }
]