[
  {
    "rank": 1,
    "team_name": "琉球大学",
    "team_short_name": "琉球",
    "runner_name": "那覇",
    "total_distance_km": 697.8,
    "latitude": 34.68636291379496,
    "longitude": 133.99952902200545,
    "is_shadow_confederation": false
  },
  {
    "rank": 2,
    "team_name": "名古屋大学",
    "team_short_name": "名大",
    "runner_name": "名古屋",
    "total_distance_km": 694.7,
    "latitude": 34.701253510452204,
    "longitude": 134.02794976418556,
    "is_shadow_confederation": false
  },
  {
    "rank": 3,
    "team_name": "四国大学",
    "team_short_name": "四国",
    "runner_name": "新居浜",
    "total_distance_km": 691.3,
    "latitude": 34.705186467713325,
    "longitude": 134.06363710412035,
    "is_shadow_confederation": false
  },
  {
    "rank": 4,
    "team_name": "関西大学",
    "team_short_name": "関大",
    "runner_name": "八尾（大阪）",
    "total_distance_km": 687.6,
    "latitude": 34.71680014052041,
    "longitude": 134.09817688058607,
    "is_shadow_confederation": false
  },
  {
    "rank": 5,
    "team_name": "熊本学園大学",
    "team_short_name": "熊学",
    "runner_name": "犬飼",
    "total_distance_km": 686.7,
    "latitude": 34.723631140401594,
    "longitude": 134.10346215305609,
    "is_shadow_confederation": false
  },
  {
    "rank": 6,
    "team_name": "福岡大学",
    "team_short_name": "福岡",
    "runner_name": "口之津",
    "total_distance_km": 685.9,
    "latitude": 34.72678390286541,
    "longitude": 134.1110215279729,
    "is_shadow_confederation": false
  },
  {
    "rank": 7,
    "team_name": "立命館大学",
    "team_short_name": "立命",
    "runner_name": "長浜（滋賀）",
    "total_distance_km": 685.6,
    "latitude": 34.72749069883209,
    "longitude": 134.11418317647258,
    "is_shadow_confederation": false
  },
  {
    "rank": 8,
    "team_name": "広島経済大学",
    "team_short_name": "広経",
    "runner_name": "福山",
    "total_distance_km": 685.2,
    "latitude": 34.728433093454335,
    "longitude": 134.11839870780554,
    "is_shadow_confederation": false
  },
  {
    "rank": 9,
    "team_name": "鹿児島大学",
    "team_short_name": "鹿大",
    "runner_name": "鹿児島",
    "total_distance_km": 679.0,
    "latitude": 34.74506216586167,
    "longitude": 134.18273171449687,
    "is_shadow_confederation": false
  },
  {
    "rank": 10,
    "team_name": "三重大学",
    "team_short_name": "三重",
    "runner_name": "津",
    "total_distance_km": 677.2,
    "latitude": 34.750674414942274,
    "longitude": 134.20112941374205,
    "is_shadow_confederation": false
  },
  {
    "rank": 11,
    "team_name": "山梨学院大学",
    "team_short_name": "山学",
    "runner_name": "三島",
    "total_distance_km": 670.8,
    "latitude": 34.78352612945713,
    "longitude": 134.25626828997784,
    "is_shadow_confederation": false
  },
  {
    "rank": 12,
    "team_name": "日本大学",
    "team_short_name": "日大",
    "runner_name": "練馬",
    "total_distance_km": 669.1,
    "latitude": 34.795475209846636,
    "longitude": 134.26580026331536,
    "is_shadow_confederation": false
  },
  {
    "rank": 13,
    "team_name": "鳥取大学",
    "team_short_name": "鳥取",
    "runner_name": "松江",
    "total_distance_km": 660.6,
    "latitude": 34.84306528598496,
    "longitude": 134.32907791912203,
    "is_shadow_confederation": false
  },
  {
    "rank": 14,
    "team_name": "上武大学",
    "team_short_name": "上武",
    "runner_name": "伊勢崎",
    "total_distance_km": 660.0,
    "latitude": 34.84269610086922,
    "longitude": 134.33557623699573,
    "is_shadow_confederation": false
  },
  {
    "rank": 15,
    "team_name": "金沢大学",
    "team_short_name": "金沢",
    "runner_name": "富山",
    "total_distance_km": 656.5,
    "latitude": 34.825707473261325,
    "longitude": 134.36752437074855,
    "is_shadow_confederation": false
  },
  {
    "rank": 16,
    "team_name": "福島大学",
    "team_short_name": "福島",
    "runner_name": "浪江",
    "total_distance_km": 638.2,
    "latitude": 34.832264026102095,
    "longitude": 134.55637326783284,
    "is_shadow_confederation": false
  },
  {
    "rank": 17,
    "team_name": "学連選抜",
    "team_short_name": "学連",
    "runner_name": "多度津",
    "total_distance_km": 628.1,
    "latitude": 34.84433095549627,
    "longitude": 134.6520210723581,
    "is_shadow_confederation": false
  },
  {
    "rank": 18,
    "team_name": "東北大学",
    "team_short_name": "東北",
    "runner_name": "丸森",
    "total_distance_km": 585.3,
    "latitude": 34.638893969709116,
    "longitude": 135.0268499537443,
    "is_shadow_confederation": false
  },
  {
    "rank": null,
    "team_name": "区間記録連合",
    "team_short_name": "区間記録",
    "runner_name": "新居浜",
    "total_distance_km": 717.4,
    "latitude": 34.631529999365576,
    "longitude": 133.80756768148754,
    "is_shadow_confederation": true
  }
]