[
  {
    "rank": 1,
    "team_name": "琉球大学",
    "team_short_name": "琉球",
    "runner_name": "久米島",
    "total_distance_km": 586.5,
    "latitude": 34.64408143544711,
    "longitude": 135.01541156647139,
    "is_shadow_confederation": false
  },
  {
    "rank": 2,
    "team_name": "熊本学園大学",
    "team_short_name": "熊学",
    "runner_name": "熊本",
    "total_distance_km": 511.9,
    "latitude": 34.826963067386025,
    "longitude": 135.68455674241912,
    "is_shadow_confederation": false
  },
  {
    "rank": 3,
    "team_name": "鹿児島大学",
    "team_short_name": "鹿大",
    "runner_name": "西都",
    "total_distance_km": 496.9,
    "latitude": 34.94418046378079,
    "longitude": 135.74532117449488,
    "is_shadow_confederation": false
  },
  {
    "rank": 4,
    "team_name": "福岡大学",
    "team_short_name": "福岡",
    "runner_name": "前原",
    "total_distance_km": 483.9,
    "latitude": 34.99640577699887,
    "longitude": 135.8007461733991,
    "is_shadow_confederation": false
  },
  {
    "rank": 5,
    "team_name": "四国大学",
    "team_short_name": "四国",
    "runner_name": "大洲",
    "total_distance_km": 465.1,
    "latitude": 35.01294160391743,
    "longitude": 135.9629844189658,
    "is_shadow_confederation": false
  },
  {
    "rank": 6,
    "team_name": "広島経済大学",
    "team_short_name": "広経",
    "runner_name": "高梁",
    "total_distance_km": 444.1,
    "latitude": 34.97713821226285,
    "longitude": 136.16736400994122,
    "is_shadow_confederation": false
  },
  {
    "rank": 7,
    "team_name": "鳥取大学",
    "team_short_name": "鳥取",
    "runner_name": "境",
    "total_distance_km": 435.7,
    "latitude": 34.94318006878893,
    "longitude": 136.2469908650679,
    "is_shadow_confederation": false
  },
  {
    "rank": 8,
    "team_name": "関西大学",
    "team_short_name": "関大",
    "runner_name": "枚方",
    "total_distance_km": 433.4,
    "latitude": 34.93805260919775,
    "longitude": 136.27086421686917,
    "is_shadow_confederation": false
  },
  {
    "rank": 9,
    "team_name": "名古屋大学",
    "team_short_name": "名大",
    "runner_name": "多治見",
    "total_distance_km": 432.6,
    "latitude": 34.93763887116785,
    "longitude": 136.27937451389704,
    "is_shadow_confederation": false
  },
  {
    "rank": 10,
    "team_name": "立命館大学",
    "team_short_name": "立命",
    "runner_name": "舞鶴",
    "total_distance_km": 424.0,
    "latitude": 34.89043745566183,
    "longitude": 136.3390615729077,
    "is_shadow_confederation": false
  },
  {
    "rank": 11,
    "team_name": "三重大学",
    "team_short_name": "三重",
    "runner_name": "奈良",
    "total_distance_km": 418.7,
    "latitude": 34.86211028215012,
    "longitude": 136.3740369003936,
    "is_shadow_confederation": false
  },
  {
    "rank": 12,
    "team_name": "日本大学",
    "team_short_name": "日大",
    "runner_name": "小田原",
    "total_distance_km": 408.3,
    "latitude": 34.85370348120788,
    "longitude": 136.47502856908315,
    "is_shadow_confederation": false
  },
  {
    "rank": 13,
    "team_name": "金沢大学",
    "team_short_name": "金沢",
    "runner_name": "志賀",
    "total_distance_km": 403.9,
    "latitude": 34.87726226616075,
    "longitude": 136.50883699177783,
    "is_shadow_confederation": false
  },
  {
    "rank": 14,
    "team_name": "上武大学",
    "team_short_name": "上武",
    "runner_name": "寄居",
    "total_distance_km": 402.4,
    "latitude": 34.880695484554664,
    "longitude": 136.52420941618394,
    "is_shadow_confederation": false
  },
  {
    "rank": 15,
    "team_name": "山梨学院大学",
    "team_short_name": "山学",
    "runner_name": "浜松",
    "total_distance_km": 383.8,
    "latitude": 34.998149730318616,
    "longitude": 136.6482171670134,
    "is_shadow_confederation": false
  },
  {
    "rank": 16,
    "team_name": "福島大学",
    "team_short_name": "福島",
    "runner_name": "長岡",
    "total_distance_km": 354.9,
    "latitude": 35.12477617562493,
    "longitude": 136.86761396869676,
    "is_shadow_confederation": false
  },
  {
    "rank": 17,
    "team_name": "学連選抜",
    "team_short_name": "学連",
    "runner_name": "上",
    "total_distance_km": 331.0,
    "latitude": 35.001084694848075,
    "longitude": 137.05942771206705,
    "is_shadow_confederation": false
  },
  {
    "rank": 18,
    "team_name": "東北大学",
    "team_short_name": "東北",
    "runner_name": "高畠",
    "total_distance_km": 296.4,
    "latitude": 34.81833081980317,
    "longitude": 137.34800528607053,
    "is_shadow_confederation": false
  }
]