[
  {
    "rank": 1,
    "team_name": "名古屋大学",
    "team_short_name": "名大",
    "runner_name": "多治見",
    "total_distance_km": 436.0,
    "latitude": 34.944590899309375,
    "longitude": 136.24419082769433,
    "is_shadow_confederation": false
  },
  {
    "rank": 2,
    "team_name": "四国大学",
    "team_short_name": "四国",
    "runner_name": "大洲",
    "total_distance_km": 434.2,
    "latitude": 34.93860696236862,
    "longitude": 136.26220531347295,
    "is_shadow_confederation": false
  },
  {
    "rank": 3,
    "team_name": "福岡大学",
    "team_short_name": "福岡",
    "runner_name": "前原",
    "total_distance_km": 431.2,
    "latitude": 34.93123533371503,
    "longitude": 136.29211503212116,
    "is_shadow_confederation": false
  },
  {
    "rank": 4,
    "team_name": "琉球大学",
    "team_short_name": "琉球",
    "runner_name": "波照間",
    "total_distance_km": 430.9,
    "latitude": 34.92938204886829,
    "longitude": 136.29450622035878,
    "is_shadow_confederation": false
  },
  {
    "rank": 5,
    "team_name": "熊本学園大学",
    "team_short_name": "熊学",
    "runner_name": "熊本",
    "total_distance_km": 430.4,
    "latitude": 34.926796195304036,
    "longitude": 136.298967660321,
    "is_shadow_confederation": false
  },
  {
    "rank": 6,
    "team_name": "立命館大学",
    "team_short_name": "立命",
    "runner_name": "舞鶴",
    "total_distance_km": 429.1,
    "latitude": 34.92012216160521,
    "longitude": 136.31018936684956,
    "is_shadow_confederation": false
  },
  {
    "rank": 7,
    "team_name": "広島経済大学",
    "team_short_name": "広経",
    "runner_name": "大竹",
    "total_distance_km": 426.1,
    "latitude": 34.9032289275054,
    "longitude": 136.33402129272983,
    "is_shadow_confederation": false
  },
  {
    "rank": 8,
    "team_name": "関西大学",
    "team_short_name": "関大",
    "runner_name": "柏原",
    "total_distance_km": 425.4,
    "latitude": 34.897246092693294,
    "longitude": 136.3358475641856,
    "is_shadow_confederation": false
  },
  {
    "rank": 9,
    "team_name": "鳥取大学",
    "team_short_name": "鳥取",
    "runner_name": "防府",
    "total_distance_km": 423.6,
    "latitude": 34.889603535832876,
    "longitude": 136.34325606272472,
    "is_shadow_confederation": false
  },
  {
    "rank": 10,
    "team_name": "日本大学",
    "team_short_name": "日大",
    "runner_name": "小田原",
    "total_distance_km": 421.9,
    "latitude": 34.88283088514608,
    "longitude": 136.3583192735415,
    "is_shadow_confederation": false
  },
  {
    "rank": 11,
    "team_name": "山梨学院大学",
    "team_short_name": "山学",
    "runner_name": "浜松",
    "total_distance_km": 419.7,
    "latitude": 34.869701907686974,
    "longitude": 136.3696269303192,
    "is_shadow_confederation": false
  },
  {
    "rank": 12,
    "team_name": "三重大学",
    "team_short_name": "三重",
    "runner_name": "風屋",
    "total_distance_km": 418.4,
    "latitude": 34.85948928460372,
    "longitude": 136.3738432512065,
    "is_shadow_confederation": false
  },
  {
    "rank": 13,
    "team_name": "上武大学",
    "team_short_name": "上武",
    "runner_name": "寄居",
    "total_distance_km": 415.0,
    "latitude": 34.85210597625081,
    "longitude": 136.40747161560387,
    "is_shadow_confederation": false
  },
  {
    "rank": 14,
    "team_name": "鹿児島大学",
    "team_short_name": "鹿大",
    "runner_name": "西米良",
    "total_distance_km": 411.5,
    "latitude": 34.85344275173859,
    "longitude": 136.44222846893683,
    "is_shadow_confederation": false
  },
  {
    "rank": 15,
    "team_name": "金沢大学",
    "team_short_name": "金沢",
    "runner_name": "志賀",
    "total_distance_km": 409.2,
    "latitude": 34.8510815447911,
    "longitude": 136.46581199908093,
    "is_shadow_confederation": false
  },
  {
    "rank": 16,
    "team_name": "福島大学",
    "team_short_name": "福島",
    "runner_name": "長岡",
    "total_distance_km": 400.3,
    "latitude": 34.89099799698436,
    "longitude": 136.54137152430636,
    "is_shadow_confederation": false
  },
  {
    "rank": 17,
    "team_name": "学連選抜",
    "team_short_name": "学連",
    "runner_name": "上",
    "total_distance_km": 369.7,
    "latitude": 35.10373649681569,
    "longitude": 136.71090851999486,
    "is_shadow_confederation": false
  },
  {
    "rank": 18,
    "team_name": "東北大学",
    "team_short_name": "東北",
    "runner_name": "大館",
    "total_distance_km": 363.6,
    "latitude": 35.122729750071194,
    "longitude": 136.77297988321214,
    "is_shadow_confederation": false
  },
  {
    "rank": null,
    "team_name": "区間記録連合",
    "team_short_name": "区間記録",
    "runner_name": "桐生",
    "total_distance_km": 450.0,
    "latitude": 34.98901130046927,
    "longitude": 136.1070333089734,
    "is_shadow_confederation": true
  }
]