[
  {
    "rank": 1,
    "team_name": "琉球大学",
    "team_short_name": "琉球",
    "runner_name": "石垣島",
    "total_distance_km": 995.6,
    "latitude": 34.092689525898855,
    "longitude": 131.4154465623783,
    "is_shadow_confederation": false
  },
  {
    "rank": 2,
    "team_name": "鹿児島大学",
    "team_short_name": "鹿大",
    "runner_name": "さつま柏原",
    "total_distance_km": 800.0,
    "latitude": 34.390560388183644,
    "longitude": 133.06042076415358,
    "is_shadow_confederation": false
  },
  {
    "rank": 3,
    "team_name": "熊本学園大学",
    "team_short_name": "熊学",
    "runner_name": "三角",
    "total_distance_km": 773.1,
    "latitude": 34.46265577462251,
    "longitude": 133.28697675459682,
    "is_shadow_confederation": false
  },
  {
    "rank": 4,
    "team_name": "福岡大学",
    "team_short_name": "福岡",
    "runner_name": "口之津",
    "total_distance_km": 741.9,
    "latitude": 34.52675215428499,
    "longitude": 133.5880925640164,
    "is_shadow_confederation": false
  },
  {
    "rank": 5,
    "team_name": "名古屋大学",
    "team_short_name": "名大",
    "runner_name": "名古屋",
    "total_distance_km": 714.9,
    "latitude": 34.641424937334065,
    "longitude": 133.83186334352487,
    "is_shadow_confederation": false
  },
  {
    "rank": 6,
    "team_name": "四国大学",
    "team_short_name": "四国",
    "runner_name": "新居浜",
    "total_distance_km": 708.7,
    "latitude": 34.65242767623239,
    "longitude": 133.89556793964485,
    "is_shadow_confederation": false
  },
  {
    "rank": 7,
    "team_name": "日本大学",
    "team_short_name": "日大",
    "runner_name": "練馬",
    "total_distance_km": 693.9,
    "latitude": 34.70304668595325,
    "longitude": 134.03625363860476,
    "is_shadow_confederation": false
  },
  {
    "rank": 8,
    "team_name": "上武大学",
    "team_short_name": "上武",
    "runner_name": "小山",
    "total_distance_km": 692.4,
    "latitude": 34.70603363823504,
    "longitude": 134.05167409564484,
    "is_shadow_confederation": false
  },
  {
    "rank": 9,
    "team_name": "広島経済大学",
    "team_short_name": "広経",
    "runner_name": "福山",
    "total_distance_km": 671.2,
    "latitude": 34.78102147838029,
    "longitude": 134.25352540426874,
    "is_shadow_confederation": false
  },
  {
    "rank": 10,
    "team_name": "関西大学",
    "team_short_name": "関大",
    "runner_name": "八尾（大阪）",
    "total_distance_km": 669.8,
    "latitude": 34.79077188042702,
    "longitude": 134.26191118890506,
    "is_shadow_confederation": false
  },
  {
    "rank": 11,
    "team_name": "三重大学",
    "team_short_name": "三重",
    "runner_name": "津",
    "total_distance_km": 664.3,
    "latitude": 34.82724722957181,
    "longitude": 134.30000645827965,
    "is_shadow_confederation": false
  },
  {
    "rank": 12,
    "team_name": "山梨学院大学",
    "team_short_name": "山学",
    "runner_name": "三島",
    "total_distance_km": 662.5,
    "latitude": 34.83487675848766,
    "longitude": 134.31520452023145,
    "is_shadow_confederation": false
  },
  {
    "rank": 13,
    "team_name": "鳥取大学",
    "team_short_name": "鳥取",
    "runner_name": "松江",
    "total_distance_km": 652.8,
    "latitude": 34.830698737053034,
    "longitude": 134.4068119658417,
    "is_shadow_confederation": false
  },
  {
    "rank": 14,
    "team_name": "立命館大学",
    "team_short_name": "立命",
    "runner_name": "彦根",
    "total_distance_km": 632.2,
    "latitude": 34.831110691633825,
    "longitude": 134.61968778056323,
    "is_shadow_confederation": false
  },
  {
    "rank": 15,
    "team_name": "福島大学",
    "team_short_name": "福島",
    "runner_name": "浪江",
    "total_distance_km": 594.5,
    "latitude": 34.68017367115744,
    "longitude": 134.9456711396608,
    "is_shadow_confederation": false
  },
  {
    "rank": 16,
    "team_name": "金沢大学",
    "team_short_name": "金沢",
    "runner_name": "富山",
    "total_distance_km": 569.9,
    "latitude": 34.67739784195384,
    "longitude": 135.1713947490266,
    "is_shadow_confederation": false
  },
  {
    "rank": 17,
    "team_name": "東北大学",
    "team_short_name": "東北",
    "runner_name": "一関",
    "total_distance_km": 489.5,
    "latitude": 34.99587224268878,
    "longitude": 135.7629506569306,
    "is_shadow_confederation": false
  },
  {
    "rank": 18,
    "team_name": "学連選抜",
    "team_short_name": "学連",
    "runner_name": "久世",
    "total_distance_km": 423.2,
    "latitude": 34.889267518050836,
    "longitude": 136.3474319188996,
    "is_shadow_confederation": false
  },
  {
    "rank": null,
    "team_name": "区間記録連合",
    "team_short_name": "区間記録",
    "runner_name": "鳩山",
    "total_distance_km": 1006.0,
    "latitude": 34.05670481583832,
    "longitude": 131.33009095417057,
    "is_shadow_confederation": true
  }
]