[
  {
    "rank": 1,
    "team_name": "琉球大学",
    "team_short_name": "琉球",
    "runner_name": "ゴール",
    "total_distance_km": 1057.8,
    "latitude": 33.950916,
    "longitude": 130.924104,
    "is_shadow_confederation": false
  },
  {
    "rank": 2,
    "team_name": "鹿児島大学",
    "team_short_name": "鹿大",
    "runner_name": "ゴール",
    "total_distance_km": 1056.2,
    "latitude": 33.95222710186592,
    "longitude": 130.9325647285639,
    "is_shadow_confederation": false
  },
  {
    "rank": 3,
    "team_name": "熊本学園大学",
    "team_short_name": "熊学",
    "runner_name": "日田",
    "total_distance_km": 1037.0,
    "latitude": 34.06446788483168,
    "longitude": 131.05155317278565,
    "is_shadow_confederation": false
  },
  {
    "rank": 4,
    "team_name": "福岡大学",
    "team_short_name": "福岡",
    "runner_name": "太宰府",
    "total_distance_km": 1025.0,
    "latitude": 34.04294641611339,
    "longitude": 131.15844905956854,
    "is_shadow_confederation": false
  },
  {
    "rank": 5,
    "team_name": "四国大学",
    "team_short_name": "四国",
    "runner_name": "中村",
    "total_distance_km": 996.8,
    "latitude": 34.09677953702701,
    "longitude": 131.4034080020457,
    "is_shadow_confederation": false
  },
  {
    "rank": 6,
    "team_name": "広島経済大学",
    "team_short_name": "広経",
    "runner_name": "財田",
    "total_distance_km": 968.7,
    "latitude": 34.065867566590086,
    "longitude": 131.66279793858388,
    "is_shadow_confederation": false
  },
  {
    "rank": 7,
    "team_name": "鳥取大学",
    "team_short_name": "鳥取",
    "runner_name": "津和野",
    "total_distance_km": 946.8,
    "latitude": 34.02888561859278,
    "longitude": 131.85758906909334,
    "is_shadow_confederation": false
  },
  {
    "rank": 8,
    "team_name": "名古屋大学",
    "team_short_name": "名大",
    "runner_name": "揖斐川",
    "total_distance_km": 944.1,
    "latitude": 34.034872573284616,
    "longitude": 131.88542495228512,
    "is_shadow_confederation": false
  },
  {
    "rank": 9,
    "team_name": "関西大学",
    "team_short_name": "関大",
    "runner_name": "西脇",
    "total_distance_km": 943.0,
    "latitude": 34.033072086958576,
    "longitude": 131.89669186298462,
    "is_shadow_confederation": false
  },
  {
    "rank": 10,
    "team_name": "三重大学",
    "team_short_name": "三重",
    "runner_name": "上野",
    "total_distance_km": 931.7,
    "latitude": 34.07674929634914,
    "longitude": 131.99110729686703,
    "is_shadow_confederation": false
  },
  {
    "rank": 11,
    "team_name": "日本大学",
    "team_short_name": "日大",
    "runner_name": "海老名",
    "total_distance_km": 905.6,
    "latitude": 34.1743710757295,
    "longitude": 132.22119179094244,
    "is_shadow_confederation": false
  },
  {
    "rank": 12,
    "team_name": "上武大学",
    "team_short_name": "上武",
    "runner_name": "館林",
    "total_distance_km": 900.7,
    "latitude": 34.212381414091695,
    "longitude": 132.22671609412345,
    "is_shadow_confederation": false
  },
  {
    "rank": 13,
    "team_name": "立命館大学",
    "team_short_name": "立命",
    "runner_name": "園部",
    "total_distance_km": 893.4,
    "latitude": 34.2657863676893,
    "longitude": 132.24919089161014,
    "is_shadow_confederation": false
  },
  {
    "rank": 14,
    "team_name": "金沢大学",
    "team_short_name": "金沢",
    "runner_name": "大野（福井）",
    "total_distance_km": 884.7,
    "latitude": 34.31999997111149,
    "longitude": 132.31252305724112,
    "is_shadow_confederation": false
  },
  {
    "rank": 15,
    "team_name": "山梨学院大学",
    "team_short_name": "山学",
    "runner_name": "佐久間",
    "total_distance_km": 871.0,
    "latitude": 34.38927786517904,
    "longitude": 132.42043875160712,
    "is_shadow_confederation": false
  },
  {
    "rank": 16,
    "team_name": "学連選抜",
    "team_short_name": "学連",
    "runner_name": "恵那",
    "total_distance_km": 852.9,
    "latitude": 34.405002963251476,
    "longitude": 132.5823319997842,
    "is_shadow_confederation": false
  },
  {
    "rank": 17,
    "team_name": "福島大学",
    "team_short_name": "福島",
    "runner_name": "喜多方",
    "total_distance_km": 779.2,
    "latitude": 34.43711563634538,
    "longitude": 133.2308687335394,
    "is_shadow_confederation": false
  },
  {
    "rank": 18,
    "team_name": "東北大学",
    "team_short_name": "東北",
    "runner_name": "秋田",
    "total_distance_km": 686.6,
    "latitude": 34.72433620448067,
    "longitude": 134.10414240549602,
    "is_shadow_confederation": false
  }
]