[
  {
    "rank": 1,
    "team_name": "琉球大学",
    "team_short_name": "琉球",
    "runner_name": "石垣島",
    "total_distance_km": 971.8,
    "latitude": 34.04932496799662,
    "longitude": 131.63844413118957,
    "is_shadow_confederation": false
  },
  {
    "rank": 2,
    "team_name": "鹿児島大学",
    "team_short_name": "鹿大",
    "runner_name": "さつま柏原",
    "total_distance_km": 804.1,
    "latitude": 34.39916308715131,
    "longitude": 133.02080831836113,
    "is_shadow_confederation": false
  },
  {
    "rank": 3,
    "team_name": "熊本学園大学",
    "team_short_name": "熊学",
    "runner_name": "三角",
    "total_distance_km": 783.0,
    "latitude": 34.40920869811169,
    "longitude": 133.22133537244915,
    "is_shadow_confederation": false
  },
  {
    "rank": 4,
    "team_name": "福岡大学",
    "team_short_name": "福岡",
    "runner_name": "大牟田",
    "total_distance_km": 766.2,
    "latitude": 34.48574375567972,
    "longitude": 133.35144229210013,
    "is_shadow_confederation": false
  },
  {
    "rank": 5,
    "team_name": "四国大学",
    "team_short_name": "四国",
    "runner_name": "新居浜",
    "total_distance_km": 726.7,
    "latitude": 34.57896141110156,
    "longitude": 133.73028347934692,
    "is_shadow_confederation": false
  },
  {
    "rank": 6,
    "team_name": "広島経済大学",
    "team_short_name": "広経",
    "runner_name": "福山",
    "total_distance_km": 706.8,
    "latitude": 34.65616698098793,
    "longitude": 133.91540247366734,
    "is_shadow_confederation": false
  },
  {
    "rank": 7,
    "team_name": "名古屋大学",
    "team_short_name": "名大",
    "runner_name": "名古屋",
    "total_distance_km": 693.5,
    "latitude": 34.702970410068765,
    "longitude": 134.04061867485922,
    "is_shadow_confederation": false
  },
  {
    "rank": 8,
    "team_name": "関西大学",
    "team_short_name": "関大",
    "runner_name": "八尾（大阪）",
    "total_distance_km": 693.2,
    "latitude": 34.70380621092375,
    "longitude": 134.0436452529806,
    "is_shadow_confederation": false
  },
  {
    "rank": 9,
    "team_name": "鳥取大学",
    "team_short_name": "鳥取",
    "runner_name": "米子",
    "total_distance_km": 692.2,
    "latitude": 34.7058796072311,
    "longitude": 134.05384918809492,
    "is_shadow_confederation": false
  },
  {
    "rank": 10,
    "team_name": "三重大学",
    "team_short_name": "三重",
    "runner_name": "津",
    "total_distance_km": 686.3,
    "latitude": 34.725841508243164,
    "longitude": 134.10680599663996,
    "is_shadow_confederation": false
  },
  {
    "rank": 11,
    "team_name": "立命館大学",
    "team_short_name": "立命",
    "runner_name": "長浜（滋賀）",
    "total_distance_km": 663.9,
    "latitude": 34.82905383706697,
    "longitude": 134.30370919500723,
    "is_shadow_confederation": false
  },
  {
    "rank": 12,
    "team_name": "上武大学",
    "team_short_name": "上武",
    "runner_name": "伊勢崎",
    "total_distance_km": 650.5,
    "latitude": 34.83269649064873,
    "longitude": 134.43097029917575,
    "is_shadow_confederation": false
  },
  {
    "rank": 13,
    "team_name": "日本大学",
    "team_short_name": "日大",
    "runner_name": "八王子",
    "total_distance_km": 647.6,
    "latitude": 34.82565376423118,
    "longitude": 134.46059663988515,
    "is_shadow_confederation": false
  },
  {
    "rank": 14,
    "team_name": "金沢大学",
    "team_short_name": "金沢",
    "runner_name": "富山",
    "total_distance_km": 643.5,
    "latitude": 34.82269104613891,
    "longitude": 134.50074104926284,
    "is_shadow_confederation": false
  },
  {
    "rank": 15,
    "team_name": "山梨学院大学",
    "team_short_name": "山学",
    "runner_name": "静岡",
    "total_distance_km": 635.3,
    "latitude": 34.83301953429343,
    "longitude": 134.5877789217294,
    "is_shadow_confederation": false
  },
  {
    "rank": 16,
    "team_name": "学連選抜",
    "team_short_name": "学連",
    "runner_name": "多度津",
    "total_distance_km": 593.8,
    "latitude": 34.67514749636573,
    "longitude": 134.9502890168781,
    "is_shadow_confederation": false
  },
  {
    "rank": 17,
    "team_name": "福島大学",
    "team_short_name": "福島",
    "runner_name": "浪江",
    "total_distance_km": 568.2,
    "latitude": 34.688047772782504,
    "longitude": 135.18415099465938,
    "is_shadow_confederation": false
  },
  {
    "rank": 18,
    "team_name": "東北大学",
    "team_short_name": "東北",
    "runner_name": "一関",
    "total_distance_km": 484.8,
    "latitude": 35.000764546036265,
    "longitude": 135.79330051044624,
    "is_shadow_confederation": false
  }
]