[
  {
    "rank": 1,
    "team_name": "琉球大学",
    "team_short_name": "琉球",
    "runner_name": "石垣島",
    "total_distance_km": 1021.8,
    "latitude": 34.05126965338489,
    "longitude": 131.19058543642865,
    "is_shadow_confederation": false
  },
  {
    "rank": 2,
    "team_name": "鹿児島大学",
    "team_short_name": "鹿大",
    "runner_name": "さつま柏原",
    "total_distance_km": 816.4,
    "latitude": 34.393834767980564,
    "longitude": 132.90779892651452,
    "is_shadow_confederation": false
  },
  {
    "rank": 3,
    "team_name": "熊本学園大学",
    "team_short_name": "熊学",
    "runner_name": "三角",
    "total_distance_km": 789.7,
    "latitude": 34.39489599985094,
    "longitude": 133.15619530693527,
    "is_shadow_confederation": false
  },
  {
    "rank": 4,
    "team_name": "福岡大学",
    "team_short_name": "福岡",
    "runner_name": "大牟田",
    "total_distance_km": 757.0,
    "latitude": 34.498362352847025,
    "longitude": 133.44474480172445,
    "is_shadow_confederation": false
  },
  {
    "rank": 5,
    "team_name": "名古屋大学",
    "team_short_name": "名大",
    "runner_name": "名古屋",
    "total_distance_km": 729.4,
    "latitude": 34.5776368045827,
    "longitude": 133.70271467802013,
    "is_shadow_confederation": false
  },
  {
    "rank": 6,
    "team_name": "四国大学",
    "team_short_name": "四国",
    "runner_name": "新居浜",
    "total_distance_km": 724.2,
    "latitude": 34.59159860321144,
    "longitude": 133.75284529521616,
    "is_shadow_confederation": false
  },
  {
    "rank": 7,
    "team_name": "日本大学",
    "team_short_name": "日大",
    "runner_name": "練馬",
    "total_distance_km": 708.2,
    "latitude": 34.65419118683074,
    "longitude": 133.90058608764377,
    "is_shadow_confederation": false
  },
  {
    "rank": 8,
    "team_name": "上武大学",
    "team_short_name": "上武",
    "runner_name": "小山",
    "total_distance_km": 706.2,
    "latitude": 34.65622414749733,
    "longitude": 133.92194743934476,
    "is_shadow_confederation": false
  },
  {
    "rank": 9,
    "team_name": "広島経済大学",
    "team_short_name": "広経",
    "runner_name": "福山",
    "total_distance_km": 687.5,
    "latitude": 34.71756750703109,
    "longitude": 134.09874970695589,
    "is_shadow_confederation": false
  },
  {
    "rank": 10,
    "team_name": "関西大学",
    "team_short_name": "関大",
    "runner_name": "八尾（大阪）",
    "total_distance_km": 685.5,
    "latitude": 34.72772629748765,
    "longitude": 134.11523705930583,
    "is_shadow_confederation": false
  },
  {
    "rank": 11,
    "team_name": "三重大学",
    "team_short_name": "三重",
    "runner_name": "津",
    "total_distance_km": 679.8,
    "latitude": 34.742337755003845,
    "longitude": 134.17464722169242,
    "is_shadow_confederation": false
  },
  {
    "rank": 12,
    "team_name": "山梨学院大学",
    "team_short_name": "山学",
    "runner_name": "三島",
    "total_distance_km": 678.3,
    "latitude": 34.74684781244367,
    "longitude": 134.1900637206989,
    "is_shadow_confederation": false
  },
  {
    "rank": 13,
    "team_name": "鳥取大学",
    "team_short_name": "鳥取",
    "runner_name": "米子",
    "total_distance_km": 666.9,
    "latitude": 34.809771014657386,
    "longitude": 134.28154226440944,
    "is_shadow_confederation": false
  },
  {
    "rank": 14,
    "team_name": "立命館大学",
    "team_short_name": "立命",
    "runner_name": "彦根",
    "total_distance_km": 646.2,
    "latitude": 34.8185329521202,
    "longitude": 134.47198780023535,
    "is_shadow_confederation": false
  },
  {
    "rank": 15,
    "team_name": "福島大学",
    "team_short_name": "福島",
    "runner_name": "浪江",
    "total_distance_km": 607.3,
    "latitude": 34.758834525741484,
    "longitude": 134.8460154541619,
    "is_shadow_confederation": false
  },
  {
    "rank": 16,
    "team_name": "金沢大学",
    "team_short_name": "金沢",
    "runner_name": "富山",
    "total_distance_km": 581.8,
    "latitude": 34.62851690680939,
    "longitude": 135.05972585770292,
    "is_shadow_confederation": false
  },
  {
    "rank": 17,
    "team_name": "東北大学",
    "team_short_name": "東北",
    "runner_name": "一関",
    "total_distance_km": 503.5,
    "latitude": 34.88538010929466,
    "longitude": 135.74060287032694,
    "is_shadow_confederation": false
  },
  {
    "rank": 18,
    "team_name": "学連選抜",
    "team_short_name": "学連",
    "runner_name": "久世",
    "total_distance_km": 438.0,
    "latitude": 34.95276226710452,
    "longitude": 136.22502478113344,
    "is_shadow_confederation": false
  },
  {
    "rank": null,
    "team_name": "区間記録連合",
    "team_short_name": "区間記録",
    "runner_name": "鳩山",
    "total_distance_km": 1044.6,
    "latitude": 34.025595968330464,
    "longitude": 131.0069637836688,
    "is_shadow_confederation": true
  }
]