[
  {
    "rank": 1,
    "team_name": "金沢大学",
    "team_short_name": "金沢",
    "runner_name": "秋ヶ島",
    "total_distance_km": 28.6,
    "latitude": 35.47251192431314,
    "longitude": 139.63242797411138,
    "is_shadow_confederation": false
  },
  {
    "rank": 1,
    "team_name": "四国大学",
    "team_short_name": "四国",
    "runner_name": "穴吹",
    "total_distance_km": 28.6,
    "latitude": 35.47251192431314,
    "longitude": 139.63242797411138,
    "is_shadow_confederation": false
  },
  {
    "rank": 1,
    "team_name": "琉球大学",
    "team_short_name": "琉球",
    "runner_name": "北原",
    "total_distance_km": 28.6,
    "latitude": 35.47251192431314,
    "longitude": 139.63242797411138,
    "is_shadow_confederation": false
  },
  {
    "rank": 4,
    "team_name": "関西大学",
    "team_short_name": "関大",
    "runner_name": "福崎",
    "total_distance_km": 28.3,
    "latitude": 35.47469772141294,
    "longitude": 139.634373771315,
    "is_shadow_confederation": false
  },
  {
    "rank": 5,
    "team_name": "鳥取大学",
    "team_short_name": "鳥取",
    "runner_name": "川本",
    "total_distance_km": 28.1,
    "latitude": 35.476139247942406,
    "longitude": 139.6356960757116,
    "is_shadow_confederation": false
  },
  {
    "rank": 6,
    "team_name": "名古屋大学",
    "team_short_name": "名大",
    "runner_name": "美濃加茂",
    "total_distance_km": 27.9,
    "latitude": 35.47754624694178,
    "longitude": 139.6370736942214,
    "is_shadow_confederation": false
  },
  {
    "rank": 7,
    "team_name": "立命館大学",
    "team_short_name": "立命",
    "runner_name": "東近江",
    "total_distance_km": 26.9,
    "latitude": 35.4837246884236,
    "longitude": 139.64497678885385,
    "is_shadow_confederation": false
  },
  {
    "rank": 7,
    "team_name": "福岡大学",
    "team_short_name": "福岡",
    "runner_name": "久留米",
    "total_distance_km": 26.9,
    "latitude": 35.4837246884236,
    "longitude": 139.64497678885385,
    "is_shadow_confederation": false
  },
  {
    "rank": 9,
    "team_name": "山梨学院大学",
    "team_short_name": "山学",
    "runner_name": "長野",
    "total_distance_km": 26.8,
    "latitude": 35.48422167177961,
    "longitude": 139.6458837285198,
    "is_shadow_confederation": false
  },
  {
    "rank": 10,
    "team_name": "学連選抜",
    "team_short_name": "学連",
    "runner_name": "美幌",
    "total_distance_km": 26.5,
    "latitude": 35.484874857195045,
    "longitude": 139.6490917512614,
    "is_shadow_confederation": false
  },
  {
    "rank": 11,
    "team_name": "広島経済大学",
    "team_short_name": "広経",
    "runner_name": "三次",
    "total_distance_km": 25.8,
    "latitude": 35.48653288983988,
    "longitude": 139.65648954116233,
    "is_shadow_confederation": false
  },
  {
    "rank": 12,
    "team_name": "鹿児島大学",
    "team_short_name": "鹿大",
    "runner_name": "東市来",
    "total_distance_km": 25.5,
    "latitude": 35.48835319629704,
    "longitude": 139.65893423109853,
    "is_shadow_confederation": false
  },
  {
    "rank": 13,
    "team_name": "三重大学",
    "team_short_name": "三重",
    "runner_name": "粥見",
    "total_distance_km": 25.4,
    "latitude": 35.488959965116095,
    "longitude": 139.65974912774394,
    "is_shadow_confederation": false
  },
  {
    "rank": 14,
    "team_name": "福島大学",
    "team_short_name": "福島",
    "runner_name": "梁川",
    "total_distance_km": 25.2,
    "latitude": 35.490173502754196,
    "longitude": 139.66137892103472,
    "is_shadow_confederation": false
  },
  {
    "rank": 15,
    "team_name": "上武大学",
    "team_short_name": "上武",
    "runner_name": "佐野",
    "total_distance_km": 23.2,
    "latitude": 35.502830930604205,
    "longitude": 139.67673690883169,
    "is_shadow_confederation": false
  },
  {
    "rank": 16,
    "team_name": "熊本学園大学",
    "team_short_name": "熊学",
    "runner_name": "甲佐",
    "total_distance_km": 22.5,
    "latitude": 35.50800102061793,
    "longitude": 139.68115884228558,
    "is_shadow_confederation": false
  },
  {
    "rank": 16,
    "team_name": "東北大学",
    "team_short_name": "東北",
    "runner_name": "帯広",
    "total_distance_km": 22.5,
    "latitude": 35.50800102061793,
    "longitude": 139.68115884228558,
    "is_shadow_confederation": false
  },
  {
    "rank": 18,
    "team_name": "日本大学",
    "team_short_name": "日大",
    "runner_name": "大子",
    "total_distance_km": 21.1,
    "latitude": 35.51866969379439,
    "longitude": 139.68937854649775,
    "is_shadow_confederation": false
  },
  {
    "rank": null,
    "team_name": "区間記録連合",
    "team_short_name": "区間記録",
    "runner_name": "梁川",
    "total_distance_km": 39.0,
    "latitude": 35.42108353596651,
    "longitude": 139.55813123784824,
    "is_shadow_confederation": true
  }
]