[
  {
    "rank": 1,
    "team_name": "琉球大学",
    "team_short_name": "琉球",
    "runner_name": "西表島",
    "total_distance_km": 840.2,
    "latitude": 34.44131504013309,
    "longitude": 132.68289319705966,
    "is_shadow_confederation": false
  },
  {
    "rank": 2,
    "team_name": "熊本学園大学",
    "team_short_name": "熊学",
    "runner_name": "三角",
    "total_distance_km": 792.3,
    "latitude": 34.38476512167505,
    "longitude": 133.13154648512545,
    "is_shadow_confederation": false
  },
  {
    "rank": 3,
    "team_name": "福岡大学",
    "team_short_name": "福岡",
    "runner_name": "大牟田",
    "total_distance_km": 772.1,
    "latitude": 34.467047030347324,
    "longitude": 133.2964700842198,
    "is_shadow_confederation": false
  },
  {
    "rank": 4,
    "team_name": "関西大学",
    "team_short_name": "関大",
    "runner_name": "郡家",
    "total_distance_km": 771.7,
    "latitude": 34.46908922850594,
    "longitude": 133.3000582722766,
    "is_shadow_confederation": false
  },
  {
    "rank": 5,
    "team_name": "鹿児島大学",
    "team_short_name": "鹿大",
    "runner_name": "さつま柏原",
    "total_distance_km": 770.7,
    "latitude": 34.47389624471557,
    "longitude": 133.30882738374254,
    "is_shadow_confederation": false
  },
  {
    "rank": 6,
    "team_name": "名古屋大学",
    "team_short_name": "名大",
    "runner_name": "大府",
    "total_distance_km": 770.5,
    "latitude": 34.47348256776614,
    "longitude": 133.31094271348664,
    "is_shadow_confederation": false
  },
  {
    "rank": 7,
    "team_name": "鳥取大学",
    "team_short_name": "鳥取",
    "runner_name": "玖珂",
    "total_distance_km": 765.0,
    "latitude": 34.485402056076104,
    "longitude": 133.36432192152103,
    "is_shadow_confederation": false
  },
  {
    "rank": 8,
    "team_name": "広島経済大学",
    "team_short_name": "広経",
    "runner_name": "福山",
    "total_distance_km": 762.6,
    "latitude": 34.48822979438929,
    "longitude": 133.3899824985935,
    "is_shadow_confederation": false
  },
  {
    "rank": 9,
    "team_name": "立命館大学",
    "team_short_name": "立命",
    "runner_name": "長浜（滋賀）",
    "total_distance_km": 760.9,
    "latitude": 34.492882498308475,
    "longitude": 133.40737223620005,
    "is_shadow_confederation": false
  },
  {
    "rank": 10,
    "team_name": "四国大学",
    "team_short_name": "四国",
    "runner_name": "新居浜",
    "total_distance_km": 757.9,
    "latitude": 34.49980199440266,
    "longitude": 133.43562376290726,
    "is_shadow_confederation": false
  },
  {
    "rank": 11,
    "team_name": "山梨学院大学",
    "team_short_name": "山学",
    "runner_name": "三島",
    "total_distance_km": 744.8,
    "latitude": 34.512853232013214,
    "longitude": 133.561379634543,
    "is_shadow_confederation": false
  },
  {
    "rank": 12,
    "team_name": "上武大学",
    "team_short_name": "上武",
    "runner_name": "小山",
    "total_distance_km": 743.1,
    "latitude": 34.5213354479519,
    "longitude": 133.57679148135983,
    "is_shadow_confederation": false
  },
  {
    "rank": 13,
    "team_name": "三重大学",
    "team_short_name": "三重",
    "runner_name": "津",
    "total_distance_km": 740.7,
    "latitude": 34.532006771603875,
    "longitude": 133.59946637031334,
    "is_shadow_confederation": false
  },
  {
    "rank": 14,
    "team_name": "金沢大学",
    "team_short_name": "金沢",
    "runner_name": "敦賀",
    "total_distance_km": 740.0,
    "latitude": 34.534771221412925,
    "longitude": 133.60620919846602,
    "is_shadow_confederation": false
  },
  {
    "rank": 15,
    "team_name": "日本大学",
    "team_short_name": "日大",
    "runner_name": "練馬",
    "total_distance_km": 713.2,
    "latitude": 34.64605008593143,
    "longitude": 133.84937305907906,
    "is_shadow_confederation": false
  },
  {
    "rank": 16,
    "team_name": "学連選抜",
    "team_short_name": "学連",
    "runner_name": "加世田",
    "total_distance_km": 693.8,
    "latitude": 34.703027616982126,
    "longitude": 134.03734489766836,
    "is_shadow_confederation": false
  },
  {
    "rank": 17,
    "team_name": "福島大学",
    "team_short_name": "福島",
    "runner_name": "寺泊",
    "total_distance_km": 677.7,
    "latitude": 34.74883564038832,
    "longitude": 134.19614397276953,
    "is_shadow_confederation": false
  },
  {
    "rank": 18,
    "team_name": "東北大学",
    "team_short_name": "東北",
    "runner_name": "秋田",
    "total_distance_km": 672.9,
    "latitude": 34.77261817462666,
    "longitude": 134.23845916342887,
    "is_shadow_confederation": false
  }
]