[
  {
    "rank": 1,
    "team_name": "琉球大学",
    "team_short_name": "琉球",
    "runner_name": "那覇",
    "total_distance_km": 687.8,
    "latitude": 34.71526540749906,
    "longitude": 134.0970312278464,
    "is_shadow_confederation": false
  },
  {
    "rank": 2,
    "team_name": "鹿児島大学",
    "team_short_name": "鹿大",
    "runner_name": "笠利",
    "total_distance_km": 552.7,
    "latitude": 34.73853233279957,
    "longitude": 135.33894167212765,
    "is_shadow_confederation": false
  },
  {
    "rank": 3,
    "team_name": "熊本学園大学",
    "team_short_name": "熊学",
    "runner_name": "熊本",
    "total_distance_km": 539.7,
    "latitude": 34.700172877926974,
    "longitude": 135.4677775888779,
    "is_shadow_confederation": false
  },
  {
    "rank": 4,
    "team_name": "福岡大学",
    "team_short_name": "福岡",
    "runner_name": "前原",
    "total_distance_km": 516.3,
    "latitude": 34.80390417962915,
    "longitude": 135.64618766638384,
    "is_shadow_confederation": false
  },
  {
    "rank": 5,
    "team_name": "四国大学",
    "team_short_name": "四国",
    "runner_name": "大洲",
    "total_distance_km": 475.5,
    "latitude": 34.99925165325231,
    "longitude": 135.87919458763113,
    "is_shadow_confederation": false
  },
  {
    "rank": 6,
    "team_name": "名古屋大学",
    "team_short_name": "名大",
    "runner_name": "多治見",
    "total_distance_km": 474.5,
    "latitude": 34.9921210172357,
    "longitude": 135.8855554536958,
    "is_shadow_confederation": false
  },
  {
    "rank": 7,
    "team_name": "広島経済大学",
    "team_short_name": "広経",
    "runner_name": "高梁",
    "total_distance_km": 463.2,
    "latitude": 35.02200720972413,
    "longitude": 135.97956609911458,
    "is_shadow_confederation": false
  },
  {
    "rank": 8,
    "team_name": "日本大学",
    "team_short_name": "日大",
    "runner_name": "牛久",
    "total_distance_km": 461.8,
    "latitude": 35.02628588592169,
    "longitude": 135.99378518039632,
    "is_shadow_confederation": false
  },
  {
    "rank": 9,
    "team_name": "上武大学",
    "team_short_name": "上武",
    "runner_name": "桐生",
    "total_distance_km": 460.2,
    "latitude": 35.030572204641956,
    "longitude": 136.01025750966002,
    "is_shadow_confederation": false
  },
  {
    "rank": 10,
    "team_name": "鳥取大学",
    "team_short_name": "鳥取",
    "runner_name": "境",
    "total_distance_km": 457.6,
    "latitude": 35.025808154389075,
    "longitude": 136.03717753415165,
    "is_shadow_confederation": false
  },
  {
    "rank": 11,
    "team_name": "三重大学",
    "team_short_name": "三重",
    "runner_name": "奈良",
    "total_distance_km": 455.2,
    "latitude": 35.01593312576507,
    "longitude": 136.06045686477108,
    "is_shadow_confederation": false
  },
  {
    "rank": 12,
    "team_name": "関西大学",
    "team_short_name": "関大",
    "runner_name": "枚方",
    "total_distance_km": 450.0,
    "latitude": 34.98901130046927,
    "longitude": 136.1070333089734,
    "is_shadow_confederation": false
  },
  {
    "rank": 13,
    "team_name": "立命館大学",
    "team_short_name": "立命",
    "runner_name": "舞鶴",
    "total_distance_km": 428.9,
    "latitude": 34.91960322567037,
    "longitude": 136.3122854610177,
    "is_shadow_confederation": false
  },
  {
    "rank": 14,
    "team_name": "山梨学院大学",
    "team_short_name": "山学",
    "runner_name": "浜松",
    "total_distance_km": 412.3,
    "latitude": 34.85630225454708,
    "longitude": 136.43464500272802,
    "is_shadow_confederation": false
  },
  {
    "rank": 15,
    "team_name": "福島大学",
    "team_short_name": "福島",
    "runner_name": "長岡",
    "total_distance_km": 394.7,
    "latitude": 34.920388741365066,
    "longitude": 136.58049071953272,
    "is_shadow_confederation": false
  },
  {
    "rank": 16,
    "team_name": "金沢大学",
    "team_short_name": "金沢",
    "runner_name": "志賀",
    "total_distance_km": 365.1,
    "latitude": 35.11905978210786,
    "longitude": 136.7571421003013,
    "is_shadow_confederation": false
  },
  {
    "rank": 17,
    "team_name": "東北大学",
    "team_short_name": "東北",
    "runner_name": "高畠",
    "total_distance_km": 314.9,
    "latitude": 34.92533872710647,
    "longitude": 137.20179447403046,
    "is_shadow_confederation": false
  },
  {
    "rank": 18,
    "team_name": "学連選抜",
    "team_short_name": "学連",
    "runner_name": "新潟",
    "total_distance_km": 214.2,
    "latitude": 34.80813412965172,
    "longitude": 138.079551744515,
    "is_shadow_confederation": false
  },
  {
    "rank": null,
    "team_name": "区間記録連合",
    "team_short_name": "区間記録",
    "runner_name": "新居浜",
    "total_distance_km": 699.4,
    "latitude": 34.67877809345548,
    "longitude": 133.98473794642013,
    "is_shadow_confederation": true
  }
]