[
  {
    "rank": 1,
    "team_name": "琉球大学",
    "team_short_name": "琉球",
    "runner_name": "北原",
    "total_distance_km": 39.5,
    "latitude": 35.420879560480344,
    "longitude": 139.5527047717308,
    "is_shadow_confederation": false
  },
  {
    "rank": 2,
    "team_name": "鹿児島大学",
    "team_short_name": "鹿大",
    "runner_name": "東市来",
    "total_distance_km": 22.1,
    "latitude": 35.51095049866469,
    "longitude": 139.6836943585012,
    "is_shadow_confederation": false
  },
  {
    "rank": 3,
    "team_name": "福岡大学",
    "team_short_name": "福岡",
    "runner_name": "久留米",
    "total_distance_km": 18.3,
    "latitude": 35.537253099895864,
    "longitude": 139.7084064983507,
    "is_shadow_confederation": false
  },
  {
    "rank": 4,
    "team_name": "熊本学園大学",
    "team_short_name": "熊学",
    "runner_name": "甲佐",
    "total_distance_km": 18.0,
    "latitude": 35.539924928396744,
    "longitude": 139.70891457268357,
    "is_shadow_confederation": false
  },
  {
    "rank": 5,
    "team_name": "三重大学",
    "team_short_name": "三重",
    "runner_name": "粥見",
    "total_distance_km": 15.7,
    "latitude": 35.55769572429152,
    "longitude": 139.7218583046613,
    "is_shadow_confederation": false
  },
  {
    "rank": 6,
    "team_name": "上武大学",
    "team_short_name": "上武",
    "runner_name": "佐野",
    "total_distance_km": 14.9,
    "latitude": 35.56385051507776,
    "longitude": 139.72645525898147,
    "is_shadow_confederation": false
  },
  {
    "rank": 7,
    "team_name": "四国大学",
    "team_short_name": "四国",
    "runner_name": "穴吹",
    "total_distance_km": 13.8,
    "latitude": 35.572313576000234,
    "longitude": 139.73277566591435,
    "is_shadow_confederation": false
  },
  {
    "rank": 8,
    "team_name": "名古屋大学",
    "team_short_name": "名大",
    "runner_name": "美濃加茂",
    "total_distance_km": 12.3,
    "latitude": 35.5853393051066,
    "longitude": 139.73603718749115,
    "is_shadow_confederation": false
  },
  {
    "rank": 9,
    "team_name": "福島大学",
    "team_short_name": "福島",
    "runner_name": "梁川",
    "total_distance_km": 12.2,
    "latitude": 35.58623532771655,
    "longitude": 139.73591800694263,
    "is_shadow_confederation": false
  },
  {
    "rank": 10,
    "team_name": "関西大学",
    "team_short_name": "関大",
    "runner_name": "福崎",
    "total_distance_km": 12.0,
    "latitude": 35.58803025492887,
    "longitude": 139.7358265517605,
    "is_shadow_confederation": false
  },
  {
    "rank": 11,
    "team_name": "立命館大学",
    "team_short_name": "立命",
    "runner_name": "東近江",
    "total_distance_km": 10.3,
    "latitude": 35.602764729483354,
    "longitude": 139.7401779075116,
    "is_shadow_confederation": false
  },
  {
    "rank": 12,
    "team_name": "金沢大学",
    "team_short_name": "金沢",
    "runner_name": "秋ヶ島",
    "total_distance_km": 9.8,
    "latitude": 35.60658501093235,
    "longitude": 139.74309344599826,
    "is_shadow_confederation": false
  },
  {
    "rank": 13,
    "team_name": "鳥取大学",
    "team_short_name": "鳥取",
    "runner_name": "川本",
    "total_distance_km": 9.3,
    "latitude": 35.61097065964945,
    "longitude": 139.742088632402,
    "is_shadow_confederation": false
  },
  {
    "rank": 14,
    "team_name": "広島経済大学",
    "team_short_name": "広経",
    "runner_name": "三次",
    "total_distance_km": 9.0,
    "latitude": 35.61361504016212,
    "longitude": 139.74139786092647,
    "is_shadow_confederation": false
  },
  {
    "rank": 15,
    "team_name": "日本大学",
    "team_short_name": "日大",
    "runner_name": "大子",
    "total_distance_km": 8.8,
    "latitude": 35.61539455505847,
    "longitude": 139.7410962256531,
    "is_shadow_confederation": false
  },
  {
    "rank": 16,
    "team_name": "山梨学院大学",
    "team_short_name": "山学",
    "runner_name": "長野",
    "total_distance_km": 4.6,
    "latitude": 35.6516024558788,
    "longitude": 139.74498793749717,
    "is_shadow_confederation": false
  },
  {
    "rank": 17,
    "team_name": "東北大学",
    "team_short_name": "東北",
    "runner_name": "帯広",
    "total_distance_km": 4.1,
    "latitude": 35.65601530400378,
    "longitude": 139.7459042548123,
    "is_shadow_confederation": false
  },
  {
    "rank": 18,
    "team_name": "学連選抜",
    "team_short_name": "学連",
    "runner_name": "美幌",
    "total_distance_km": -2.3,
    "latitude": 35.689441,
    "longitude": 139.760987,
    "is_shadow_confederation": false
  }
]