[
  {
    "rank": 1,
    "team_name": "琉球大学",
    "team_short_name": "琉球",
    "runner_name": "大原",
    "total_distance_km": 875.6,
    "latitude": 34.3687430950393,
    "longitude": 132.37826050324657,
    "is_shadow_confederation": false
  },
  {
    "rank": 2,
    "team_name": "鹿児島大学",
    "team_short_name": "鹿大",
    "runner_name": "鹿児島",
    "total_distance_km": 710.3,
    "latitude": 34.648322300855924,
    "longitude": 133.87906325645747,
    "is_shadow_confederation": false
  },
  {
    "rank": 3,
    "team_name": "熊本学園大学",
    "team_short_name": "熊学",
    "runner_name": "犬飼",
    "total_distance_km": 682.7,
    "latitude": 34.73597347284844,
    "longitude": 134.14407154148043,
    "is_shadow_confederation": false
  },
  {
    "rank": 4,
    "team_name": "福岡大学",
    "team_short_name": "福岡",
    "runner_name": "口之津",
    "total_distance_km": 655.6,
    "latitude": 34.82651479668527,
    "longitude": 134.37701040902434,
    "is_shadow_confederation": false
  },
  {
    "rank": 5,
    "team_name": "四国大学",
    "team_short_name": "四国",
    "runner_name": "徳島",
    "total_distance_km": 618.7,
    "latitude": 34.813397972247266,
    "longitude": 134.74609956046197,
    "is_shadow_confederation": false
  },
  {
    "rank": 6,
    "team_name": "名古屋大学",
    "team_short_name": "名大",
    "runner_name": "豊田（愛知）",
    "total_distance_km": 615.7,
    "latitude": 34.79548500100949,
    "longitude": 134.77048053516424,
    "is_shadow_confederation": false
  },
  {
    "rank": 7,
    "team_name": "日本大学",
    "team_short_name": "日大",
    "runner_name": "八王子",
    "total_distance_km": 586.6,
    "latitude": 34.644377313969784,
    "longitude": 135.0143812560021,
    "is_shadow_confederation": false
  },
  {
    "rank": 8,
    "team_name": "上武大学",
    "team_short_name": "上武",
    "runner_name": "伊勢崎",
    "total_distance_km": 583.7,
    "latitude": 34.629041837430236,
    "longitude": 135.039198324998,
    "is_shadow_confederation": false
  },
  {
    "rank": 9,
    "team_name": "広島経済大学",
    "team_short_name": "広経",
    "runner_name": "高松（香川）",
    "total_distance_km": 582.0,
    "latitude": 34.628408232946875,
    "longitude": 135.05754877214082,
    "is_shadow_confederation": false
  },
  {
    "rank": 10,
    "team_name": "三重大学",
    "team_short_name": "三重",
    "runner_name": "新宮",
    "total_distance_km": 578.5,
    "latitude": 34.63549924049059,
    "longitude": 135.0946019029804,
    "is_shadow_confederation": false
  },
  {
    "rank": 11,
    "team_name": "関西大学",
    "team_short_name": "関大",
    "runner_name": "豊中",
    "total_distance_km": 572.6,
    "latitude": 34.6643570569436,
    "longitude": 135.14721161610404,
    "is_shadow_confederation": false
  },
  {
    "rank": 12,
    "team_name": "鳥取大学",
    "team_short_name": "鳥取",
    "runner_name": "松江",
    "total_distance_km": 572.0,
    "latitude": 34.667431742767825,
    "longitude": 135.15246187932752,
    "is_shadow_confederation": false
  },
  {
    "rank": 13,
    "team_name": "山梨学院大学",
    "team_short_name": "山学",
    "runner_name": "静岡",
    "total_distance_km": 562.4,
    "latitude": 34.711720229963646,
    "longitude": 135.23878147667605,
    "is_shadow_confederation": false
  },
  {
    "rank": 14,
    "team_name": "立命館大学",
    "team_short_name": "立命",
    "runner_name": "彦根",
    "total_distance_km": 544.3,
    "latitude": 34.71949309173837,
    "longitude": 135.4271622370688,
    "is_shadow_confederation": false
  },
  {
    "rank": 15,
    "team_name": "福島大学",
    "team_short_name": "福島",
    "runner_name": "福島",
    "total_distance_km": 515.3,
    "latitude": 34.808023358895134,
    "longitude": 135.65590868130823,
    "is_shadow_confederation": false
  },
  {
    "rank": 16,
    "team_name": "金沢大学",
    "team_short_name": "金沢",
    "runner_name": "福井",
    "total_distance_km": 489.0,
    "latitude": 34.99751689140312,
    "longitude": 135.76696077694098,
    "is_shadow_confederation": false
  },
  {
    "rank": 17,
    "team_name": "東北大学",
    "team_short_name": "東北",
    "runner_name": "大館",
    "total_distance_km": 407.1,
    "latitude": 34.86034919134231,
    "longitude": 136.4849867525619,
    "is_shadow_confederation": false
  },
  {
    "rank": 18,
    "team_name": "学連選抜",
    "team_short_name": "学連",
    "runner_name": "上",
    "total_distance_km": 331.3,
    "latitude": 35.00242002758726,
    "longitude": 137.05657003818422,
    "is_shadow_confederation": false
  },
  {
    "rank": null,
    "team_name": "区間記録連合",
    "team_short_name": "区間記録",
    "runner_name": "豊中",
    "total_distance_km": 889.1,
    "latitude": 34.29077345053185,
    "longitude": 132.2824946906408,
    "is_shadow_confederation": true
  }
]