[
  {
    "rank": 1,
    "team_name": "琉球大学",
    "team_short_name": "琉球",
    "runner_name": "那覇",
    "total_distance_km": 747.8,
    "latitude": 34.49961115438794,
    "longitude": 133.53415771762022,
    "is_shadow_confederation": false
  },
  {
    "rank": 2,
    "team_name": "熊本学園大学",
    "team_short_name": "熊学",
    "runner_name": "犬飼",
    "total_distance_km": 696.5,
    "latitude": 34.693182478160765,
    "longitude": 134.011066583398,
    "is_shadow_confederation": false
  },
  {
    "rank": 3,
    "team_name": "福岡大学",
    "team_short_name": "福岡",
    "runner_name": "口之津",
    "total_distance_km": 684.9,
    "latitude": 34.72913988942102,
    "longitude": 134.12156035630522,
    "is_shadow_confederation": false
  },
  {
    "rank": 4,
    "team_name": "鹿児島大学",
    "team_short_name": "鹿大",
    "runner_name": "鹿児島",
    "total_distance_km": 680.6,
    "latitude": 34.740230657568,
    "longitude": 134.16630590228215,
    "is_shadow_confederation": false
  },
  {
    "rank": 5,
    "team_name": "名古屋大学",
    "team_short_name": "名大",
    "runner_name": "名古屋",
    "total_distance_km": 679.1,
    "latitude": 34.74477603387856,
    "longitude": 134.18169767583748,
    "is_shadow_confederation": false
  },
  {
    "rank": 6,
    "team_name": "関西大学",
    "team_short_name": "関大",
    "runner_name": "八尾（大阪）",
    "total_distance_km": 677.0,
    "latitude": 34.75170542696493,
    "longitude": 134.2029212525208,
    "is_shadow_confederation": false
  },
  {
    "rank": 7,
    "team_name": "立命館大学",
    "team_short_name": "立命",
    "runner_name": "長浜（滋賀）",
    "total_distance_km": 671.7,
    "latitude": 34.77936653130501,
    "longitude": 134.24844514083648,
    "is_shadow_confederation": false
  },
  {
    "rank": 8,
    "team_name": "四国大学",
    "team_short_name": "四国",
    "runner_name": "新居浜",
    "total_distance_km": 671.3,
    "latitude": 34.78070173794604,
    "longitude": 134.25250391713362,
    "is_shadow_confederation": false
  },
  {
    "rank": 9,
    "team_name": "鳥取大学",
    "team_short_name": "鳥取",
    "runner_name": "米子",
    "total_distance_km": 670.6,
    "latitude": 34.78510732550867,
    "longitude": 134.2572553281761,
    "is_shadow_confederation": false
  },
  {
    "rank": 10,
    "team_name": "広島経済大学",
    "team_short_name": "広経",
    "runner_name": "福山",
    "total_distance_km": 669.9,
    "latitude": 34.789873627339,
    "longitude": 134.26200262182567,
    "is_shadow_confederation": false
  },
  {
    "rank": 11,
    "team_name": "山梨学院大学",
    "team_short_name": "山学",
    "runner_name": "静岡",
    "total_distance_km": 660.1,
    "latitude": 34.842767020914984,
    "longitude": 134.33448628139874,
    "is_shadow_confederation": false
  },
  {
    "rank": 12,
    "team_name": "上武大学",
    "team_short_name": "上武",
    "runner_name": "伊勢崎",
    "total_distance_km": 658.6,
    "latitude": 34.83504458526409,
    "longitude": 134.3476640085506,
    "is_shadow_confederation": false
  },
  {
    "rank": 13,
    "team_name": "三重大学",
    "team_short_name": "三重",
    "runner_name": "新宮",
    "total_distance_km": 656.3,
    "latitude": 34.825458196992976,
    "longitude": 134.36968960424426,
    "is_shadow_confederation": false
  },
  {
    "rank": 14,
    "team_name": "金沢大学",
    "team_short_name": "金沢",
    "runner_name": "富山",
    "total_distance_km": 650.6,
    "latitude": 34.832958412602586,
    "longitude": 134.42992426386476,
    "is_shadow_confederation": false
  },
  {
    "rank": 15,
    "team_name": "日本大学",
    "team_short_name": "日大",
    "runner_name": "八王子",
    "total_distance_km": 627.7,
    "latitude": 34.8434147773255,
    "longitude": 134.65625096556354,
    "is_shadow_confederation": false
  },
  {
    "rank": 16,
    "team_name": "学連選抜",
    "team_short_name": "学連",
    "runner_name": "多度津",
    "total_distance_km": 602.7,
    "latitude": 34.729456613966455,
    "longitude": 134.88096095501493,
    "is_shadow_confederation": false
  },
  {
    "rank": 17,
    "team_name": "福島大学",
    "team_short_name": "福島",
    "runner_name": "浪江",
    "total_distance_km": 594.9,
    "latitude": 34.682269972796604,
    "longitude": 134.94211991388053,
    "is_shadow_confederation": false
  },
  {
    "rank": 18,
    "team_name": "東北大学",
    "team_short_name": "東北",
    "runner_name": "丸森",
    "total_distance_km": 585.3,
    "latitude": 34.638893969709116,
    "longitude": 135.0268499537443,
    "is_shadow_confederation": false
  }
]