[
  {
    "rank": 1,
    "team_name": "琉球大学",
    "team_short_name": "琉球",
    "runner_name": "石垣島",
    "total_distance_km": 1021.6,
    "latitude": 34.05146263082919,
    "longitude": 131.19273846189057,
    "is_shadow_confederation": false
  },
  {
    "rank": 2,
    "team_name": "名古屋大学",
    "team_short_name": "名大",
    "runner_name": "岐阜",
    "total_distance_km": 988.8,
    "latitude": 34.06559374790081,
    "longitude": 131.47928653280167,
    "is_shadow_confederation": false
  },
  {
    "rank": 3,
    "team_name": "福岡大学",
    "team_short_name": "福岡",
    "runner_name": "太宰府",
    "total_distance_km": 988.3,
    "latitude": 34.06464371191972,
    "longitude": 131.48451428390206,
    "is_shadow_confederation": false
  },
  {
    "rank": 4,
    "team_name": "鹿児島大学",
    "team_short_name": "鹿大",
    "runner_name": "指宿",
    "total_distance_km": 986.8,
    "latitude": 34.05693610430901,
    "longitude": 131.49730754244848,
    "is_shadow_confederation": false
  },
  {
    "rank": 5,
    "team_name": "熊本学園大学",
    "team_short_name": "熊学",
    "runner_name": "日田",
    "total_distance_km": 980.5,
    "latitude": 34.053650569053204,
    "longitude": 131.55684544492942,
    "is_shadow_confederation": false
  },
  {
    "rank": 6,
    "team_name": "四国大学",
    "team_short_name": "四国",
    "runner_name": "中村",
    "total_distance_km": 975.5,
    "latitude": 34.047663717341095,
    "longitude": 131.60634894610564,
    "is_shadow_confederation": false
  },
  {
    "rank": 7,
    "team_name": "関西大学",
    "team_short_name": "関大",
    "runner_name": "大阪",
    "total_distance_km": 974.8,
    "latitude": 34.043222302833684,
    "longitude": 131.61173452376636,
    "is_shadow_confederation": false
  },
  {
    "rank": 8,
    "team_name": "立命館大学",
    "team_short_name": "立命",
    "runner_name": "園部",
    "total_distance_km": 968.2,
    "latitude": 34.06809545360489,
    "longitude": 131.66740165965317,
    "is_shadow_confederation": false
  },
  {
    "rank": 9,
    "team_name": "広島経済大学",
    "team_short_name": "広経",
    "runner_name": "滝宮",
    "total_distance_km": 967.0,
    "latitude": 34.074082722369134,
    "longitude": 131.67803991080524,
    "is_shadow_confederation": false
  },
  {
    "rank": 10,
    "team_name": "三重大学",
    "team_short_name": "三重",
    "runner_name": "上野",
    "total_distance_km": 956.1,
    "latitude": 34.069192634748184,
    "longitude": 131.78070624787676,
    "is_shadow_confederation": false
  },
  {
    "rank": 11,
    "team_name": "日本大学",
    "team_short_name": "日大",
    "runner_name": "海老名",
    "total_distance_km": 956.0,
    "latitude": 34.06930931235696,
    "longitude": 131.7817656482251,
    "is_shadow_confederation": false
  },
  {
    "rank": 12,
    "team_name": "山梨学院大学",
    "team_short_name": "山学",
    "runner_name": "佐久間",
    "total_distance_km": 951.3,
    "latitude": 34.043806276243586,
    "longitude": 131.8154556590329,
    "is_shadow_confederation": false
  },
  {
    "rank": 13,
    "team_name": "上武大学",
    "team_short_name": "上武",
    "runner_name": "館林",
    "total_distance_km": 941.6,
    "latitude": 34.03142109219561,
    "longitude": 131.91132649731145,
    "is_shadow_confederation": false
  },
  {
    "rank": 14,
    "team_name": "鳥取大学",
    "team_short_name": "鳥取",
    "runner_name": "津和野",
    "total_distance_km": 941.2,
    "latitude": 34.03048309281339,
    "longitude": 131.9154802341629,
    "is_shadow_confederation": false
  },
  {
    "rank": 15,
    "team_name": "金沢大学",
    "team_short_name": "金沢",
    "runner_name": "大野（福井）",
    "total_distance_km": 927.9,
    "latitude": 34.0931821415187,
    "longitude": 132.0245116474943,
    "is_shadow_confederation": false
  },
  {
    "rank": 16,
    "team_name": "学連選抜",
    "team_short_name": "学連",
    "runner_name": "恵那",
    "total_distance_km": 914.1,
    "latitude": 34.137866006793814,
    "longitude": 132.15373472528563,
    "is_shadow_confederation": false
  },
  {
    "rank": 17,
    "team_name": "福島大学",
    "team_short_name": "福島",
    "runner_name": "新津",
    "total_distance_km": 905.1,
    "latitude": 34.176247200797484,
    "longitude": 132.2259779735471,
    "is_shadow_confederation": false
  },
  {
    "rank": 18,
    "team_name": "東北大学",
    "team_short_name": "東北",
    "runner_name": "東根",
    "total_distance_km": 835.3,
    "latitude": 34.41724454443246,
    "longitude": 132.7269578370802,
    "is_shadow_confederation": false
  },
  {
    "rank": null,
    "team_name": "区間記録連合",
    "team_short_name": "区間記録",
    "runner_name": "鳩山",
    "total_distance_km": 1034.7,
    "latitude": 34.04780755503983,
    "longitude": 131.0607583357333,
    "is_shadow_confederation": true
  }
]