[
  {
    "rank": 1,
    "team_name": "琉球大学",
    "team_short_name": "琉球",
    "runner_name": "北原",
    "total_distance_km": 61.9,
    "latitude": 35.31990430664247,
    "longitude": 139.37451734157492,
    "is_shadow_confederation": false
  },
  {
    "rank": 2,
    "team_name": "熊本学園大学",
    "team_short_name": "熊学",
    "runner_name": "甲佐",
    "total_distance_km": 59.6,
    "latitude": 35.31830884822803,
    "longitude": 139.3983821710066,
    "is_shadow_confederation": false
  },
  {
    "rank": 3,
    "team_name": "鹿児島大学",
    "team_short_name": "鹿大",
    "runner_name": "東市来",
    "total_distance_km": 58.6,
    "latitude": 35.31855562497749,
    "longitude": 139.40930419517147,
    "is_shadow_confederation": false
  },
  {
    "rank": 4,
    "team_name": "福岡大学",
    "team_short_name": "福岡",
    "runner_name": "久留米",
    "total_distance_km": 58.3,
    "latitude": 35.318261160910076,
    "longitude": 139.41258370131547,
    "is_shadow_confederation": false
  },
  {
    "rank": 5,
    "team_name": "四国大学",
    "team_short_name": "四国",
    "runner_name": "穴吹",
    "total_distance_km": 55.2,
    "latitude": 35.32582412469431,
    "longitude": 139.44395925664452,
    "is_shadow_confederation": false
  },
  {
    "rank": 6,
    "team_name": "三重大学",
    "team_short_name": "三重",
    "runner_name": "粥見",
    "total_distance_km": 54.1,
    "latitude": 35.32858347748357,
    "longitude": 139.45540172213896,
    "is_shadow_confederation": false
  },
  {
    "rank": 7,
    "team_name": "名古屋大学",
    "team_short_name": "名大",
    "runner_name": "美濃加茂",
    "total_distance_km": 52.8,
    "latitude": 35.33503031221517,
    "longitude": 139.46714247219742,
    "is_shadow_confederation": false
  },
  {
    "rank": 8,
    "team_name": "立命館大学",
    "team_short_name": "立命",
    "runner_name": "東近江",
    "total_distance_km": 52.3,
    "latitude": 35.33490000517225,
    "longitude": 139.47243642229986,
    "is_shadow_confederation": false
  },
  {
    "rank": 9,
    "team_name": "関西大学",
    "team_short_name": "関大",
    "runner_name": "福崎",
    "total_distance_km": 51.9,
    "latitude": 35.337216262768486,
    "longitude": 139.47580809301775,
    "is_shadow_confederation": false
  },
  {
    "rank": 10,
    "team_name": "鳥取大学",
    "team_short_name": "鳥取",
    "runner_name": "川本",
    "total_distance_km": 51.1,
    "latitude": 35.341924354636994,
    "longitude": 139.48176542182867,
    "is_shadow_confederation": false
  },
  {
    "rank": 11,
    "team_name": "広島経済大学",
    "team_short_name": "広経",
    "runner_name": "三次",
    "total_distance_km": 49.8,
    "latitude": 35.350764222069735,
    "longitude": 139.49076221350862,
    "is_shadow_confederation": false
  },
  {
    "rank": 12,
    "team_name": "上武大学",
    "team_short_name": "上武",
    "runner_name": "佐野",
    "total_distance_km": 47.2,
    "latitude": 35.37206943014859,
    "longitude": 139.50198763799912,
    "is_shadow_confederation": false
  },
  {
    "rank": 13,
    "team_name": "日本大学",
    "team_short_name": "日大",
    "runner_name": "大子",
    "total_distance_km": 44.8,
    "latitude": 35.387645168509586,
    "longitude": 139.51885558207192,
    "is_shadow_confederation": false
  },
  {
    "rank": 14,
    "team_name": "金沢大学",
    "team_short_name": "金沢",
    "runner_name": "秋ヶ島",
    "total_distance_km": 42.4,
    "latitude": 35.406396713201474,
    "longitude": 139.5285766150989,
    "is_shadow_confederation": false
  },
  {
    "rank": 15,
    "team_name": "福島大学",
    "team_short_name": "福島",
    "runner_name": "梁川",
    "total_distance_km": 40.8,
    "latitude": 35.41425968882621,
    "longitude": 139.54121663083532,
    "is_shadow_confederation": false
  },
  {
    "rank": 16,
    "team_name": "山梨学院大学",
    "team_short_name": "山学",
    "runner_name": "長野",
    "total_distance_km": 37.7,
    "latitude": 35.42594748599383,
    "longitude": 139.5696632179098,
    "is_shadow_confederation": false
  },
  {
    "rank": 17,
    "team_name": "東北大学",
    "team_short_name": "東北",
    "runner_name": "帯広",
    "total_distance_km": 26.2,
    "latitude": 35.48552804261049,
    "longitude": 139.65229977400298,
    "is_shadow_confederation": false
  },
  {
    "rank": 18,
    "team_name": "学連選抜",
    "team_short_name": "学連",
    "runner_name": "美幌",
    "total_distance_km": 21.8,
    "latitude": 35.51323576826084,
    "longitude": 139.68545738085882,
    "is_shadow_confederation": false
  }
]