[
  {
    "rank": 1,
    "team_name": "琉球大学",
    "team_short_name": "琉球",
    "runner_name": "大原",
    "total_distance_km": 945.8,
    "latitude": 34.03261956599479,
    "longitude": 131.86743561939647,
    "is_shadow_confederation": false
  },
  {
    "rank": 2,
    "team_name": "鹿児島大学",
    "team_short_name": "鹿大",
    "runner_name": "さつま柏原",
    "total_distance_km": 788.9,
    "latitude": 34.396887770962394,
    "longitude": 133.16451900797674,
    "is_shadow_confederation": false
  },
  {
    "rank": 3,
    "team_name": "熊本学園大学",
    "team_short_name": "熊学",
    "runner_name": "三角",
    "total_distance_km": 765.1,
    "latitude": 34.485172019263565,
    "longitude": 133.36326929233695,
    "is_shadow_confederation": false
  },
  {
    "rank": 4,
    "team_name": "福岡大学",
    "team_short_name": "福岡",
    "runner_name": "大牟田",
    "total_distance_km": 747.9,
    "latitude": 34.49946759311758,
    "longitude": 133.53308277714478,
    "is_shadow_confederation": false
  },
  {
    "rank": 5,
    "team_name": "四国大学",
    "team_short_name": "四国",
    "runner_name": "新居浜",
    "total_distance_km": 712.9,
    "latitude": 34.64609510878124,
    "longitude": 133.85264487421605,
    "is_shadow_confederation": false
  },
  {
    "rank": 6,
    "team_name": "広島経済大学",
    "team_short_name": "広経",
    "runner_name": "福山",
    "total_distance_km": 691.8,
    "latitude": 34.7055715452232,
    "longitude": 134.05819937299512,
    "is_shadow_confederation": false
  },
  {
    "rank": 7,
    "team_name": "関西大学",
    "team_short_name": "関大",
    "runner_name": "八尾（大阪）",
    "total_distance_km": 677.0,
    "latitude": 34.75170542696493,
    "longitude": 134.2029212525208,
    "is_shadow_confederation": false
  },
  {
    "rank": 8,
    "team_name": "鳥取大学",
    "team_short_name": "鳥取",
    "runner_name": "米子",
    "total_distance_km": 676.8,
    "latitude": 34.752736674230505,
    "longitude": 134.20471293022297,
    "is_shadow_confederation": false
  },
  {
    "rank": 9,
    "team_name": "名古屋大学",
    "team_short_name": "名大",
    "runner_name": "名古屋",
    "total_distance_km": 675.1,
    "latitude": 34.75977454745154,
    "longitude": 134.22108598958056,
    "is_shadow_confederation": false
  },
  {
    "rank": 10,
    "team_name": "三重大学",
    "team_short_name": "三重",
    "runner_name": "津",
    "total_distance_km": 669.4,
    "latitude": 34.79405646054148,
    "longitude": 134.26314308931688,
    "is_shadow_confederation": false
  },
  {
    "rank": 11,
    "team_name": "立命館大学",
    "team_short_name": "立命",
    "runner_name": "彦根",
    "total_distance_km": 653.3,
    "latitude": 34.829624635837256,
    "longitude": 134.40151180915598,
    "is_shadow_confederation": false
  },
  {
    "rank": 12,
    "team_name": "上武大学",
    "team_short_name": "上武",
    "runner_name": "伊勢崎",
    "total_distance_km": 636.0,
    "latitude": 34.83385641318516,
    "longitude": 134.5802948693972,
    "is_shadow_confederation": false
  },
  {
    "rank": 13,
    "team_name": "日本大学",
    "team_short_name": "日大",
    "runner_name": "八王子",
    "total_distance_km": 630.6,
    "latitude": 34.84111597567634,
    "longitude": 134.62651112964133,
    "is_shadow_confederation": false
  },
  {
    "rank": 14,
    "team_name": "金沢大学",
    "team_short_name": "金沢",
    "runner_name": "富山",
    "total_distance_km": 629.9,
    "latitude": 34.84473250441491,
    "longitude": 134.63251230646938,
    "is_shadow_confederation": false
  },
  {
    "rank": 15,
    "team_name": "山梨学院大学",
    "team_short_name": "山学",
    "runner_name": "静岡",
    "total_distance_km": 617.3,
    "latitude": 34.80463918154533,
    "longitude": 134.7570659699567,
    "is_shadow_confederation": false
  },
  {
    "rank": 16,
    "team_name": "学連選抜",
    "team_short_name": "学連",
    "runner_name": "多度津",
    "total_distance_km": 578.1,
    "latitude": 34.636535547324755,
    "longitude": 135.09876310973746,
    "is_shadow_confederation": false
  },
  {
    "rank": 17,
    "team_name": "福島大学",
    "team_short_name": "福島",
    "runner_name": "浪江",
    "total_distance_km": 559.0,
    "latitude": 34.72241914023076,
    "longitude": 135.2733499053887,
    "is_shadow_confederation": false
  },
  {
    "rank": 18,
    "team_name": "東北大学",
    "team_short_name": "東北",
    "runner_name": "一関",
    "total_distance_km": 476.8,
    "latitude": 35.002140123856094,
    "longitude": 135.86580223690515,
    "is_shadow_confederation": false
  }
]