[
  {
    "rank": 1,
    "team_name": "琉球大学",
    "team_short_name": "琉球",
    "runner_name": "石垣島",
    "total_distance_km": 986.9,
    "latitude": 34.05760278448344,
    "longitude": 131.49657840129092,
    "is_shadow_confederation": false
  },
  {
    "rank": 2,
    "team_name": "名古屋大学",
    "team_short_name": "名大",
    "runner_name": "揖斐川",
    "total_distance_km": 957.2,
    "latitude": 34.07192913891195,
    "longitude": 131.76927590482842,
    "is_shadow_confederation": false
  },
  {
    "rank": 3,
    "team_name": "鹿児島大学",
    "team_short_name": "鹿大",
    "runner_name": "喜入",
    "total_distance_km": 955.4,
    "latitude": 34.06922871296836,
    "longitude": 131.78807510823597,
    "is_shadow_confederation": false
  },
  {
    "rank": 4,
    "team_name": "福岡大学",
    "team_short_name": "福岡",
    "runner_name": "佐賀（佐賀）",
    "total_distance_km": 953.2,
    "latitude": 34.05564686868441,
    "longitude": 131.80272566505215,
    "is_shadow_confederation": false
  },
  {
    "rank": 5,
    "team_name": "熊本学園大学",
    "team_short_name": "熊学",
    "runner_name": "菊池",
    "total_distance_km": 946.5,
    "latitude": 34.03002621210081,
    "longitude": 131.86053447525373,
    "is_shadow_confederation": false
  },
  {
    "rank": 6,
    "team_name": "四国大学",
    "team_short_name": "四国",
    "runner_name": "西条",
    "total_distance_km": 942.4,
    "latitude": 34.03175503411208,
    "longitude": 131.9028604395008,
    "is_shadow_confederation": false
  },
  {
    "rank": 7,
    "team_name": "関西大学",
    "team_short_name": "関大",
    "runner_name": "西脇",
    "total_distance_km": 942.1,
    "latitude": 34.03196857678818,
    "longitude": 131.9060977768713,
    "is_shadow_confederation": false
  },
  {
    "rank": 8,
    "team_name": "広島経済大学",
    "team_short_name": "広経",
    "runner_name": "滝宮",
    "total_distance_km": 936.0,
    "latitude": 34.049760659883646,
    "longitude": 131.96247403388074,
    "is_shadow_confederation": false
  },
  {
    "rank": 9,
    "team_name": "立命館大学",
    "team_short_name": "立命",
    "runner_name": "園部",
    "total_distance_km": 935.1,
    "latitude": 34.05452237488006,
    "longitude": 131.96970889679616,
    "is_shadow_confederation": false
  },
  {
    "rank": 10,
    "team_name": "日本大学",
    "team_short_name": "日大",
    "runner_name": "海老名",
    "total_distance_km": 929.1,
    "latitude": 34.09146294991692,
    "longitude": 132.01180044456737,
    "is_shadow_confederation": false
  },
  {
    "rank": 11,
    "team_name": "三重大学",
    "team_short_name": "三重",
    "runner_name": "上野",
    "total_distance_km": 925.5,
    "latitude": 34.09249788232427,
    "longitude": 132.0495962778124,
    "is_shadow_confederation": false
  },
  {
    "rank": 12,
    "team_name": "山梨学院大学",
    "team_short_name": "山学",
    "runner_name": "佐久間",
    "total_distance_km": 920.9,
    "latitude": 34.10245826239045,
    "longitude": 132.09626792505253,
    "is_shadow_confederation": false
  },
  {
    "rank": 13,
    "team_name": "上武大学",
    "team_short_name": "上武",
    "runner_name": "館林",
    "total_distance_km": 914.6,
    "latitude": 34.13412597393573,
    "longitude": 132.15070895619365,
    "is_shadow_confederation": false
  },
  {
    "rank": 14,
    "team_name": "鳥取大学",
    "team_short_name": "鳥取",
    "runner_name": "津和野",
    "total_distance_km": 909.9,
    "latitude": 34.16480178009001,
    "longitude": 132.18098535848105,
    "is_shadow_confederation": false
  },
  {
    "rank": 15,
    "team_name": "金沢大学",
    "team_short_name": "金沢",
    "runner_name": "大野（福井）",
    "total_distance_km": 897.5,
    "latitude": 34.23989636887125,
    "longitude": 132.22114997594238,
    "is_shadow_confederation": false
  },
  {
    "rank": 16,
    "team_name": "学連選抜",
    "team_short_name": "学連",
    "runner_name": "恵那",
    "total_distance_km": 882.9,
    "latitude": 34.33413918820797,
    "longitude": 132.3197216095682,
    "is_shadow_confederation": false
  },
  {
    "rank": 17,
    "team_name": "福島大学",
    "team_short_name": "福島",
    "runner_name": "新津",
    "total_distance_km": 878.1,
    "latitude": 34.364010735021544,
    "longitude": 132.3517967701756,
    "is_shadow_confederation": false
  },
  {
    "rank": 18,
    "team_name": "東北大学",
    "team_short_name": "東北",
    "runner_name": "東根",
    "total_distance_km": 806.6,
    "latitude": 34.4028534980958,
    "longitude": 132.9976984649358,
    "is_shadow_confederation": false
  },
  {
    "rank": null,
    "team_name": "区間記録連合",
    "team_short_name": "区間記録",
    "runner_name": "鳩山",
    "total_distance_km": 996.1,
    "latitude": 34.09439369720225,
    "longitude": 131.41043049557302,
    "is_shadow_confederation": true
  }
]