[
  {
    "rank": 1,
    "team_name": "琉球大学",
    "team_short_name": "琉球",
    "runner_name": "北原",
    "total_distance_km": 57.1,
    "latitude": 35.31959998951573,
    "longitude": 139.42546000584701,
    "is_shadow_confederation": false
  },
  {
    "rank": 2,
    "team_name": "鹿児島大学",
    "team_short_name": "鹿大",
    "runner_name": "東市来",
    "total_distance_km": 38.5,
    "latitude": 35.42112261122629,
    "longitude": 139.56325705464215,
    "is_shadow_confederation": false
  },
  {
    "rank": 3,
    "team_name": "熊本学園大学",
    "team_short_name": "熊学",
    "runner_name": "甲佐",
    "total_distance_km": 35.5,
    "latitude": 35.44353242193198,
    "longitude": 139.5766721019312,
    "is_shadow_confederation": false
  },
  {
    "rank": 4,
    "team_name": "福岡大学",
    "team_short_name": "福岡",
    "runner_name": "久留米",
    "total_distance_km": 35.0,
    "latitude": 35.4452293023733,
    "longitude": 139.58110725174524,
    "is_shadow_confederation": false
  },
  {
    "rank": 5,
    "team_name": "四国大学",
    "team_short_name": "四国",
    "runner_name": "穴吹",
    "total_distance_km": 30.7,
    "latitude": 35.45826479835562,
    "longitude": 139.62218586440085,
    "is_shadow_confederation": false
  },
  {
    "rank": 6,
    "team_name": "三重大学",
    "team_short_name": "三重",
    "runner_name": "粥見",
    "total_distance_km": 29.9,
    "latitude": 35.464856538860026,
    "longitude": 139.6238449731631,
    "is_shadow_confederation": false
  },
  {
    "rank": 7,
    "team_name": "上武大学",
    "team_short_name": "上武",
    "runner_name": "佐野",
    "total_distance_km": 29.6,
    "latitude": 35.46729762602045,
    "longitude": 139.62474704113532,
    "is_shadow_confederation": false
  },
  {
    "rank": 8,
    "team_name": "名古屋大学",
    "team_short_name": "名大",
    "runner_name": "美濃加茂",
    "total_distance_km": 28.5,
    "latitude": 35.473240523346405,
    "longitude": 139.63307657317927,
    "is_shadow_confederation": false
  },
  {
    "rank": 9,
    "team_name": "関西大学",
    "team_short_name": "関大",
    "runner_name": "福崎",
    "total_distance_km": 27.4,
    "latitude": 35.481019466019724,
    "longitude": 139.64057020970924,
    "is_shadow_confederation": false
  },
  {
    "rank": 10,
    "team_name": "日本大学",
    "team_short_name": "日大",
    "runner_name": "大子",
    "total_distance_km": 26.8,
    "latitude": 35.48422167177961,
    "longitude": 139.6458837285198,
    "is_shadow_confederation": false
  },
  {
    "rank": 11,
    "team_name": "立命館大学",
    "team_short_name": "立命",
    "runner_name": "東近江",
    "total_distance_km": 23.5,
    "latitude": 35.500581243576676,
    "longitude": 139.67490253178147,
    "is_shadow_confederation": false
  },
  {
    "rank": 12,
    "team_name": "広島経済大学",
    "team_short_name": "広経",
    "runner_name": "三次",
    "total_distance_km": 21.4,
    "latitude": 35.51634086856573,
    "longitude": 139.6876980469382,
    "is_shadow_confederation": false
  },
  {
    "rank": 13,
    "team_name": "鳥取大学",
    "team_short_name": "鳥取",
    "runner_name": "川本",
    "total_distance_km": 21.2,
    "latitude": 35.51789341871817,
    "longitude": 139.6888183799779,
    "is_shadow_confederation": false
  },
  {
    "rank": 14,
    "team_name": "金沢大学",
    "team_short_name": "金沢",
    "runner_name": "秋ヶ島",
    "total_distance_km": 20.0,
    "latitude": 35.524796958977404,
    "longitude": 139.69868310272747,
    "is_shadow_confederation": false
  },
  {
    "rank": 15,
    "team_name": "福島大学",
    "team_short_name": "福島",
    "runner_name": "梁川",
    "total_distance_km": 18.8,
    "latitude": 35.5329978190983,
    "longitude": 139.7068990647243,
    "is_shadow_confederation": false
  },
  {
    "rank": 16,
    "team_name": "山梨学院大学",
    "team_short_name": "山学",
    "runner_name": "長野",
    "total_distance_km": 15.3,
    "latitude": 35.56077303837868,
    "longitude": 139.7241569291877,
    "is_shadow_confederation": false
  },
  {
    "rank": 17,
    "team_name": "東北大学",
    "team_short_name": "東北",
    "runner_name": "帯広",
    "total_distance_km": 9.5,
    "latitude": 35.60920773930768,
    "longitude": 139.74254914671903,
    "is_shadow_confederation": false
  },
  {
    "rank": 18,
    "team_name": "学連選抜",
    "team_short_name": "学連",
    "runner_name": "美幌",
    "total_distance_km": 2.0,
    "latitude": 35.672999170631165,
    "longitude": 139.75356543783215,
    "is_shadow_confederation": false
  }
]