[
  {
    "rank": 1,
    "team_name": "琉球大学",
    "team_short_name": "琉球",
    "runner_name": "仲筋",
    "total_distance_km": 160.4,
    "latitude": 35.04945229043055,
    "longitude": 138.51909962135397,
    "is_shadow_confederation": false
  },
  {
    "rank": 2,
    "team_name": "熊本学園大学",
    "team_short_name": "熊学",
    "runner_name": "岱明",
    "total_distance_km": 159.5,
    "latitude": 35.053630362993864,
    "longitude": 138.52755561390325,
    "is_shadow_confederation": false
  },
  {
    "rank": 3,
    "team_name": "鹿児島大学",
    "team_short_name": "鹿大",
    "runner_name": "川内（鹿児島）",
    "total_distance_km": 153.1,
    "latitude": 35.10453707598789,
    "longitude": 138.55672934879127,
    "is_shadow_confederation": false
  },
  {
    "rank": 4,
    "team_name": "福岡大学",
    "team_short_name": "福岡",
    "runner_name": "福岡",
    "total_distance_km": 151.0,
    "latitude": 35.11210481497174,
    "longitude": 138.57700674362258,
    "is_shadow_confederation": false
  },
  {
    "rank": 5,
    "team_name": "四国大学",
    "team_short_name": "四国",
    "runner_name": "大三島",
    "total_distance_km": 139.4,
    "latitude": 35.146150830305736,
    "longitude": 138.68804323618366,
    "is_shadow_confederation": false
  },
  {
    "rank": 6,
    "team_name": "広島経済大学",
    "team_short_name": "広経",
    "runner_name": "加計",
    "total_distance_km": 134.2,
    "latitude": 35.1359406813422,
    "longitude": 138.7425888811898,
    "is_shadow_confederation": false
  },
  {
    "rank": 7,
    "team_name": "関西大学",
    "team_short_name": "関大",
    "runner_name": "和田山",
    "total_distance_km": 133.5,
    "latitude": 35.134216672585396,
    "longitude": 138.74997719291488,
    "is_shadow_confederation": false
  },
  {
    "rank": 8,
    "team_name": "鳥取大学",
    "team_short_name": "鳥取",
    "runner_name": "鳥取",
    "total_distance_km": 131.4,
    "latitude": 35.12950842379866,
    "longitude": 138.7722810371471,
    "is_shadow_confederation": false
  },
  {
    "rank": 9,
    "team_name": "立命館大学",
    "team_short_name": "立命",
    "runner_name": "福知山",
    "total_distance_km": 130.1,
    "latitude": 35.12576379291831,
    "longitude": 138.78573665574115,
    "is_shadow_confederation": false
  },
  {
    "rank": 10,
    "team_name": "三重大学",
    "team_short_name": "三重",
    "runner_name": "五條",
    "total_distance_km": 128.2,
    "latitude": 35.11985192929145,
    "longitude": 138.80524372003444,
    "is_shadow_confederation": false
  },
  {
    "rank": 11,
    "team_name": "名古屋大学",
    "team_short_name": "名大",
    "runner_name": "美濃加茂",
    "total_distance_km": 124.9,
    "latitude": 35.10507295509523,
    "longitude": 138.83656720216518,
    "is_shadow_confederation": false
  },
  {
    "rank": 12,
    "team_name": "金沢大学",
    "team_short_name": "金沢",
    "runner_name": "秋ヶ島",
    "total_distance_km": 118.9,
    "latitude": 35.10945119078093,
    "longitude": 138.8971051978885,
    "is_shadow_confederation": false
  },
  {
    "rank": 13,
    "team_name": "上武大学",
    "team_short_name": "上武",
    "runner_name": "佐野",
    "total_distance_km": 113.7,
    "latitude": 35.13169261104231,
    "longitude": 138.94484910484056,
    "is_shadow_confederation": false
  },
  {
    "rank": 14,
    "team_name": "日本大学",
    "team_short_name": "日大",
    "runner_name": "大子",
    "total_distance_km": 108.5,
    "latitude": 35.149203754597515,
    "longitude": 138.9893092997371,
    "is_shadow_confederation": false
  },
  {
    "rank": 15,
    "team_name": "山梨学院大学",
    "team_short_name": "山学",
    "runner_name": "長野",
    "total_distance_km": 106.4,
    "latitude": 35.16214769226981,
    "longitude": 139.00119503306038,
    "is_shadow_confederation": false
  },
  {
    "rank": 16,
    "team_name": "福島大学",
    "team_short_name": "福島",
    "runner_name": "梁川",
    "total_distance_km": 101.1,
    "latitude": 35.18360782304501,
    "longitude": 139.02592176988026,
    "is_shadow_confederation": false
  },
  {
    "rank": 17,
    "team_name": "東北大学",
    "team_short_name": "東北",
    "runner_name": "帯広",
    "total_distance_km": 73.8,
    "latitude": 35.29574879163296,
    "longitude": 139.25157784540662,
    "is_shadow_confederation": false
  },
  {
    "rank": 18,
    "team_name": "学連選抜",
    "team_short_name": "学連",
    "runner_name": "美幌",
    "total_distance_km": 67.0,
    "latitude": 35.31048551279918,
    "longitude": 139.3202993875725,
    "is_shadow_confederation": false
  }
]