[
  {
    "rank": 1,
    "team_name": "琉球大学",
    "team_short_name": "琉球",
    "runner_name": "北原",
    "total_distance_km": 20.2,
    "latitude": 35.523784979191845,
    "longitude": 139.69685836158726,
    "is_shadow_confederation": false
  },
  {
    "rank": 2,
    "team_name": "鹿児島大学",
    "team_short_name": "鹿大",
    "runner_name": "東市来",
    "total_distance_km": 11.4,
    "latitude": 35.59342823238912,
    "longitude": 139.73622482660178,
    "is_shadow_confederation": false
  },
  {
    "rank": 3,
    "team_name": "熊本学園大学",
    "team_short_name": "熊学",
    "runner_name": "甲佐",
    "total_distance_km": 10.7,
    "latitude": 35.59938925420701,
    "longitude": 139.7386274964369,
    "is_shadow_confederation": false
  },
  {
    "rank": 4,
    "team_name": "福岡大学",
    "team_short_name": "福岡",
    "runner_name": "久留米",
    "total_distance_km": 10.2,
    "latitude": 35.60354653873343,
    "longitude": 139.74071752841226,
    "is_shadow_confederation": false
  },
  {
    "rank": 5,
    "team_name": "上武大学",
    "team_short_name": "上武",
    "runner_name": "佐野",
    "total_distance_km": 9.4,
    "latitude": 35.610089199478566,
    "longitude": 139.74231888956052,
    "is_shadow_confederation": false
  },
  {
    "rank": 6,
    "team_name": "日本大学",
    "team_short_name": "日大",
    "runner_name": "大子",
    "total_distance_km": 9.0,
    "latitude": 35.61361504016212,
    "longitude": 139.74139786092647,
    "is_shadow_confederation": false
  },
  {
    "rank": 7,
    "team_name": "四国大学",
    "team_short_name": "四国",
    "runner_name": "穴吹",
    "total_distance_km": 8.3,
    "latitude": 35.61978131452107,
    "longitude": 139.7401791265636,
    "is_shadow_confederation": false
  },
  {
    "rank": 8,
    "team_name": "名古屋大学",
    "team_short_name": "名大",
    "runner_name": "美濃加茂",
    "total_distance_km": 7.4,
    "latitude": 35.62756434342194,
    "longitude": 139.73758395298768,
    "is_shadow_confederation": false
  },
  {
    "rank": 9,
    "team_name": "関西大学",
    "team_short_name": "関大",
    "runner_name": "福崎",
    "total_distance_km": 7.1,
    "latitude": 35.63026714673835,
    "longitude": 139.73764720239322,
    "is_shadow_confederation": false
  },
  {
    "rank": 10,
    "team_name": "三重大学",
    "team_short_name": "三重",
    "runner_name": "粥見",
    "total_distance_km": 6.7,
    "latitude": 35.633827826784625,
    "longitude": 139.7381278310238,
    "is_shadow_confederation": false
  },
  {
    "rank": 11,
    "team_name": "立命館大学",
    "team_short_name": "立命",
    "runner_name": "東近江",
    "total_distance_km": 6.4,
    "latitude": 35.6364449807974,
    "longitude": 139.73895988896038,
    "is_shadow_confederation": false
  },
  {
    "rank": 12,
    "team_name": "福島大学",
    "team_short_name": "福島",
    "runner_name": "梁川",
    "total_distance_km": 6.3,
    "latitude": 35.63731736546833,
    "longitude": 139.7392372416059,
    "is_shadow_confederation": false
  },
  {
    "rank": 13,
    "team_name": "広島経済大学",
    "team_short_name": "広経",
    "runner_name": "三次",
    "total_distance_km": 6.1,
    "latitude": 35.63899304808496,
    "longitude": 139.74004177579633,
    "is_shadow_confederation": false
  },
  {
    "rank": 14,
    "team_name": "鳥取大学",
    "team_short_name": "鳥取",
    "runner_name": "川本",
    "total_distance_km": 5.5,
    "latitude": 35.64383907809551,
    "longitude": 139.74293274641408,
    "is_shadow_confederation": false
  },
  {
    "rank": 15,
    "team_name": "東北大学",
    "team_short_name": "東北",
    "runner_name": "帯広",
    "total_distance_km": 4.2,
    "latitude": 35.6551678219573,
    "longitude": 139.745528410286,
    "is_shadow_confederation": false
  },
  {
    "rank": 16,
    "team_name": "金沢大学",
    "team_short_name": "金沢",
    "runner_name": "秋ヶ島",
    "total_distance_km": 3.3,
    "latitude": 35.66195190290798,
    "longitude": 139.74940131663277,
    "is_shadow_confederation": false
  },
  {
    "rank": 17,
    "team_name": "山梨学院大学",
    "team_short_name": "山学",
    "runner_name": "長野",
    "total_distance_km": 3.1,
    "latitude": 35.66375009603134,
    "longitude": 139.74955512716676,
    "is_shadow_confederation": false
  },
  {
    "rank": 18,
    "team_name": "学連選抜",
    "team_short_name": "学連",
    "runner_name": "美幌",
    "total_distance_km": 1.0,
    "latitude": 35.68099944599994,
    "longitude": 139.75865222336887,
    "is_shadow_confederation": false
  }
]