[
  {
    "rank": 1,
    "team_name": "四国大学",
    "team_short_name": "四国",
    "runner_name": "穴吹",
    "total_distance_km": 103.6,
    "latitude": 35.17436924351032,
    "longitude": 139.01147507600902
  },
  {
    "rank": 2,
    "team_name": "名古屋大学",
    "team_short_name": "名大",
    "runner_name": "美濃加茂",
    "total_distance_km": 102.3,
    "latitude": 35.18328375051081,
    "longitude": 139.01423099602175
  },
  {
    "rank": 3,
    "team_name": "上武大学",
    "team_short_name": "上武",
    "runner_name": "佐野",
    "total_distance_km": 101.7,
    "latitude": 35.18404641022731,
    "longitude": 139.0201706504382
  },
  {
    "rank": 4,
    "team_name": "関西大学",
    "team_short_name": "関大",
    "runner_name": "福崎",
    "total_distance_km": 101.5,
    "latitude": 35.184480256317386,
    "longitude": 139.02230191402325
  },
  {
    "rank": 5,
    "team_name": "金沢大学",
    "team_short_name": "金沢",
    "runner_name": "秋ヶ島",
    "total_distance_km": 101.4,
    "latitude": 35.18469717936242,
    "longitude": 139.0233675458158
  },
  {
    "rank": 6,
    "team_name": "立命館大学",
    "team_short_name": "立命",
    "runner_name": "東近江",
    "total_distance_km": 101.3,
    "latitude": 35.18482847284403,
    "longitude": 139.02442995225653
  },
  {
    "rank": 7,
    "team_name": "日本大学",
    "team_short_name": "日大",
    "runner_name": "大子",
    "total_distance_km": 100.4,
    "latitude": 35.185250712297005,
    "longitude": 139.0320893507078
  },
  {
    "rank": 8,
    "team_name": "福島大学",
    "team_short_name": "福島",
    "runner_name": "梁川",
    "total_distance_km": 98.8,
    "latitude": 35.19165879635773,
    "longitude": 139.04667728195616
  },
  {
    "rank": 9,
    "team_name": "三重大学",
    "team_short_name": "三重",
    "runner_name": "粥見",
    "total_distance_km": 98.4,
    "latitude": 35.193908163410754,
    "longitude": 139.04995505301332
  },
  {
    "rank": 10,
    "team_name": "山梨学院大学",
    "team_short_name": "山学",
    "runner_name": "長野",
    "total_distance_km": 97.5,
    "latitude": 35.20102030940545,
    "longitude": 139.0539321472523
  },
  {
    "rank": 11,
    "team_name": "熊本学園大学",
    "team_short_name": "熊学",
    "runner_name": "甲佐",
    "total_distance_km": 97.0,
    "latitude": 35.20486749259764,
    "longitude": 139.0566387958839
  },
  {
    "rank": 12,
    "team_name": "琉球大学",
    "team_short_name": "琉球",
    "runner_name": "北原",
    "total_distance_km": 95.9,
    "latitude": 35.20978106554282,
    "longitude": 139.06002041321761
  },
  {
    "rank": 13,
    "team_name": "福岡大学",
    "team_short_name": "福岡",
    "runner_name": "久留米",
    "total_distance_km": 95.5,
    "latitude": 35.213133409157216,
    "longitude": 139.06104269344917
  },
  {
    "rank": 14,
    "team_name": "広島経済大学",
    "team_short_name": "広経",
    "runner_name": "三次",
    "total_distance_km": 95.4,
    "latitude": 35.21403410487234,
    "longitude": 139.06108458627313
  },
  {
    "rank": 15,
    "team_name": "鹿児島大学",
    "team_short_name": "鹿大",
    "runner_name": "東市来",
    "total_distance_km": 92.8,
    "latitude": 35.21991226408704,
    "longitude": 139.07608841843006
  },
  {
    "rank": 16,
    "team_name": "鳥取大学",
    "team_short_name": "鳥取",
    "runner_name": "川本",
    "total_distance_km": 90.6,
    "latitude": 35.22722067480766,
    "longitude": 139.09713676471262
  },
  {
    "rank": 17,
    "team_name": "東北大学",
    "team_short_name": "東北",
    "runner_name": "帯広",
    "total_distance_km": 70.0,
    "latitude": 35.30388053375134,
    "longitude": 139.2910844890402
  },
  {
    "rank": 18,
    "team_name": "学連選抜",
    "team_short_name": "学連",
    "runner_name": "美幌",
    "total_distance_km": 66.3,
    "latitude": 35.3129688655958,
    "longitude": 139.32735715700144
  }
]