[
  {
    "rank": 1,
    "team_name": "名古屋大学",
    "team_short_name": "名大",
    "runner_name": "豊田（愛知）",
    "total_distance_km": 605.8,
    "latitude": 34.74967849867372,
    "longitude": 134.85803118940106,
    "is_shadow_confederation": false
  },
  {
    "rank": 2,
    "team_name": "四国大学",
    "team_short_name": "四国",
    "runner_name": "徳島",
    "total_distance_km": 598.4,
    "latitude": 34.70032298115723,
    "longitude": 134.91084667138452,
    "is_shadow_confederation": false
  },
  {
    "rank": 3,
    "team_name": "琉球大学",
    "team_short_name": "琉球",
    "runner_name": "久米島",
    "total_distance_km": 596.2,
    "latitude": 34.68870637713853,
    "longitude": 134.93026779893134,
    "is_shadow_confederation": false
  },
  {
    "rank": 4,
    "team_name": "熊本学園大学",
    "team_short_name": "熊学",
    "runner_name": "大分",
    "total_distance_km": 596.0,
    "latitude": 34.6877310697776,
    "longitude": 134.93210347055077,
    "is_shadow_confederation": false
  },
  {
    "rank": 5,
    "team_name": "立命館大学",
    "team_short_name": "立命",
    "runner_name": "彦根",
    "total_distance_km": 594.6,
    "latitude": 34.68069821874217,
    "longitude": 134.94478388855435,
    "is_shadow_confederation": false
  },
  {
    "rank": 6,
    "team_name": "福岡大学",
    "team_short_name": "福岡",
    "runner_name": "博多",
    "total_distance_km": 594.3,
    "latitude": 34.678737621216946,
    "longitude": 134.94699053315145,
    "is_shadow_confederation": false
  },
  {
    "rank": 7,
    "team_name": "広島経済大学",
    "team_short_name": "広経",
    "runner_name": "高松（香川）",
    "total_distance_km": 593.0,
    "latitude": 34.669914781004465,
    "longitude": 134.95620836858163,
    "is_shadow_confederation": false
  },
  {
    "rank": 7,
    "team_name": "関西大学",
    "team_short_name": "関大",
    "runner_name": "豊中",
    "total_distance_km": 593.0,
    "latitude": 34.669914781004465,
    "longitude": 134.95620836858163,
    "is_shadow_confederation": false
  },
  {
    "rank": 9,
    "team_name": "三重大学",
    "team_short_name": "三重",
    "runner_name": "新宮",
    "total_distance_km": 585.7,
    "latitude": 34.640745731679,
    "longitude": 135.02310646648334,
    "is_shadow_confederation": false
  },
  {
    "rank": 10,
    "team_name": "山梨学院大学",
    "team_short_name": "山学",
    "runner_name": "静岡",
    "total_distance_km": 585.2,
    "latitude": 34.638352749768046,
    "longitude": 135.02770860562424,
    "is_shadow_confederation": false
  },
  {
    "rank": 11,
    "team_name": "日本大学",
    "team_short_name": "日大",
    "runner_name": "八王子",
    "total_distance_km": 583.8,
    "latitude": 34.62944696454451,
    "longitude": 135.03822890637596,
    "is_shadow_confederation": false
  },
  {
    "rank": 12,
    "team_name": "鹿児島大学",
    "team_short_name": "鹿大",
    "runner_name": "笠利",
    "total_distance_km": 581.6,
    "latitude": 34.6286255806719,
    "longitude": 135.061902943265,
    "is_shadow_confederation": false
  },
  {
    "rank": 13,
    "team_name": "鳥取大学",
    "team_short_name": "鳥取",
    "runner_name": "松江",
    "total_distance_km": 580.5,
    "latitude": 34.63080395484039,
    "longitude": 135.07356868680048,
    "is_shadow_confederation": false
  },
  {
    "rank": 14,
    "team_name": "上武大学",
    "team_short_name": "上武",
    "runner_name": "伊勢崎",
    "total_distance_km": 575.5,
    "latitude": 34.64872834682649,
    "longitude": 135.12189659066405,
    "is_shadow_confederation": false
  },
  {
    "rank": 15,
    "team_name": "金沢大学",
    "team_short_name": "金沢",
    "runner_name": "富山",
    "total_distance_km": 573.2,
    "latitude": 34.66092687050183,
    "longitude": 135.14215059936643,
    "is_shadow_confederation": false
  },
  {
    "rank": 16,
    "team_name": "福島大学",
    "team_short_name": "福島",
    "runner_name": "浪江",
    "total_distance_km": 561.3,
    "latitude": 34.7155737254655,
    "longitude": 135.2498454752839,
    "is_shadow_confederation": false
  },
  {
    "rank": 17,
    "team_name": "学連選抜",
    "team_short_name": "学連",
    "runner_name": "久世",
    "total_distance_km": 537.0,
    "latitude": 34.69775832456483,
    "longitude": 135.49289404513343,
    "is_shadow_confederation": false
  },
  {
    "rank": 18,
    "team_name": "東北大学",
    "team_short_name": "東北",
    "runner_name": "一関",
    "total_distance_km": 509.7,
    "latitude": 34.84257655743519,
    "longitude": 135.69931151238302,
    "is_shadow_confederation": false
  },
  {
    "rank": null,
    "team_name": "区間記録連合",
    "team_short_name": "区間記録",
    "runner_name": "勝沼",
    "total_distance_km": 623.2,
    "latitude": 34.83112211152772,
    "longitude": 134.7027240532772,
    "is_shadow_confederation": true
  }
]