[
  {
    "rank": 1,
    "team_name": "琉球大学",
    "team_short_name": "琉球",
    "runner_name": "盛山",
    "total_distance_km": 310.8,
    "latitude": 34.902856985003815,
    "longitude": 137.23576796784374,
    "is_shadow_confederation": false
  },
  {
    "rank": 2,
    "team_name": "鹿児島大学",
    "team_short_name": "鹿大",
    "runner_name": "加久藤",
    "total_distance_km": 219.6,
    "latitude": 34.781757687432396,
    "longitude": 138.0401316182926,
    "is_shadow_confederation": false
  },
  {
    "rank": 3,
    "team_name": "熊本学園大学",
    "team_short_name": "熊学",
    "runner_name": "岱明",
    "total_distance_km": 217.1,
    "latitude": 34.7864436865987,
    "longitude": 138.06578408325996,
    "is_shadow_confederation": false
  },
  {
    "rank": 4,
    "team_name": "福岡大学",
    "team_short_name": "福岡",
    "runner_name": "福岡",
    "total_distance_km": 202.8,
    "latitude": 34.84625486131115,
    "longitude": 138.1688706506657,
    "is_shadow_confederation": false
  },
  {
    "rank": 5,
    "team_name": "日本大学",
    "team_short_name": "日大",
    "runner_name": "古河",
    "total_distance_km": 188.0,
    "latitude": 34.9186491722714,
    "longitude": 138.29151106166722,
    "is_shadow_confederation": false
  },
  {
    "rank": 6,
    "team_name": "上武大学",
    "team_short_name": "上武",
    "runner_name": "越谷",
    "total_distance_km": 186.7,
    "latitude": 34.925163612382796,
    "longitude": 138.30079832525894,
    "is_shadow_confederation": false
  },
  {
    "rank": 7,
    "team_name": "名古屋大学",
    "team_short_name": "名大",
    "runner_name": "美濃",
    "total_distance_km": 185.3,
    "latitude": 34.93622414926992,
    "longitude": 138.30771512544743,
    "is_shadow_confederation": false
  },
  {
    "rank": 8,
    "team_name": "四国大学",
    "team_short_name": "四国",
    "runner_name": "大三島",
    "total_distance_km": 178.6,
    "latitude": 34.95544434477485,
    "longitude": 138.36886519846894,
    "is_shadow_confederation": false
  },
  {
    "rank": 9,
    "team_name": "三重大学",
    "team_short_name": "三重",
    "runner_name": "五條",
    "total_distance_km": 171.4,
    "latitude": 34.99701523025205,
    "longitude": 138.42791881472658,
    "is_shadow_confederation": false
  },
  {
    "rank": 10,
    "team_name": "関西大学",
    "team_short_name": "関大",
    "runner_name": "和田山",
    "total_distance_km": 158.2,
    "latitude": 35.06189744510403,
    "longitude": 138.537571783017,
    "is_shadow_confederation": false
  },
  {
    "rank": 11,
    "team_name": "鳥取大学",
    "team_short_name": "鳥取",
    "runner_name": "鳥取",
    "total_distance_km": 156.2,
    "latitude": 35.07818107463482,
    "longitude": 138.54623585588647,
    "is_shadow_confederation": false
  },
  {
    "rank": 12,
    "team_name": "広島経済大学",
    "team_short_name": "広経",
    "runner_name": "加計",
    "total_distance_km": 155.8,
    "latitude": 35.081709075340385,
    "longitude": 138.54714027750686,
    "is_shadow_confederation": false
  },
  {
    "rank": 13,
    "team_name": "福島大学",
    "team_short_name": "福島",
    "runner_name": "石川",
    "total_distance_km": 149.7,
    "latitude": 35.11421080862656,
    "longitude": 138.59098954807033,
    "is_shadow_confederation": false
  },
  {
    "rank": 14,
    "team_name": "立命館大学",
    "team_short_name": "立命",
    "runner_name": "福知山",
    "total_distance_km": 147.4,
    "latitude": 35.115731332450665,
    "longitude": 138.61554327921073,
    "is_shadow_confederation": false
  },
  {
    "rank": 15,
    "team_name": "山梨学院大学",
    "team_short_name": "山学",
    "runner_name": "南信濃",
    "total_distance_km": 129.0,
    "latitude": 35.122774512271114,
    "longitude": 138.7972431251703,
    "is_shadow_confederation": false
  },
  {
    "rank": 16,
    "team_name": "金沢大学",
    "team_short_name": "金沢",
    "runner_name": "小浜",
    "total_distance_km": 123.4,
    "latitude": 35.100172664548246,
    "longitude": 138.85127102502616,
    "is_shadow_confederation": false
  },
  {
    "rank": 17,
    "team_name": "東北大学",
    "team_short_name": "東北",
    "runner_name": "帯広",
    "total_distance_km": 86.7,
    "latitude": 35.24647678388987,
    "longitude": 139.1312428097902,
    "is_shadow_confederation": false
  },
  {
    "rank": 18,
    "team_name": "学連選抜",
    "team_short_name": "学連",
    "runner_name": "美幌",
    "total_distance_km": 32.3,
    "latitude": 35.451635941182786,
    "longitude": 139.6065420483522,
    "is_shadow_confederation": false
  },
  {
    "rank": null,
    "team_name": "区間記録連合",
    "team_short_name": "区間記録",
    "runner_name": "伊勢崎",
    "total_distance_km": 310.8,
    "latitude": 34.902856985003815,
    "longitude": 137.23576796784374,
    "is_shadow_confederation": true
  }
]