[
  {
    "rank": 1,
    "team_name": "福岡大学",
    "team_short_name": "福岡",
    "runner_name": "久留米",
    "total_distance_km": 90.6,
    "latitude": 35.22722067480766,
    "longitude": 139.09713676471262,
    "is_shadow_confederation": false
  },
  {
    "rank": 2,
    "team_name": "立命館大学",
    "team_short_name": "立命",
    "runner_name": "東近江",
    "total_distance_km": 87.9,
    "latitude": 35.240216361533186,
    "longitude": 139.120491467237,
    "is_shadow_confederation": false
  },
  {
    "rank": 3,
    "team_name": "上武大学",
    "team_short_name": "上武",
    "runner_name": "佐野",
    "total_distance_km": 87.4,
    "latitude": 35.24282487084847,
    "longitude": 139.12497119330084,
    "is_shadow_confederation": false
  },
  {
    "rank": 4,
    "team_name": "熊本学園大学",
    "team_short_name": "熊学",
    "runner_name": "甲佐",
    "total_distance_km": 86.7,
    "latitude": 35.24647678388987,
    "longitude": 139.1312428097902,
    "is_shadow_confederation": false
  },
  {
    "rank": 5,
    "team_name": "日本大学",
    "team_short_name": "日大",
    "runner_name": "大子",
    "total_distance_km": 86.3,
    "latitude": 35.246455526097584,
    "longitude": 139.13545481046876,
    "is_shadow_confederation": false
  },
  {
    "rank": 6,
    "team_name": "福島大学",
    "team_short_name": "福島",
    "runner_name": "梁川",
    "total_distance_km": 85.5,
    "latitude": 35.24590760624969,
    "longitude": 139.14395892031368,
    "is_shadow_confederation": false
  },
  {
    "rank": 7,
    "team_name": "名古屋大学",
    "team_short_name": "名大",
    "runner_name": "美濃加茂",
    "total_distance_km": 85.1,
    "latitude": 35.24629116821468,
    "longitude": 139.14823145061976,
    "is_shadow_confederation": false
  },
  {
    "rank": 8,
    "team_name": "関西大学",
    "team_short_name": "関大",
    "runner_name": "福崎",
    "total_distance_km": 84.2,
    "latitude": 35.247730225978415,
    "longitude": 139.15792803583824,
    "is_shadow_confederation": false
  },
  {
    "rank": 9,
    "team_name": "鹿児島大学",
    "team_short_name": "鹿大",
    "runner_name": "東市来",
    "total_distance_km": 83.9,
    "latitude": 35.24888011379938,
    "longitude": 139.16089684075212,
    "is_shadow_confederation": false
  },
  {
    "rank": 10,
    "team_name": "鳥取大学",
    "team_short_name": "鳥取",
    "runner_name": "川本",
    "total_distance_km": 83.7,
    "latitude": 35.25026288695184,
    "longitude": 139.16175505254023,
    "is_shadow_confederation": false
  },
  {
    "rank": 11,
    "team_name": "金沢大学",
    "team_short_name": "金沢",
    "runner_name": "秋ヶ島",
    "total_distance_km": 81.9,
    "latitude": 35.25945326044952,
    "longitude": 139.17715931042144,
    "is_shadow_confederation": false
  },
  {
    "rank": 12,
    "team_name": "四国大学",
    "team_short_name": "四国",
    "runner_name": "穴吹",
    "total_distance_km": 81.4,
    "latitude": 35.26276062620402,
    "longitude": 139.1808842980535,
    "is_shadow_confederation": false
  },
  {
    "rank": 12,
    "team_name": "琉球大学",
    "team_short_name": "琉球",
    "runner_name": "北原",
    "total_distance_km": 81.4,
    "latitude": 35.26276062620402,
    "longitude": 139.1808842980535,
    "is_shadow_confederation": false
  },
  {
    "rank": 14,
    "team_name": "広島経済大学",
    "team_short_name": "広経",
    "runner_name": "三次",
    "total_distance_km": 81.3,
    "latitude": 35.263438886308215,
    "longitude": 139.18160806188507,
    "is_shadow_confederation": false
  },
  {
    "rank": 15,
    "team_name": "三重大学",
    "team_short_name": "三重",
    "runner_name": "粥見",
    "total_distance_km": 78.1,
    "latitude": 35.279633093456454,
    "longitude": 139.2093321700144,
    "is_shadow_confederation": false
  },
  {
    "rank": 16,
    "team_name": "山梨学院大学",
    "team_short_name": "山学",
    "runner_name": "長野",
    "total_distance_km": 77.8,
    "latitude": 35.28017483214552,
    "longitude": 139.2125628909993,
    "is_shadow_confederation": false
  },
  {
    "rank": 17,
    "team_name": "東北大学",
    "team_short_name": "東北",
    "runner_name": "帯広",
    "total_distance_km": 46.0,
    "latitude": 35.379938140266866,
    "longitude": 139.51045378541016,
    "is_shadow_confederation": false
  },
  {
    "rank": 18,
    "team_name": "学連選抜",
    "team_short_name": "学連",
    "runner_name": "美幌",
    "total_distance_km": 38.2,
    "latitude": 35.42298095876863,
    "longitude": 139.56564456564277,
    "is_shadow_confederation": false
  }
]