[
  {
    "rank": 1,
    "team_name": "琉球大学",
    "team_short_name": "琉球",
    "runner_name": "仲筋",
    "total_distance_km": 192.2,
    "latitude": 34.89227922444731,
    "longitude": 138.2636355173624,
    "is_shadow_confederation": false
  },
  {
    "rank": 2,
    "team_name": "熊本学園大学",
    "team_short_name": "熊学",
    "runner_name": "岱明",
    "total_distance_km": 187.3,
    "latitude": 34.92358738916478,
    "longitude": 138.29459415058577,
    "is_shadow_confederation": false
  },
  {
    "rank": 3,
    "team_name": "鹿児島大学",
    "team_short_name": "鹿大",
    "runner_name": "川内（鹿児島）",
    "total_distance_km": 180.5,
    "latitude": 34.9484910985389,
    "longitude": 138.35145180217847,
    "is_shadow_confederation": false
  },
  {
    "rank": 4,
    "team_name": "福岡大学",
    "team_short_name": "福岡",
    "runner_name": "福岡",
    "total_distance_km": 179.0,
    "latitude": 34.952817879876314,
    "longitude": 138.3659083590076,
    "is_shadow_confederation": false
  },
  {
    "rank": 5,
    "team_name": "四国大学",
    "team_short_name": "四国",
    "runner_name": "大三島",
    "total_distance_km": 164.3,
    "latitude": 35.029089120471305,
    "longitude": 138.48841080599067,
    "is_shadow_confederation": false
  },
  {
    "rank": 6,
    "team_name": "関西大学",
    "team_short_name": "関大",
    "runner_name": "和田山",
    "total_distance_km": 158.0,
    "latitude": 35.0632730225979,
    "longitude": 138.53898889400102,
    "is_shadow_confederation": false
  },
  {
    "rank": 7,
    "team_name": "鳥取大学",
    "team_short_name": "鳥取",
    "runner_name": "鳥取",
    "total_distance_km": 157.3,
    "latitude": 35.06905260569127,
    "longitude": 138.54184673469211,
    "is_shadow_confederation": false
  },
  {
    "rank": 8,
    "team_name": "広島経済大学",
    "team_short_name": "広経",
    "runner_name": "加計",
    "total_distance_km": 156.0,
    "latitude": 35.079945074987606,
    "longitude": 138.54668806669667,
    "is_shadow_confederation": false
  },
  {
    "rank": 9,
    "team_name": "立命館大学",
    "team_short_name": "立命",
    "runner_name": "福知山",
    "total_distance_km": 152.8,
    "latitude": 35.10619716646251,
    "longitude": 138.5592172495859,
    "is_shadow_confederation": false
  },
  {
    "rank": 10,
    "team_name": "三重大学",
    "team_short_name": "三重",
    "runner_name": "五條",
    "total_distance_km": 152.6,
    "latitude": 35.106972336598126,
    "longitude": 138.5611978428736,
    "is_shadow_confederation": false
  },
  {
    "rank": 11,
    "team_name": "名古屋大学",
    "team_short_name": "名大",
    "runner_name": "美濃",
    "total_distance_km": 148.5,
    "latitude": 35.11619204792689,
    "longitude": 138.60348951932878,
    "is_shadow_confederation": false
  },
  {
    "rank": 12,
    "team_name": "金沢大学",
    "team_short_name": "金沢",
    "runner_name": "小浜",
    "total_distance_km": 144.5,
    "latitude": 35.129553053310595,
    "longitude": 138.6365636916084,
    "is_shadow_confederation": false
  },
  {
    "rank": 13,
    "team_name": "上武大学",
    "team_short_name": "上武",
    "runner_name": "越谷",
    "total_distance_km": 134.4,
    "latitude": 35.136373608218825,
    "longitude": 138.7404611359154,
    "is_shadow_confederation": false
  },
  {
    "rank": 14,
    "team_name": "山梨学院大学",
    "team_short_name": "山学",
    "runner_name": "南信濃",
    "total_distance_km": 128.7,
    "latitude": 35.12185341728381,
    "longitude": 138.8003292586762,
    "is_shadow_confederation": false
  },
  {
    "rank": 15,
    "team_name": "日本大学",
    "team_short_name": "日大",
    "runner_name": "古河",
    "total_distance_km": 128.6,
    "latitude": 35.121453119685334,
    "longitude": 138.80131215094784,
    "is_shadow_confederation": false
  },
  {
    "rank": 16,
    "team_name": "福島大学",
    "team_short_name": "福島",
    "runner_name": "石川",
    "total_distance_km": 119.9,
    "latitude": 35.105329315888035,
    "longitude": 138.8878332441501,
    "is_shadow_confederation": false
  },
  {
    "rank": 17,
    "team_name": "東北大学",
    "team_short_name": "東北",
    "runner_name": "帯広",
    "total_distance_km": 89.2,
    "latitude": 35.23194715722724,
    "longitude": 139.11106568054595,
    "is_shadow_confederation": false
  },
  {
    "rank": 18,
    "team_name": "学連選抜",
    "team_short_name": "学連",
    "runner_name": "美幌",
    "total_distance_km": 80.7,
    "latitude": 35.26605991084717,
    "longitude": 139.187213543594,
    "is_shadow_confederation": false
  }
]