[
  {
    "rank": 1,
    "team_name": "琉球大学",
    "team_short_name": "琉球",
    "runner_name": "盛山",
    "total_distance_km": 311.5,
    "latitude": 34.90737013011827,
    "longitude": 137.2306860462694,
    "is_shadow_confederation": false
  },
  {
    "rank": 2,
    "team_name": "鹿児島大学",
    "team_short_name": "鹿大",
    "runner_name": "加久藤",
    "total_distance_km": 227.6,
    "latitude": 34.76308976390547,
    "longitude": 137.96007005403206,
    "is_shadow_confederation": false
  },
  {
    "rank": 3,
    "team_name": "熊本学園大学",
    "team_short_name": "熊学",
    "runner_name": "岱明",
    "total_distance_km": 221.0,
    "latitude": 34.77777575117265,
    "longitude": 138.02587909353568,
    "is_shadow_confederation": false
  },
  {
    "rank": 4,
    "team_name": "福岡大学",
    "team_short_name": "福岡",
    "runner_name": "福岡",
    "total_distance_km": 207.1,
    "latitude": 34.83759320589407,
    "longitude": 138.12413506682975,
    "is_shadow_confederation": false
  },
  {
    "rank": 5,
    "team_name": "名古屋大学",
    "team_short_name": "名大",
    "runner_name": "美濃",
    "total_distance_km": 190.5,
    "latitude": 34.899115980759014,
    "longitude": 138.27988363712612,
    "is_shadow_confederation": false
  },
  {
    "rank": 6,
    "team_name": "日本大学",
    "team_short_name": "日大",
    "runner_name": "古河",
    "total_distance_km": 188.0,
    "latitude": 34.9186491722714,
    "longitude": 138.29151106166722,
    "is_shadow_confederation": false
  },
  {
    "rank": 7,
    "team_name": "上武大学",
    "team_short_name": "上武",
    "runner_name": "越谷",
    "total_distance_km": 186.7,
    "latitude": 34.925163612382796,
    "longitude": 138.30079832525894,
    "is_shadow_confederation": false
  },
  {
    "rank": 8,
    "team_name": "四国大学",
    "team_short_name": "四国",
    "runner_name": "大三島",
    "total_distance_km": 182.9,
    "latitude": 34.945485380957905,
    "longitude": 138.32989860696094,
    "is_shadow_confederation": false
  },
  {
    "rank": 9,
    "team_name": "三重大学",
    "team_short_name": "三重",
    "runner_name": "五條",
    "total_distance_km": 179.8,
    "latitude": 34.948803624513694,
    "longitude": 138.35863266288246,
    "is_shadow_confederation": false
  },
  {
    "rank": 10,
    "team_name": "鳥取大学",
    "team_short_name": "鳥取",
    "runner_name": "鳥取",
    "total_distance_km": 164.6,
    "latitude": 35.026460078101216,
    "longitude": 138.48764144969599,
    "is_shadow_confederation": false
  },
  {
    "rank": 11,
    "team_name": "関西大学",
    "team_short_name": "関大",
    "runner_name": "和田山",
    "total_distance_km": 160.4,
    "latitude": 35.04945229043055,
    "longitude": 138.51909962135397,
    "is_shadow_confederation": false
  },
  {
    "rank": 12,
    "team_name": "広島経済大学",
    "team_short_name": "広経",
    "runner_name": "加計",
    "total_distance_km": 160.0,
    "latitude": 35.05131968663845,
    "longitude": 138.5228500995638,
    "is_shadow_confederation": false
  },
  {
    "rank": 13,
    "team_name": "福島大学",
    "team_short_name": "福島",
    "runner_name": "石川",
    "total_distance_km": 151.6,
    "latitude": 35.110848187276225,
    "longitude": 138.57110080931207,
    "is_shadow_confederation": false
  },
  {
    "rank": 14,
    "team_name": "立命館大学",
    "team_short_name": "立命",
    "runner_name": "福知山",
    "total_distance_km": 148.9,
    "latitude": 35.11602522713381,
    "longitude": 138.59945268834434,
    "is_shadow_confederation": false
  },
  {
    "rank": 15,
    "team_name": "山梨学院大学",
    "team_short_name": "山学",
    "runner_name": "南信濃",
    "total_distance_km": 133.4,
    "latitude": 35.13397038562014,
    "longitude": 138.75103266601846,
    "is_shadow_confederation": false
  },
  {
    "rank": 16,
    "team_name": "金沢大学",
    "team_short_name": "金沢",
    "runner_name": "小浜",
    "total_distance_km": 127.9,
    "latitude": 35.11865103649603,
    "longitude": 138.8081923968494,
    "is_shadow_confederation": false
  },
  {
    "rank": 17,
    "team_name": "東北大学",
    "team_short_name": "東北",
    "runner_name": "帯広",
    "total_distance_km": 90.6,
    "latitude": 35.22722067480766,
    "longitude": 139.09713676471262,
    "is_shadow_confederation": false
  },
  {
    "rank": 18,
    "team_name": "学連選抜",
    "team_short_name": "学連",
    "runner_name": "美幌",
    "total_distance_km": 34.7,
    "latitude": 35.445163097485555,
    "longitude": 139.58441055529735,
    "is_shadow_confederation": false
  },
  {
    "rank": null,
    "team_name": "区間記録連合",
    "team_short_name": "区間記録",
    "runner_name": "伊勢崎",
    "total_distance_km": 311.5,
    "latitude": 34.90737013011827,
    "longitude": 137.2306860462694,
    "is_shadow_confederation": true
  }
]