[
  {
    "rank": 1,
    "team_name": "琉球大学",
    "team_short_name": "琉球",
    "runner_name": "那覇",
    "total_distance_km": 666.5,
    "latitude": 34.81193985533622,
    "longitude": 134.28501652077264,
    "is_shadow_confederation": false
  },
  {
    "rank": 2,
    "team_name": "鹿児島大学",
    "team_short_name": "鹿大",
    "runner_name": "笠利",
    "total_distance_km": 573.5,
    "latitude": 34.659211777280944,
    "longitude": 135.13962009099762,
    "is_shadow_confederation": false
  },
  {
    "rank": 3,
    "team_name": "熊本学園大学",
    "team_short_name": "熊学",
    "runner_name": "大分",
    "total_distance_km": 571.4,
    "latitude": 34.66908749766901,
    "longitude": 135.15848383661572,
    "is_shadow_confederation": false
  },
  {
    "rank": 4,
    "team_name": "福岡大学",
    "team_short_name": "福岡",
    "runner_name": "博多",
    "total_distance_km": 540.5,
    "latitude": 34.705881521573545,
    "longitude": 135.46244216331309,
    "is_shadow_confederation": false
  },
  {
    "rank": 5,
    "team_name": "四国大学",
    "team_short_name": "四国",
    "runner_name": "大洲",
    "total_distance_km": 518.2,
    "latitude": 34.79831554683998,
    "longitude": 135.62798807062953,
    "is_shadow_confederation": false
  },
  {
    "rank": 6,
    "team_name": "広島経済大学",
    "team_short_name": "広経",
    "runner_name": "高梁",
    "total_distance_km": 497.9,
    "latitude": 34.935169340742476,
    "longitude": 135.74504889758262,
    "is_shadow_confederation": false
  },
  {
    "rank": 7,
    "team_name": "名古屋大学",
    "team_short_name": "名大",
    "runner_name": "多治見",
    "total_distance_km": 489.7,
    "latitude": 34.99592924004056,
    "longitude": 135.76076099528686,
    "is_shadow_confederation": false
  },
  {
    "rank": 8,
    "team_name": "鳥取大学",
    "team_short_name": "鳥取",
    "runner_name": "境",
    "total_distance_km": 488.2,
    "latitude": 35.00441012745815,
    "longitude": 135.76911286044637,
    "is_shadow_confederation": false
  },
  {
    "rank": 9,
    "team_name": "関西大学",
    "team_short_name": "関大",
    "runner_name": "枚方",
    "total_distance_km": 485.7,
    "latitude": 35.00803629977705,
    "longitude": 135.7901142035554,
    "is_shadow_confederation": false
  },
  {
    "rank": 10,
    "team_name": "立命館大学",
    "team_short_name": "立命",
    "runner_name": "舞鶴",
    "total_distance_km": 475.7,
    "latitude": 35.00029867293214,
    "longitude": 135.8774276225255,
    "is_shadow_confederation": false
  },
  {
    "rank": 11,
    "team_name": "三重大学",
    "team_short_name": "三重",
    "runner_name": "奈良",
    "total_distance_km": 469.9,
    "latitude": 34.98436494194246,
    "longitude": 135.92401011647556,
    "is_shadow_confederation": false
  },
  {
    "rank": 12,
    "team_name": "日本大学",
    "team_short_name": "日大",
    "runner_name": "牛久",
    "total_distance_km": 464.3,
    "latitude": 35.0181956973088,
    "longitude": 135.96895390985472,
    "is_shadow_confederation": false
  },
  {
    "rank": 13,
    "team_name": "上武大学",
    "team_short_name": "上武",
    "runner_name": "桐生",
    "total_distance_km": 458.1,
    "latitude": 35.027601150353654,
    "longitude": 136.03215088801525,
    "is_shadow_confederation": false
  },
  {
    "rank": 14,
    "team_name": "金沢大学",
    "team_short_name": "金沢",
    "runner_name": "福井",
    "total_distance_km": 451.6,
    "latitude": 34.99775578447453,
    "longitude": 136.093127601977,
    "is_shadow_confederation": false
  },
  {
    "rank": 15,
    "team_name": "山梨学院大学",
    "team_short_name": "山学",
    "runner_name": "甲府",
    "total_distance_km": 436.0,
    "latitude": 34.944590899309375,
    "longitude": 136.24419082769433,
    "is_shadow_confederation": false
  },
  {
    "rank": 16,
    "team_name": "福島大学",
    "team_short_name": "福島",
    "runner_name": "長岡",
    "total_distance_km": 398.7,
    "latitude": 34.90326961135683,
    "longitude": 136.54883725238543,
    "is_shadow_confederation": false
  },
  {
    "rank": 17,
    "team_name": "学連選抜",
    "team_short_name": "学連",
    "runner_name": "上",
    "total_distance_km": 389.7,
    "latitude": 34.95484629128762,
    "longitude": 136.6134645972419,
    "is_shadow_confederation": false
  },
  {
    "rank": 18,
    "team_name": "東北大学",
    "team_short_name": "東北",
    "runner_name": "大館",
    "total_distance_km": 333.9,
    "latitude": 35.01753834819487,
    "longitude": 137.03530323183537,
    "is_shadow_confederation": false
  }
]