[
  {
    "rank": 1,
    "team_name": "琉球大学",
    "team_short_name": "琉球",
    "runner_name": "北原",
    "total_distance_km": 61.3,
    "latitude": 35.31840766115093,
    "longitude": 139.38025827038527,
    "is_shadow_confederation": false
  },
  {
    "rank": 2,
    "team_name": "熊本学園大学",
    "team_short_name": "熊学",
    "runner_name": "甲佐",
    "total_distance_km": 58.5,
    "latitude": 35.31845747028835,
    "longitude": 139.41039736388615,
    "is_shadow_confederation": false
  },
  {
    "rank": 3,
    "team_name": "福岡大学",
    "team_short_name": "福岡",
    "runner_name": "久留米",
    "total_distance_km": 57.3,
    "latitude": 35.31912567047649,
    "longitude": 139.42333808026854,
    "is_shadow_confederation": false
  },
  {
    "rank": 4,
    "team_name": "鹿児島大学",
    "team_short_name": "鹿大",
    "runner_name": "東市来",
    "total_distance_km": 56.9,
    "latitude": 35.319801287187786,
    "longitude": 139.42764559828524,
    "is_shadow_confederation": false
  },
  {
    "rank": 5,
    "team_name": "四国大学",
    "team_short_name": "四国",
    "runner_name": "穴吹",
    "total_distance_km": 53.6,
    "latitude": 35.33120700084837,
    "longitude": 139.45987322543345,
    "is_shadow_confederation": false
  },
  {
    "rank": 6,
    "team_name": "名古屋大学",
    "team_short_name": "名大",
    "runner_name": "美濃加茂",
    "total_distance_km": 52.5,
    "latitude": 35.334682839917576,
    "longitude": 139.470414907979,
    "is_shadow_confederation": false
  },
  {
    "rank": 7,
    "team_name": "三重大学",
    "team_short_name": "三重",
    "runner_name": "粥見",
    "total_distance_km": 52.0,
    "latitude": 35.33663719836943,
    "longitude": 139.4749651753383,
    "is_shadow_confederation": false
  },
  {
    "rank": 8,
    "team_name": "関西大学",
    "team_short_name": "関大",
    "runner_name": "福崎",
    "total_distance_km": 51.3,
    "latitude": 35.34114500542535,
    "longitude": 139.4798272104907,
    "is_shadow_confederation": false
  },
  {
    "rank": 9,
    "team_name": "立命館大学",
    "team_short_name": "立命",
    "runner_name": "東近江",
    "total_distance_km": 49.7,
    "latitude": 35.35166541258049,
    "longitude": 139.4907816414275,
    "is_shadow_confederation": false
  },
  {
    "rank": 10,
    "team_name": "広島経済大学",
    "team_short_name": "広経",
    "runner_name": "三次",
    "total_distance_km": 49.4,
    "latitude": 35.35425064417051,
    "longitude": 139.4915961415979,
    "is_shadow_confederation": false
  },
  {
    "rank": 11,
    "team_name": "鳥取大学",
    "team_short_name": "鳥取",
    "runner_name": "川本",
    "total_distance_km": 48.3,
    "latitude": 35.36317696959264,
    "longitude": 139.49667912837572,
    "is_shadow_confederation": false
  },
  {
    "rank": 12,
    "team_name": "上武大学",
    "team_short_name": "上武",
    "runner_name": "佐野",
    "total_distance_km": 46.2,
    "latitude": 35.37896416651401,
    "longitude": 139.5086016470006,
    "is_shadow_confederation": false
  },
  {
    "rank": 13,
    "team_name": "日本大学",
    "team_short_name": "日大",
    "runner_name": "大子",
    "total_distance_km": 44.3,
    "latitude": 35.39109091968886,
    "longitude": 139.52239033136462,
    "is_shadow_confederation": false
  },
  {
    "rank": 14,
    "team_name": "金沢大学",
    "team_short_name": "金沢",
    "runner_name": "秋ヶ島",
    "total_distance_km": 42.1,
    "latitude": 35.40884395139994,
    "longitude": 139.52996602014707,
    "is_shadow_confederation": false
  },
  {
    "rank": 15,
    "team_name": "福島大学",
    "team_short_name": "福島",
    "runner_name": "梁川",
    "total_distance_km": 40.1,
    "latitude": 35.41770230606101,
    "longitude": 139.54751009532743,
    "is_shadow_confederation": false
  },
  {
    "rank": 16,
    "team_name": "山梨学院大学",
    "team_short_name": "山学",
    "runner_name": "長野",
    "total_distance_km": 37.7,
    "latitude": 35.42594748599383,
    "longitude": 139.5696632179098,
    "is_shadow_confederation": false
  },
  {
    "rank": 17,
    "team_name": "東北大学",
    "team_short_name": "東北",
    "runner_name": "帯広",
    "total_distance_km": 25.3,
    "latitude": 35.48956673393515,
    "longitude": 139.66056402438932,
    "is_shadow_confederation": false
  },
  {
    "rank": 18,
    "team_name": "学連選抜",
    "team_short_name": "学連",
    "runner_name": "美幌",
    "total_distance_km": 20.3,
    "latitude": 35.52327898929907,
    "longitude": 139.69594599101717,
    "is_shadow_confederation": false
  }
]