[
  {
    "rank": 1,
    "team_name": "名古屋大学",
    "team_short_name": "名大",
    "runner_name": "大垣",
    "total_distance_km": 273.7,
    "latitude": 34.68236064117913,
    "longitude": 137.5080085198284
  },
  {
    "rank": 2,
    "team_name": "関西大学",
    "team_short_name": "関大",
    "runner_name": "上郡",
    "total_distance_km": 271.8,
    "latitude": 34.67965862870543,
    "longitude": 137.5240178978006
  },
  {
    "rank": 3,
    "team_name": "立命館大学",
    "team_short_name": "立命",
    "runner_name": "京田辺",
    "total_distance_km": 269.3,
    "latitude": 34.684850032756664,
    "longitude": 137.5504071033986
  },
  {
    "rank": 4,
    "team_name": "四国大学",
    "team_short_name": "四国",
    "runner_name": "御荘",
    "total_distance_km": 268.3,
    "latitude": 34.6880260882182,
    "longitude": 137.56062018083105
  },
  {
    "rank": 5,
    "team_name": "熊本学園大学",
    "team_short_name": "熊学",
    "runner_name": "八代",
    "total_distance_km": 267.8,
    "latitude": 34.691280477976605,
    "longitude": 137.56409260205066
  },
  {
    "rank": 6,
    "team_name": "福岡大学",
    "team_short_name": "福岡",
    "runner_name": "黒木",
    "total_distance_km": 265.6,
    "latitude": 34.693746354608336,
    "longitude": 137.5865720016314
  },
  {
    "rank": 7,
    "team_name": "広島経済大学",
    "team_short_name": "広経",
    "runner_name": "府中（広島）",
    "total_distance_km": 265.0,
    "latitude": 34.69336847261998,
    "longitude": 137.59299375863728
  },
  {
    "rank": 8,
    "team_name": "金沢大学",
    "team_short_name": "金沢",
    "runner_name": "七尾",
    "total_distance_km": 264.7,
    "latitude": 34.69250510194319,
    "longitude": 137.59609567083476
  },
  {
    "rank": 9,
    "team_name": "上武大学",
    "team_short_name": "上武",
    "runner_name": "熊谷",
    "total_distance_km": 264.6,
    "latitude": 34.69204753721398,
    "longitude": 137.59703597579409
  },
  {
    "rank": 10,
    "team_name": "三重大学",
    "team_short_name": "三重",
    "runner_name": "小俣",
    "total_distance_km": 264.3,
    "latitude": 34.69086545212021,
    "longitude": 137.59995394847357
  },
  {
    "rank": 11,
    "team_name": "日本大学",
    "team_short_name": "日大",
    "runner_name": "下館",
    "total_distance_km": 262.9,
    "latitude": 34.68553330936327,
    "longitude": 137.61376190319925
  },
  {
    "rank": 12,
    "team_name": "鳥取大学",
    "team_short_name": "鳥取",
    "runner_name": "広瀬",
    "total_distance_km": 262.6,
    "latitude": 34.68449686797097,
    "longitude": 137.61678572199898
  },
  {
    "rank": 13,
    "team_name": "琉球大学",
    "team_short_name": "琉球",
    "runner_name": "盛山",
    "total_distance_km": 256.7,
    "latitude": 34.687920459568346,
    "longitude": 137.6802879514633
  },
  {
    "rank": 14,
    "team_name": "鹿児島大学",
    "team_short_name": "鹿大",
    "runner_name": "加久藤",
    "total_distance_km": 253.3,
    "latitude": 34.69098748966562,
    "longitude": 137.71579984753674
  },
  {
    "rank": 15,
    "team_name": "山梨学院大学",
    "team_short_name": "山学",
    "runner_name": "大月",
    "total_distance_km": 252.2,
    "latitude": 34.69726076911353,
    "longitude": 137.72479258980303
  },
  {
    "rank": 16,
    "team_name": "福島大学",
    "team_short_name": "福島",
    "runner_name": "津川",
    "total_distance_km": 235.5,
    "latitude": 34.73595689442722,
    "longitude": 137.88133108417978
  },
  {
    "rank": 17,
    "team_name": "学連選抜",
    "team_short_name": "学連",
    "runner_name": "新潟",
    "total_distance_km": 203.8,
    "latitude": 34.84587975347385,
    "longitude": 138.15812546562722
  },
  {
    "rank": 18,
    "team_name": "東北大学",
    "team_short_name": "東北",
    "runner_name": "山形（山形）",
    "total_distance_km": 188.5,
    "latitude": 34.914313883844045,
    "longitude": 138.2900271222275
  }
]