[
  {
    "rank": 1,
    "team_name": "琉球大学",
    "team_short_name": "琉球",
    "runner_name": "西表島",
    "total_distance_km": 764.3,
    "latitude": 34.487012313763856,
    "longitude": 133.37169032580948,
    "is_shadow_confederation": false
  },
  {
    "rank": 2,
    "team_name": "名古屋大学",
    "team_short_name": "名大",
    "runner_name": "大府",
    "total_distance_km": 754.3,
    "latitude": 34.50822679650035,
    "longitude": 133.47003750766282,
    "is_shadow_confederation": false
  },
  {
    "rank": 3,
    "team_name": "福岡大学",
    "team_short_name": "福岡",
    "runner_name": "大牟田",
    "total_distance_km": 752.0,
    "latitude": 34.50665708696333,
    "longitude": 133.49290417740778,
    "is_shadow_confederation": false
  },
  {
    "rank": 4,
    "team_name": "四国大学",
    "team_short_name": "四国",
    "runner_name": "江川崎",
    "total_distance_km": 748.0,
    "latitude": 34.49932403184722,
    "longitude": 133.53200783666935,
    "is_shadow_confederation": false
  },
  {
    "rank": 5,
    "team_name": "関西大学",
    "team_short_name": "関大",
    "runner_name": "郡家",
    "total_distance_km": 747.7,
    "latitude": 34.499758674807296,
    "longitude": 133.5352318914977,
    "is_shadow_confederation": false
  },
  {
    "rank": 6,
    "team_name": "鹿児島大学",
    "team_short_name": "鹿大",
    "runner_name": "さつま柏原",
    "total_distance_km": 745.6,
    "latitude": 34.50885448357695,
    "longitude": 133.554154183146,
    "is_shadow_confederation": false
  },
  {
    "rank": 7,
    "team_name": "広島経済大学",
    "team_short_name": "広経",
    "runner_name": "引田",
    "total_distance_km": 742.2,
    "latitude": 34.52555735357577,
    "longitude": 133.5851619688353,
    "is_shadow_confederation": false
  },
  {
    "rank": 8,
    "team_name": "熊本学園大学",
    "team_short_name": "熊学",
    "runner_name": "三角",
    "total_distance_km": 741.9,
    "latitude": 34.52675215428499,
    "longitude": 133.5880925640164,
    "is_shadow_confederation": false
  },
  {
    "rank": 9,
    "team_name": "立命館大学",
    "team_short_name": "立命",
    "runner_name": "京都",
    "total_distance_km": 739.2,
    "latitude": 34.536150335785024,
    "longitude": 133.6147316655958,
    "is_shadow_confederation": false
  },
  {
    "rank": 10,
    "team_name": "三重大学",
    "team_short_name": "三重",
    "runner_name": "津",
    "total_distance_km": 731.8,
    "latitude": 34.56233284984977,
    "longitude": 133.68425343992138,
    "is_shadow_confederation": false
  },
  {
    "rank": 11,
    "team_name": "山梨学院大学",
    "team_short_name": "山学",
    "runner_name": "三島",
    "total_distance_km": 730.4,
    "latitude": 34.5712116229073,
    "longitude": 133.69507153199362,
    "is_shadow_confederation": false
  },
  {
    "rank": 12,
    "team_name": "日本大学",
    "team_short_name": "日大",
    "runner_name": "練馬",
    "total_distance_km": 723.6,
    "latitude": 34.59466892165034,
    "longitude": 133.75822631316657,
    "is_shadow_confederation": false
  },
  {
    "rank": 13,
    "team_name": "鳥取大学",
    "team_short_name": "鳥取",
    "runner_name": "米子",
    "total_distance_km": 721.0,
    "latitude": 34.6101304111301,
    "longitude": 133.77952354074029,
    "is_shadow_confederation": false
  },
  {
    "rank": 14,
    "team_name": "上武大学",
    "team_short_name": "上武",
    "runner_name": "小山",
    "total_distance_km": 712.6,
    "latitude": 34.64606327101317,
    "longitude": 133.85591659056334,
    "is_shadow_confederation": false
  },
  {
    "rank": 15,
    "team_name": "金沢大学",
    "team_short_name": "金沢",
    "runner_name": "敦賀",
    "total_distance_km": 711.6,
    "latitude": 34.64505182967872,
    "longitude": 133.86559171142056,
    "is_shadow_confederation": false
  },
  {
    "rank": 16,
    "team_name": "福島大学",
    "team_short_name": "福島",
    "runner_name": "寺泊",
    "total_distance_km": 694.5,
    "latitude": 34.70192050022162,
    "longitude": 134.0299778289686,
    "is_shadow_confederation": false
  },
  {
    "rank": 17,
    "team_name": "学連選抜",
    "team_short_name": "学連",
    "runner_name": "加世田",
    "total_distance_km": 687.1,
    "latitude": 34.7206369730738,
    "longitude": 134.10104101243522,
    "is_shadow_confederation": false
  },
  {
    "rank": 18,
    "team_name": "東北大学",
    "team_short_name": "東北",
    "runner_name": "丸森",
    "total_distance_km": 635.1,
    "latitude": 34.83306286832256,
    "longitude": 134.58996472301868,
    "is_shadow_confederation": false
  },
  {
    "rank": null,
    "team_name": "区間記録連合",
    "team_short_name": "区間記録",
    "runner_name": "西脇",
    "total_distance_km": 803.8,
    "latitude": 34.39859035271189,
    "longitude": 133.0239581239643,
    "is_shadow_confederation": true
  }
]