[
  {
    "rank": 1,
    "team_name": "琉球大学",
    "team_short_name": "琉球",
    "runner_name": "大原",
    "total_distance_km": 907.0,
    "latitude": 34.17061355736739,
    "longitude": 132.20734426571258,
    "is_shadow_confederation": false
  },
  {
    "rank": 2,
    "team_name": "鹿児島大学",
    "team_short_name": "鹿大",
    "runner_name": "鹿児島",
    "total_distance_km": 736.7,
    "latitude": 34.53875633820124,
    "longitude": 133.64142979836978,
    "is_shadow_confederation": false
  },
  {
    "rank": 3,
    "team_name": "熊本学園大学",
    "team_short_name": "熊学",
    "runner_name": "犬飼",
    "total_distance_km": 710.2,
    "latitude": 34.648392301801145,
    "longitude": 133.88015074755694,
    "is_shadow_confederation": false
  },
  {
    "rank": 4,
    "team_name": "福岡大学",
    "team_short_name": "福岡",
    "runner_name": "口之津",
    "total_distance_km": 680.2,
    "latitude": 34.74118357610396,
    "longitude": 134.17051856966225,
    "is_shadow_confederation": false
  },
  {
    "rank": 5,
    "team_name": "四国大学",
    "team_short_name": "四国",
    "runner_name": "徳島",
    "total_distance_km": 645.5,
    "latitude": 34.81836565902159,
    "longitude": 134.4796152042026,
    "is_shadow_confederation": false
  },
  {
    "rank": 6,
    "team_name": "名古屋大学",
    "team_short_name": "名大",
    "runner_name": "豊田（愛知）",
    "total_distance_km": 642.0,
    "latitude": 34.82508455698415,
    "longitude": 134.51613313141885,
    "is_shadow_confederation": false
  },
  {
    "rank": 7,
    "team_name": "日本大学",
    "team_short_name": "日大",
    "runner_name": "八王子",
    "total_distance_km": 615.9,
    "latitude": 34.79635921707115,
    "longitude": 134.7686117371518,
    "is_shadow_confederation": false
  },
  {
    "rank": 8,
    "team_name": "上武大学",
    "team_short_name": "上武",
    "runner_name": "伊勢崎",
    "total_distance_km": 614.2,
    "latitude": 34.794372845991624,
    "longitude": 134.78664639623807,
    "is_shadow_confederation": false
  },
  {
    "rank": 9,
    "team_name": "広島経済大学",
    "team_short_name": "広経",
    "runner_name": "高松（香川）",
    "total_distance_km": 607.2,
    "latitude": 34.758175694722766,
    "longitude": 134.84676090214862,
    "is_shadow_confederation": false
  },
  {
    "rank": 10,
    "team_name": "三重大学",
    "team_short_name": "三重",
    "runner_name": "新宮",
    "total_distance_km": 605.3,
    "latitude": 34.74678146010011,
    "longitude": 134.86221435428817,
    "is_shadow_confederation": false
  },
  {
    "rank": 11,
    "team_name": "関西大学",
    "team_short_name": "関大",
    "runner_name": "豊中",
    "total_distance_km": 596.8,
    "latitude": 34.69163229922132,
    "longitude": 134.924760784073,
    "is_shadow_confederation": false
  },
  {
    "rank": 12,
    "team_name": "鳥取大学",
    "team_short_name": "鳥取",
    "runner_name": "松江",
    "total_distance_km": 592.5,
    "latitude": 34.66746642616626,
    "longitude": 134.96078858558758,
    "is_shadow_confederation": false
  },
  {
    "rank": 13,
    "team_name": "山梨学院大学",
    "team_short_name": "山学",
    "runner_name": "静岡",
    "total_distance_km": 591.8,
    "latitude": 34.66269895285667,
    "longitude": 134.96577479051675,
    "is_shadow_confederation": false
  },
  {
    "rank": 14,
    "team_name": "立命館大学",
    "team_short_name": "立命",
    "runner_name": "彦根",
    "total_distance_km": 565.6,
    "latitude": 34.69936302898756,
    "longitude": 135.2089299736772,
    "is_shadow_confederation": false
  },
  {
    "rank": 15,
    "team_name": "福島大学",
    "team_short_name": "福島",
    "runner_name": "福島",
    "total_distance_km": 529.1,
    "latitude": 34.72650383580977,
    "longitude": 135.5500715983984,
    "is_shadow_confederation": false
  },
  {
    "rank": 16,
    "team_name": "金沢大学",
    "team_short_name": "金沢",
    "runner_name": "福井",
    "total_distance_km": 511.1,
    "latitude": 34.83229051112797,
    "longitude": 135.6904440674807,
    "is_shadow_confederation": false
  },
  {
    "rank": 17,
    "team_name": "東北大学",
    "team_short_name": "東北",
    "runner_name": "一関",
    "total_distance_km": 420.2,
    "latitude": 34.86925434060745,
    "longitude": 136.36511361162908,
    "is_shadow_confederation": false
  },
  {
    "rank": 18,
    "team_name": "学連選抜",
    "team_short_name": "学連",
    "runner_name": "上",
    "total_distance_km": 360.6,
    "latitude": 35.12590907856207,
    "longitude": 136.80561592400215,
    "is_shadow_confederation": false
  },
  {
    "rank": null,
    "team_name": "区間記録連合",
    "team_short_name": "区間記録",
    "runner_name": "豊中",
    "total_distance_km": 927.2,
    "latitude": 34.090671940592884,
    "longitude": 132.03130952734858,
    "is_shadow_confederation": true
  }
]