[
  {
    "rank": 1,
    "team_name": "熊本学園大学",
    "team_short_name": "熊学",
    "runner_name": "岱明",
    "total_distance_km": 205.4,
    "latitude": 34.841107732645284,
    "longitude": 138.14166690652317,
    "is_shadow_confederation": false
  },
  {
    "rank": 2,
    "team_name": "琉球大学",
    "team_short_name": "琉球",
    "runner_name": "仲筋",
    "total_distance_km": 203.3,
    "latitude": 34.84572195539705,
    "longitude": 138.16357667656766,
    "is_shadow_confederation": false
  },
  {
    "rank": 3,
    "team_name": "福岡大学",
    "team_short_name": "福岡",
    "runner_name": "福岡",
    "total_distance_km": 196.9,
    "latitude": 34.86916365002639,
    "longitude": 138.22215626941156,
    "is_shadow_confederation": false
  },
  {
    "rank": 4,
    "team_name": "鹿児島大学",
    "team_short_name": "鹿大",
    "runner_name": "川内（鹿児島）",
    "total_distance_km": 193.7,
    "latitude": 34.88560505664939,
    "longitude": 138.2494749186228,
    "is_shadow_confederation": false
  },
  {
    "rank": 5,
    "team_name": "立命館大学",
    "team_short_name": "立命",
    "runner_name": "福知山",
    "total_distance_km": 192.6,
    "latitude": 34.890760899041375,
    "longitude": 138.25966650056827,
    "is_shadow_confederation": false
  },
  {
    "rank": 6,
    "team_name": "関西大学",
    "team_short_name": "関大",
    "runner_name": "和田山",
    "total_distance_km": 188.1,
    "latitude": 34.917777073142965,
    "longitude": 138.29124511364824,
    "is_shadow_confederation": false
  },
  {
    "rank": 7,
    "team_name": "広島経済大学",
    "team_short_name": "広経",
    "runner_name": "加計",
    "total_distance_km": 187.2,
    "latitude": 34.92379003712317,
    "longitude": 138.2956605565721,
    "is_shadow_confederation": false
  },
  {
    "rank": 8,
    "team_name": "四国大学",
    "team_short_name": "四国",
    "runner_name": "大三島",
    "total_distance_km": 186.9,
    "latitude": 34.92439798099834,
    "longitude": 138.2988597745312,
    "is_shadow_confederation": false
  },
  {
    "rank": 9,
    "team_name": "三重大学",
    "team_short_name": "三重",
    "runner_name": "五條",
    "total_distance_km": 186.8,
    "latitude": 34.9246479405368,
    "longitude": 138.29990067426778,
    "is_shadow_confederation": false
  },
  {
    "rank": 10,
    "team_name": "金沢大学",
    "team_short_name": "金沢",
    "runner_name": "小浜",
    "total_distance_km": 184.9,
    "latitude": 34.93825959014833,
    "longitude": 138.31105697670566,
    "is_shadow_confederation": false
  },
  {
    "rank": 11,
    "team_name": "鳥取大学",
    "team_short_name": "鳥取",
    "runner_name": "鳥取",
    "total_distance_km": 184.1,
    "latitude": 34.94022800591796,
    "longitude": 138.3191953943645,
    "is_shadow_confederation": false
  },
  {
    "rank": 12,
    "team_name": "名古屋大学",
    "team_short_name": "名大",
    "runner_name": "美濃",
    "total_distance_km": 182.2,
    "latitude": 34.950918704489965,
    "longitude": 138.33325768503633,
    "is_shadow_confederation": false
  },
  {
    "rank": 13,
    "team_name": "山梨学院大学",
    "team_short_name": "山学",
    "runner_name": "南信濃",
    "total_distance_km": 172.7,
    "latitude": 34.98981791052151,
    "longitude": 138.4166810735375,
    "is_shadow_confederation": false
  },
  {
    "rank": 14,
    "team_name": "上武大学",
    "team_short_name": "上武",
    "runner_name": "越谷",
    "total_distance_km": 167.7,
    "latitude": 35.01606926965854,
    "longitude": 138.46089359689609,
    "is_shadow_confederation": false
  },
  {
    "rank": 15,
    "team_name": "日本大学",
    "team_short_name": "日大",
    "runner_name": "古河",
    "total_distance_km": 166.7,
    "latitude": 35.017690109426255,
    "longitude": 138.47167160040522,
    "is_shadow_confederation": false
  },
  {
    "rank": 16,
    "team_name": "福島大学",
    "team_short_name": "福島",
    "runner_name": "石川",
    "total_distance_km": 155.5,
    "latitude": 35.08435507586956,
    "longitude": 138.54781859372216,
    "is_shadow_confederation": false
  },
  {
    "rank": 17,
    "team_name": "東北大学",
    "team_short_name": "東北",
    "runner_name": "山形（山形）",
    "total_distance_km": 132.4,
    "latitude": 35.1316513630022,
    "longitude": 138.7616308594856,
    "is_shadow_confederation": false
  },
  {
    "rank": 18,
    "team_name": "学連選抜",
    "team_short_name": "学連",
    "runner_name": "新潟",
    "total_distance_km": 124.4,
    "latitude": 35.10204213830232,
    "longitude": 138.84057762172685,
    "is_shadow_confederation": false
  }
]