[
  {
    "rank": 1,
    "team_name": "琉球大学",
    "team_short_name": "琉球",
    "runner_name": "北原",
    "total_distance_km": 82.2,
    "latitude": 35.25759794154226,
    "longitude": 139.17476101950336,
    "is_shadow_confederation": false
  },
  {
    "rank": 2,
    "team_name": "鹿児島大学",
    "team_short_name": "鹿大",
    "runner_name": "東市来",
    "total_distance_km": 60.6,
    "latitude": 35.31721229151605,
    "longitude": 139.3874668318944,
    "is_shadow_confederation": false
  },
  {
    "rank": 3,
    "team_name": "熊本学園大学",
    "team_short_name": "熊学",
    "runner_name": "甲佐",
    "total_distance_km": 58.7,
    "latitude": 35.31865377966663,
    "longitude": 139.40821102645683,
    "is_shadow_confederation": false
  },
  {
    "rank": 4,
    "team_name": "福岡大学",
    "team_short_name": "福岡",
    "runner_name": "久留米",
    "total_distance_km": 56.6,
    "latitude": 35.32010149043347,
    "longitude": 139.43092439346034,
    "is_shadow_confederation": false
  },
  {
    "rank": 5,
    "team_name": "四国大学",
    "team_short_name": "四国",
    "runner_name": "穴吹",
    "total_distance_km": 48.2,
    "latitude": 35.36391715976505,
    "longitude": 139.49730697417777,
    "is_shadow_confederation": false
  },
  {
    "rank": 6,
    "team_name": "三重大学",
    "team_short_name": "三重",
    "runner_name": "粥見",
    "total_distance_km": 48.0,
    "latitude": 35.36554952474171,
    "longitude": 139.49823650073682,
    "is_shadow_confederation": false
  },
  {
    "rank": 7,
    "team_name": "名古屋大学",
    "team_short_name": "名大",
    "runner_name": "美濃加茂",
    "total_distance_km": 44.8,
    "latitude": 35.387645168509586,
    "longitude": 139.51885558207192,
    "is_shadow_confederation": false
  },
  {
    "rank": 8,
    "team_name": "上武大学",
    "team_short_name": "上武",
    "runner_name": "佐野",
    "total_distance_km": 44.0,
    "latitude": 35.39312347848068,
    "longitude": 139.52456811492405,
    "is_shadow_confederation": false
  },
  {
    "rank": 8,
    "team_name": "日本大学",
    "team_short_name": "日大",
    "runner_name": "大子",
    "total_distance_km": 44.0,
    "latitude": 35.39312347848068,
    "longitude": 139.52456811492405,
    "is_shadow_confederation": false
  },
  {
    "rank": 10,
    "team_name": "関西大学",
    "team_short_name": "関大",
    "runner_name": "福崎",
    "total_distance_km": 43.2,
    "latitude": 35.39945715968636,
    "longitude": 139.52785941848902,
    "is_shadow_confederation": false
  },
  {
    "rank": 11,
    "team_name": "鳥取大学",
    "team_short_name": "鳥取",
    "runner_name": "川本",
    "total_distance_km": 39.9,
    "latitude": 35.4189752441532,
    "longitude": 139.5490693304278,
    "is_shadow_confederation": false
  },
  {
    "rank": 12,
    "team_name": "立命館大学",
    "team_short_name": "立命",
    "runner_name": "東近江",
    "total_distance_km": 38.5,
    "latitude": 35.42112261122629,
    "longitude": 139.56325705464215,
    "is_shadow_confederation": false
  },
  {
    "rank": 13,
    "team_name": "広島経済大学",
    "team_short_name": "広経",
    "runner_name": "三次",
    "total_distance_km": 38.2,
    "latitude": 35.42298095876863,
    "longitude": 139.56564456564277,
    "is_shadow_confederation": false
  },
  {
    "rank": 14,
    "team_name": "福島大学",
    "team_short_name": "福島",
    "runner_name": "梁川",
    "total_distance_km": 34.5,
    "latitude": 35.44532981434935,
    "longitude": 139.58660242748908,
    "is_shadow_confederation": false
  },
  {
    "rank": 15,
    "team_name": "金沢大学",
    "team_short_name": "金沢",
    "runner_name": "秋ヶ島",
    "total_distance_km": 29.4,
    "latitude": 35.4687554617706,
    "longitude": 139.62604309486636,
    "is_shadow_confederation": false
  },
  {
    "rank": 16,
    "team_name": "山梨学院大学",
    "team_short_name": "山学",
    "runner_name": "長野",
    "total_distance_km": 26.3,
    "latitude": 35.48531031413867,
    "longitude": 139.65123043308913,
    "is_shadow_confederation": false
  },
  {
    "rank": 17,
    "team_name": "東北大学",
    "team_short_name": "東北",
    "runner_name": "帯広",
    "total_distance_km": 19.6,
    "latitude": 35.52684273941702,
    "longitude": 139.7023045785667,
    "is_shadow_confederation": false
  },
  {
    "rank": 18,
    "team_name": "学連選抜",
    "team_short_name": "学連",
    "runner_name": "美幌",
    "total_distance_km": 3.3,
    "latitude": 35.66195190290798,
    "longitude": 139.74940131663277,
    "is_shadow_confederation": false
  }
]