[
  {
    "rank": 1,
    "team_name": "琉球大学",
    "team_short_name": "琉球",
    "runner_name": "大原",
    "total_distance_km": 891.2,
    "latitude": 34.280634965234256,
    "longitude": 132.26424970408993,
    "is_shadow_confederation": false
  },
  {
    "rank": 2,
    "team_name": "名古屋大学",
    "team_short_name": "名大",
    "runner_name": "揖斐川",
    "total_distance_km": 870.2,
    "latitude": 34.38932513482521,
    "longitude": 132.42700923242924,
    "is_shadow_confederation": false
  },
  {
    "rank": 3,
    "team_name": "福岡大学",
    "team_short_name": "福岡",
    "runner_name": "佐賀（佐賀）",
    "total_distance_km": 867.6,
    "latitude": 34.38489097967537,
    "longitude": 132.45382381827977,
    "is_shadow_confederation": false
  },
  {
    "rank": 4,
    "team_name": "鹿児島大学",
    "team_short_name": "鹿大",
    "runner_name": "さつま柏原",
    "total_distance_km": 865.8,
    "latitude": 34.37928495894516,
    "longitude": 132.47218677216452,
    "is_shadow_confederation": false
  },
  {
    "rank": 5,
    "team_name": "熊本学園大学",
    "team_short_name": "熊学",
    "runner_name": "三角",
    "total_distance_km": 862.0,
    "latitude": 34.36941594481733,
    "longitude": 132.50594621455184,
    "is_shadow_confederation": false
  },
  {
    "rank": 6,
    "team_name": "関西大学",
    "team_short_name": "関大",
    "runner_name": "郡家",
    "total_distance_km": 861.5,
    "latitude": 34.368976306780425,
    "longitude": 132.51131758574383,
    "is_shadow_confederation": false
  },
  {
    "rank": 7,
    "team_name": "四国大学",
    "team_short_name": "四国",
    "runner_name": "江川崎",
    "total_distance_km": 861.2,
    "latitude": 34.367701221134084,
    "longitude": 132.51419376855154,
    "is_shadow_confederation": false
  },
  {
    "rank": 8,
    "team_name": "広島経済大学",
    "team_short_name": "広経",
    "runner_name": "引田",
    "total_distance_km": 852.1,
    "latitude": 34.41150477111364,
    "longitude": 132.58466795712218,
    "is_shadow_confederation": false
  },
  {
    "rank": 9,
    "team_name": "立命館大学",
    "team_short_name": "立命",
    "runner_name": "京都",
    "total_distance_km": 849.0,
    "latitude": 34.42248698751604,
    "longitude": 132.6112150190859,
    "is_shadow_confederation": false
  },
  {
    "rank": 10,
    "team_name": "三重大学",
    "team_short_name": "三重",
    "runner_name": "和歌山",
    "total_distance_km": 843.3,
    "latitude": 34.44425119780709,
    "longitude": 132.6549839285995,
    "is_shadow_confederation": false
  },
  {
    "rank": 11,
    "team_name": "日本大学",
    "team_short_name": "日大",
    "runner_name": "府中（東京）",
    "total_distance_km": 842.0,
    "latitude": 34.44715923356116,
    "longitude": 132.66516658027203,
    "is_shadow_confederation": false
  },
  {
    "rank": 12,
    "team_name": "山梨学院大学",
    "team_short_name": "山学",
    "runner_name": "上田",
    "total_distance_km": 839.9,
    "latitude": 34.440544366500724,
    "longitude": 132.68602213200705,
    "is_shadow_confederation": false
  },
  {
    "rank": 13,
    "team_name": "鳥取大学",
    "team_short_name": "鳥取",
    "runner_name": "玖珂",
    "total_distance_km": 830.6,
    "latitude": 34.398659418628185,
    "longitude": 132.77023961696779,
    "is_shadow_confederation": false
  },
  {
    "rank": 14,
    "team_name": "上武大学",
    "team_short_name": "上武",
    "runner_name": "前橋",
    "total_distance_km": 826.5,
    "latitude": 34.404952560123284,
    "longitude": 132.81210967942147,
    "is_shadow_confederation": false
  },
  {
    "rank": 15,
    "team_name": "金沢大学",
    "team_short_name": "金沢",
    "runner_name": "小松",
    "total_distance_km": 816.4,
    "latitude": 34.393834767980564,
    "longitude": 132.90779892651452,
    "is_shadow_confederation": false
  },
  {
    "rank": 16,
    "team_name": "学連選抜",
    "team_short_name": "学連",
    "runner_name": "飯塚",
    "total_distance_km": 801.3,
    "latitude": 34.39420092641652,
    "longitude": 133.0493088615448,
    "is_shadow_confederation": false
  },
  {
    "rank": 17,
    "team_name": "福島大学",
    "team_short_name": "福島",
    "runner_name": "喜多方",
    "total_distance_km": 794.3,
    "latitude": 34.3875586757101,
    "longitude": 133.1130234451878,
    "is_shadow_confederation": false
  },
  {
    "rank": 18,
    "team_name": "東北大学",
    "team_short_name": "東北",
    "runner_name": "秋田",
    "total_distance_km": 734.0,
    "latitude": 34.554515210901364,
    "longitude": 133.6637710038599,
    "is_shadow_confederation": false
  },
  {
    "rank": null,
    "team_name": "区間記録連合",
    "team_short_name": "区間記録",
    "runner_name": "豊中",
    "total_distance_km": 898.9,
    "latitude": 34.22754001485174,
    "longitude": 132.2209979816493,
    "is_shadow_confederation": true
  }
]