[
  {
    "rank": 1,
    "team_name": "琉球大学",
    "team_short_name": "琉球",
    "runner_name": "大原",
    "total_distance_km": 967.2,
    "latitude": 34.072696233121626,
    "longitude": 131.67665476635818,
    "is_shadow_confederation": false
  },
  {
    "rank": 2,
    "team_name": "鹿児島大学",
    "team_short_name": "鹿大",
    "runner_name": "さつま柏原",
    "total_distance_km": 776.3,
    "latitude": 34.45172032470561,
    "longitude": 133.25520861479635,
    "is_shadow_confederation": false
  },
  {
    "rank": 3,
    "team_name": "熊本学園大学",
    "team_short_name": "熊学",
    "runner_name": "三角",
    "total_distance_km": 754.6,
    "latitude": 34.50902114762501,
    "longitude": 133.46693842558386,
    "is_shadow_confederation": false
  },
  {
    "rank": 4,
    "team_name": "福岡大学",
    "team_short_name": "福岡",
    "runner_name": "口之津",
    "total_distance_km": 720.8,
    "latitude": 34.611332221330144,
    "longitude": 133.7811488674004,
    "is_shadow_confederation": false
  },
  {
    "rank": 5,
    "team_name": "名古屋大学",
    "team_short_name": "名大",
    "runner_name": "名古屋",
    "total_distance_km": 695.1,
    "latitude": 34.699919530913384,
    "longitude": 134.02389363461947,
    "is_shadow_confederation": false
  },
  {
    "rank": 6,
    "team_name": "四国大学",
    "team_short_name": "四国",
    "runner_name": "新居浜",
    "total_distance_km": 692.6,
    "latitude": 34.70618766923899,
    "longitude": 134.04949900319474,
    "is_shadow_confederation": false
  },
  {
    "rank": 7,
    "team_name": "日本大学",
    "team_short_name": "日大",
    "runner_name": "練馬",
    "total_distance_km": 668.4,
    "latitude": 34.799896161264144,
    "longitude": 134.27122532563206,
    "is_shadow_confederation": false
  },
  {
    "rank": 8,
    "team_name": "上武大学",
    "team_short_name": "上武",
    "runner_name": "小山",
    "total_distance_km": 667.7,
    "latitude": 34.80354840673735,
    "longitude": 134.27730448004738,
    "is_shadow_confederation": false
  },
  {
    "rank": 9,
    "team_name": "広島経済大学",
    "team_short_name": "広経",
    "runner_name": "高松（香川）",
    "total_distance_km": 653.3,
    "latitude": 34.829624635837256,
    "longitude": 134.40151180915598,
    "is_shadow_confederation": false
  },
  {
    "rank": 10,
    "team_name": "関西大学",
    "team_short_name": "関大",
    "runner_name": "豊中",
    "total_distance_km": 647.1,
    "latitude": 34.822476518975506,
    "longitude": 134.46440975626894,
    "is_shadow_confederation": false
  },
  {
    "rank": 11,
    "team_name": "三重大学",
    "team_short_name": "三重",
    "runner_name": "新宮",
    "total_distance_km": 646.2,
    "latitude": 34.8185329521202,
    "longitude": 134.47198780023535,
    "is_shadow_confederation": false
  },
  {
    "rank": 12,
    "team_name": "山梨学院大学",
    "team_short_name": "山学",
    "runner_name": "静岡",
    "total_distance_km": 640.3,
    "latitude": 34.828064323297895,
    "longitude": 134.53436162575912,
    "is_shadow_confederation": false
  },
  {
    "rank": 13,
    "team_name": "鳥取大学",
    "team_short_name": "鳥取",
    "runner_name": "松江",
    "total_distance_km": 636.8,
    "latitude": 34.83358851297874,
    "longitude": 134.57155518747473,
    "is_shadow_confederation": false
  },
  {
    "rank": 14,
    "team_name": "立命館大学",
    "team_short_name": "立命",
    "runner_name": "彦根",
    "total_distance_km": 608.4,
    "latitude": 34.76439958463008,
    "longitude": 134.83619966724046,
    "is_shadow_confederation": false
  },
  {
    "rank": 15,
    "team_name": "福島大学",
    "team_short_name": "福島",
    "runner_name": "浪江",
    "total_distance_km": 577.3,
    "latitude": 34.640607645303,
    "longitude": 135.1058213971083,
    "is_shadow_confederation": false
  },
  {
    "rank": 16,
    "team_name": "金沢大学",
    "team_short_name": "金沢",
    "runner_name": "富山",
    "total_distance_km": 553.9,
    "latitude": 34.73685283245699,
    "longitude": 135.32613509123382,
    "is_shadow_confederation": false
  },
  {
    "rank": 17,
    "team_name": "東北大学",
    "team_short_name": "東北",
    "runner_name": "一関",
    "total_distance_km": 466.4,
    "latitude": 35.00479468293867,
    "longitude": 135.95281329418734,
    "is_shadow_confederation": false
  },
  {
    "rank": 18,
    "team_name": "学連選抜",
    "team_short_name": "学連",
    "runner_name": "上",
    "total_distance_km": 405.5,
    "latitude": 34.87285060847247,
    "longitude": 136.49357549645984,
    "is_shadow_confederation": false
  },
  {
    "rank": null,
    "team_name": "区間記録連合",
    "team_short_name": "区間記録",
    "runner_name": "豊中",
    "total_distance_km": 967.2,
    "latitude": 34.072696233121626,
    "longitude": 131.67665476635818,
    "is_shadow_confederation": true
  }
]