[
  {
    "rank": 1,
    "team_name": "琉球大学",
    "team_short_name": "琉球",
    "runner_name": "石垣島",
    "total_distance_km": 1033.6,
    "latitude": 34.04539194604563,
    "longitude": 131.0717234105002,
    "is_shadow_confederation": false
  },
  {
    "rank": 2,
    "team_name": "鹿児島大学",
    "team_short_name": "鹿大",
    "runner_name": "喜入",
    "total_distance_km": 863.7,
    "latitude": 34.377922116371955,
    "longitude": 132.49386907553261,
    "is_shadow_confederation": false
  },
  {
    "rank": 3,
    "team_name": "熊本学園大学",
    "team_short_name": "熊学",
    "runner_name": "三角",
    "total_distance_km": 829.8,
    "latitude": 34.40022866548359,
    "longitude": 132.7787105145211,
    "is_shadow_confederation": false
  },
  {
    "rank": 4,
    "team_name": "福岡大学",
    "team_short_name": "福岡",
    "runner_name": "大牟田",
    "total_distance_km": 816.1,
    "latitude": 34.395337283049884,
    "longitude": 132.91049710148627,
    "is_shadow_confederation": false
  },
  {
    "rank": 5,
    "team_name": "四国大学",
    "team_short_name": "四国",
    "runner_name": "江川崎",
    "total_distance_km": 776.7,
    "latitude": 34.449943499569024,
    "longitude": 133.25142088712474,
    "is_shadow_confederation": false
  },
  {
    "rank": 6,
    "team_name": "広島経済大学",
    "team_short_name": "広経",
    "runner_name": "引田",
    "total_distance_km": 758.8,
    "latitude": 34.50177798452068,
    "longitude": 133.4269048463931,
    "is_shadow_confederation": false
  },
  {
    "rank": 7,
    "team_name": "鳥取大学",
    "team_short_name": "鳥取",
    "runner_name": "米子",
    "total_distance_km": 742.7,
    "latitude": 34.523211850451396,
    "longitude": 133.5805116980156,
    "is_shadow_confederation": false
  },
  {
    "rank": 8,
    "team_name": "関西大学",
    "team_short_name": "関大",
    "runner_name": "八尾（大阪）",
    "total_distance_km": 740.5,
    "latitude": 34.53309397979777,
    "longitude": 133.60120422303996,
    "is_shadow_confederation": false
  },
  {
    "rank": 9,
    "team_name": "名古屋大学",
    "team_short_name": "名大",
    "runner_name": "名古屋",
    "total_distance_km": 738.6,
    "latitude": 34.5356086267461,
    "longitude": 133.6211879252612,
    "is_shadow_confederation": false
  },
  {
    "rank": 10,
    "team_name": "三重大学",
    "team_short_name": "三重",
    "runner_name": "津",
    "total_distance_km": 724.6,
    "latitude": 34.58957665247386,
    "longitude": 133.74923540467708,
    "is_shadow_confederation": false
  },
  {
    "rank": 11,
    "team_name": "立命館大学",
    "team_short_name": "立命",
    "runner_name": "長浜（滋賀）",
    "total_distance_km": 708.1,
    "latitude": 34.65453566610241,
    "longitude": 133.90159415925788,
    "is_shadow_confederation": false
  },
  {
    "rank": 12,
    "team_name": "上武大学",
    "team_short_name": "上武",
    "runner_name": "小山",
    "total_distance_km": 693.5,
    "latitude": 34.702970410068765,
    "longitude": 134.04061867485922,
    "is_shadow_confederation": false
  },
  {
    "rank": 13,
    "team_name": "金沢大学",
    "team_short_name": "金沢",
    "runner_name": "敦賀",
    "total_distance_km": 690.7,
    "latitude": 34.705872640923,
    "longitude": 134.07005564115894,
    "is_shadow_confederation": false
  },
  {
    "rank": 14,
    "team_name": "日本大学",
    "team_short_name": "日大",
    "runner_name": "練馬",
    "total_distance_km": 690.3,
    "latitude": 34.70703922456647,
    "longitude": 134.07418702995014,
    "is_shadow_confederation": false
  },
  {
    "rank": 15,
    "team_name": "山梨学院大学",
    "team_short_name": "山学",
    "runner_name": "三島",
    "total_distance_km": 682.1,
    "latitude": 34.737633782110215,
    "longitude": 134.15026443068754,
    "is_shadow_confederation": false
  },
  {
    "rank": 16,
    "team_name": "学連選抜",
    "team_short_name": "学連",
    "runner_name": "多度津",
    "total_distance_km": 641.9,
    "latitude": 34.82526054236979,
    "longitude": 134.51720521861427,
    "is_shadow_confederation": false
  },
  {
    "rank": 17,
    "team_name": "福島大学",
    "team_short_name": "福島",
    "runner_name": "浪江",
    "total_distance_km": 612.7,
    "latitude": 34.78877440274826,
    "longitude": 134.80127068180926,
    "is_shadow_confederation": false
  },
  {
    "rank": 18,
    "team_name": "東北大学",
    "team_short_name": "東北",
    "runner_name": "一関",
    "total_distance_km": 523.3,
    "latitude": 34.763349633209984,
    "longitude": 135.59447968348258,
    "is_shadow_confederation": false
  }
]