[
  {
    "rank": 1,
    "team_name": "琉球大学",
    "team_short_name": "琉球",
    "runner_name": "西表島",
    "total_distance_km": 864.1,
    "latitude": 34.37890371987643,
    "longitude": 132.4896842045659,
    "is_shadow_confederation": false
  },
  {
    "rank": 2,
    "team_name": "鹿児島大学",
    "team_short_name": "鹿大",
    "runner_name": "鹿児島",
    "total_distance_km": 739.1,
    "latitude": 34.53621666631027,
    "longitude": 133.61581803303218,
    "is_shadow_confederation": false
  },
  {
    "rank": 3,
    "team_name": "熊本学園大学",
    "team_short_name": "熊学",
    "runner_name": "犬飼",
    "total_distance_km": 716.1,
    "latitude": 34.637533330757414,
    "longitude": 133.81965135993107,
    "is_shadow_confederation": false
  },
  {
    "rank": 4,
    "team_name": "福岡大学",
    "team_short_name": "福岡",
    "runner_name": "口之津",
    "total_distance_km": 696.7,
    "latitude": 34.692133314412175,
    "longitude": 134.00929157395296,
    "is_shadow_confederation": false
  },
  {
    "rank": 5,
    "team_name": "四国大学",
    "team_short_name": "四国",
    "runner_name": "新居浜",
    "total_distance_km": 661.8,
    "latitude": 34.8408195624005,
    "longitude": 134.31750760435483,
    "is_shadow_confederation": false
  },
  {
    "rank": 6,
    "team_name": "広島経済大学",
    "team_short_name": "広経",
    "runner_name": "高松（香川）",
    "total_distance_km": 641.7,
    "latitude": 34.82561251314105,
    "longitude": 134.51934939300511,
    "is_shadow_confederation": false
  },
  {
    "rank": 7,
    "team_name": "鳥取大学",
    "team_short_name": "鳥取",
    "runner_name": "松江",
    "total_distance_km": 626.2,
    "latitude": 34.837895257616154,
    "longitude": 134.67111018313486,
    "is_shadow_confederation": false
  },
  {
    "rank": 8,
    "team_name": "名古屋大学",
    "team_short_name": "名大",
    "runner_name": "豊田（愛知）",
    "total_distance_km": 625.5,
    "latitude": 34.83564403489584,
    "longitude": 134.678236487765,
    "is_shadow_confederation": false
  },
  {
    "rank": 9,
    "team_name": "関西大学",
    "team_short_name": "関大",
    "runner_name": "豊中",
    "total_distance_km": 625.1,
    "latitude": 34.834876244910134,
    "longitude": 134.68250911431934,
    "is_shadow_confederation": false
  },
  {
    "rank": 10,
    "team_name": "三重大学",
    "team_short_name": "三重",
    "runner_name": "新宮",
    "total_distance_km": 614.8,
    "latitude": 34.7950059299708,
    "longitude": 134.78022786521856,
    "is_shadow_confederation": false
  },
  {
    "rank": 11,
    "team_name": "立命館大学",
    "team_short_name": "立命",
    "runner_name": "彦根",
    "total_distance_km": 607.8,
    "latitude": 34.761708395156234,
    "longitude": 134.84188447511391,
    "is_shadow_confederation": false
  },
  {
    "rank": 12,
    "team_name": "日本大学",
    "team_short_name": "日大",
    "runner_name": "八王子",
    "total_distance_km": 590.0,
    "latitude": 34.651185626725415,
    "longitude": 134.9789358848985,
    "is_shadow_confederation": false
  },
  {
    "rank": 13,
    "team_name": "上武大学",
    "team_short_name": "上武",
    "runner_name": "伊勢崎",
    "total_distance_km": 587.6,
    "latitude": 34.64653776348232,
    "longitude": 135.00386435498473,
    "is_shadow_confederation": false
  },
  {
    "rank": 14,
    "team_name": "金沢大学",
    "team_short_name": "金沢",
    "runner_name": "富山",
    "total_distance_km": 584.4,
    "latitude": 34.632748999680715,
    "longitude": 135.03316015856734,
    "is_shadow_confederation": false
  },
  {
    "rank": 15,
    "team_name": "山梨学院大学",
    "team_short_name": "山学",
    "runner_name": "静岡",
    "total_distance_km": 567.5,
    "latitude": 34.69126091601042,
    "longitude": 135.19068710885085,
    "is_shadow_confederation": false
  },
  {
    "rank": 16,
    "team_name": "学連選抜",
    "team_short_name": "学連",
    "runner_name": "久世",
    "total_distance_km": 525.1,
    "latitude": 34.75171546351607,
    "longitude": 135.58095853440014,
    "is_shadow_confederation": false
  },
  {
    "rank": 17,
    "team_name": "福島大学",
    "team_short_name": "福島",
    "runner_name": "福島",
    "total_distance_km": 511.1,
    "latitude": 34.83229051112797,
    "longitude": 135.6904440674807,
    "is_shadow_confederation": false
  },
  {
    "rank": 18,
    "team_name": "東北大学",
    "team_short_name": "東北",
    "runner_name": "一関",
    "total_distance_km": 437.0,
    "latitude": 34.9475159471135,
    "longitude": 136.23388316923464,
    "is_shadow_confederation": false
  }
]