[
  {
    "rank": 1,
    "team_name": "琉球大学",
    "team_short_name": "琉球",
    "runner_name": "大原",
    "total_distance_km": 891.4,
    "latitude": 34.279223977683756,
    "longitude": 132.2629331836379,
    "is_shadow_confederation": false
  },
  {
    "rank": 2,
    "team_name": "鹿児島大学",
    "team_short_name": "鹿大",
    "runner_name": "さつま柏原",
    "total_distance_km": 753.7,
    "latitude": 34.50802918534444,
    "longitude": 133.47648075457482,
    "is_shadow_confederation": false
  },
  {
    "rank": 3,
    "team_name": "熊本学園大学",
    "team_short_name": "熊学",
    "runner_name": "犬飼",
    "total_distance_km": 726.4,
    "latitude": 34.580477874154745,
    "longitude": 133.73299089725126,
    "is_shadow_confederation": false
  },
  {
    "rank": 4,
    "team_name": "福岡大学",
    "team_short_name": "福岡",
    "runner_name": "口之津",
    "total_distance_km": 711.4,
    "latitude": 34.64572082574138,
    "longitude": 133.86761747471647,
    "is_shadow_confederation": false
  },
  {
    "rank": 5,
    "team_name": "四国大学",
    "team_short_name": "四国",
    "runner_name": "新居浜",
    "total_distance_km": 674.2,
    "latitude": 34.7663460099907,
    "longitude": 134.22676325924814,
    "is_shadow_confederation": false
  },
  {
    "rank": 6,
    "team_name": "広島経済大学",
    "team_short_name": "広経",
    "runner_name": "福山",
    "total_distance_km": 651.2,
    "latitude": 34.83286745405432,
    "longitude": 134.42353635625597,
    "is_shadow_confederation": false
  },
  {
    "rank": 7,
    "team_name": "鳥取大学",
    "team_short_name": "鳥取",
    "runner_name": "松江",
    "total_distance_km": 636.3,
    "latitude": 34.8337675189982,
    "longitude": 134.5770169919926,
    "is_shadow_confederation": false
  },
  {
    "rank": 8,
    "team_name": "関西大学",
    "team_short_name": "関大",
    "runner_name": "豊中",
    "total_distance_km": 635.4,
    "latitude": 34.83299786727886,
    "longitude": 134.58668602108477,
    "is_shadow_confederation": false
  },
  {
    "rank": 9,
    "team_name": "名古屋大学",
    "team_short_name": "名大",
    "runner_name": "豊田（愛知）",
    "total_distance_km": 633.5,
    "latitude": 34.82891957422474,
    "longitude": 134.60613170008736,
    "is_shadow_confederation": false
  },
  {
    "rank": 10,
    "team_name": "三重大学",
    "team_short_name": "三重",
    "runner_name": "新宮",
    "total_distance_km": 629.1,
    "latitude": 34.844715705125815,
    "longitude": 134.64117136632981,
    "is_shadow_confederation": false
  },
  {
    "rank": 11,
    "team_name": "立命館大学",
    "team_short_name": "立命",
    "runner_name": "彦根",
    "total_distance_km": 615.8,
    "latitude": 34.79579015767301,
    "longitude": 134.76945233476889,
    "is_shadow_confederation": false
  },
  {
    "rank": 12,
    "team_name": "上武大学",
    "team_short_name": "上武",
    "runner_name": "伊勢崎",
    "total_distance_km": 598.1,
    "latitude": 34.698635117014746,
    "longitude": 134.91340489135055,
    "is_shadow_confederation": false
  },
  {
    "rank": 13,
    "team_name": "日本大学",
    "team_short_name": "日大",
    "runner_name": "八王子",
    "total_distance_km": 596.3,
    "latitude": 34.68919403081899,
    "longitude": 134.9293499631216,
    "is_shadow_confederation": false
  },
  {
    "rank": 14,
    "team_name": "金沢大学",
    "team_short_name": "金沢",
    "runner_name": "富山",
    "total_distance_km": 593.8,
    "latitude": 34.67514749636573,
    "longitude": 134.9502890168781,
    "is_shadow_confederation": false
  },
  {
    "rank": 15,
    "team_name": "山梨学院大学",
    "team_short_name": "山学",
    "runner_name": "静岡",
    "total_distance_km": 580.3,
    "latitude": 34.63139782141482,
    "longitude": 135.07562808211676,
    "is_shadow_confederation": false
  },
  {
    "rank": 16,
    "team_name": "学連選抜",
    "team_short_name": "学連",
    "runner_name": "多度津",
    "total_distance_km": 537.3,
    "latitude": 34.69667374311429,
    "longitude": 135.4898946446002,
    "is_shadow_confederation": false
  },
  {
    "rank": 17,
    "team_name": "福島大学",
    "team_short_name": "福島",
    "runner_name": "福島",
    "total_distance_km": 520.9,
    "latitude": 34.77693177002294,
    "longitude": 135.61481432871958,
    "is_shadow_confederation": false
  },
  {
    "rank": 18,
    "team_name": "東北大学",
    "team_short_name": "東北",
    "runner_name": "一関",
    "total_distance_km": 443.9,
    "latitude": 34.976187288499126,
    "longitude": 136.16922474755185,
    "is_shadow_confederation": false
  }
]