[
  {
    "rank": 1,
    "team_name": "琉球大学",
    "team_short_name": "琉球",
    "runner_name": "西表島",
    "total_distance_km": 862.8,
    "latitude": 34.37144223221251,
    "longitude": 132.49859906498452,
    "is_shadow_confederation": false
  },
  {
    "rank": 2,
    "team_name": "鹿児島大学",
    "team_short_name": "鹿大",
    "runner_name": "鹿児島",
    "total_distance_km": 738.2,
    "latitude": 34.53586859077628,
    "longitude": 133.62551990266618,
    "is_shadow_confederation": false
  },
  {
    "rank": 3,
    "team_name": "熊本学園大学",
    "team_short_name": "熊学",
    "runner_name": "犬飼",
    "total_distance_km": 714.1,
    "latitude": 34.644019341718504,
    "longitude": 133.84000466592073,
    "is_shadow_confederation": false
  },
  {
    "rank": 4,
    "team_name": "福岡大学",
    "team_short_name": "福岡",
    "runner_name": "口之津",
    "total_distance_km": 696.6,
    "latitude": 34.69265789628647,
    "longitude": 134.01017907867546,
    "is_shadow_confederation": false
  },
  {
    "rank": 5,
    "team_name": "四国大学",
    "team_short_name": "四国",
    "runner_name": "新居浜",
    "total_distance_km": 660.8,
    "latitude": 34.843435781802945,
    "longitude": 134.32700359853575,
    "is_shadow_confederation": false
  },
  {
    "rank": 6,
    "team_name": "広島経済大学",
    "team_short_name": "広経",
    "runner_name": "高松（香川）",
    "total_distance_km": 641.4,
    "latitude": 34.826140469297954,
    "longitude": 134.5225656545914,
    "is_shadow_confederation": false
  },
  {
    "rank": 7,
    "team_name": "関西大学",
    "team_short_name": "関大",
    "runner_name": "豊中",
    "total_distance_km": 624.4,
    "latitude": 34.83353261243515,
    "longitude": 134.6899862107895,
    "is_shadow_confederation": false
  },
  {
    "rank": 8,
    "team_name": "名古屋大学",
    "team_short_name": "名大",
    "runner_name": "豊田（愛知）",
    "total_distance_km": 623.8,
    "latitude": 34.83238092745658,
    "longitude": 134.69639515062104,
    "is_shadow_confederation": false
  },
  {
    "rank": 9,
    "team_name": "鳥取大学",
    "team_short_name": "鳥取",
    "runner_name": "松江",
    "total_distance_km": 623.5,
    "latitude": 34.83198075228537,
    "longitude": 134.69963646504786,
    "is_shadow_confederation": false
  },
  {
    "rank": 10,
    "team_name": "三重大学",
    "team_short_name": "三重",
    "runner_name": "新宮",
    "total_distance_km": 614.3,
    "latitude": 34.794704323856344,
    "longitude": 134.78563027778657,
    "is_shadow_confederation": false
  },
  {
    "rank": 11,
    "team_name": "立命館大学",
    "team_short_name": "立命",
    "runner_name": "彦根",
    "total_distance_km": 606.2,
    "latitude": 34.7519961295326,
    "longitude": 134.85468465749136,
    "is_shadow_confederation": false
  },
  {
    "rank": 12,
    "team_name": "日本大学",
    "team_short_name": "日大",
    "runner_name": "八王子",
    "total_distance_km": 589.0,
    "latitude": 34.647809697562174,
    "longitude": 134.9886713173401,
    "is_shadow_confederation": false
  },
  {
    "rank": 13,
    "team_name": "上武大学",
    "team_short_name": "上武",
    "runner_name": "伊勢崎",
    "total_distance_km": 586.0,
    "latitude": 34.64213455315641,
    "longitude": 135.02029885103764,
    "is_shadow_confederation": false
  },
  {
    "rank": 14,
    "team_name": "金沢大学",
    "team_short_name": "金沢",
    "runner_name": "富山",
    "total_distance_km": 583.3,
    "latitude": 34.62803696579157,
    "longitude": 135.04338162232702,
    "is_shadow_confederation": false
  },
  {
    "rank": 15,
    "team_name": "山梨学院大学",
    "team_short_name": "山学",
    "runner_name": "静岡",
    "total_distance_km": 567.5,
    "latitude": 34.69126091601042,
    "longitude": 135.19068710885085,
    "is_shadow_confederation": false
  },
  {
    "rank": 16,
    "team_name": "学連選抜",
    "team_short_name": "学連",
    "runner_name": "久世",
    "total_distance_km": 521.6,
    "latitude": 34.77280750960055,
    "longitude": 135.60902697620438,
    "is_shadow_confederation": false
  },
  {
    "rank": 17,
    "team_name": "福島大学",
    "team_short_name": "福島",
    "runner_name": "福島",
    "total_distance_km": 511.1,
    "latitude": 34.83229051112797,
    "longitude": 135.6904440674807,
    "is_shadow_confederation": false
  },
  {
    "rank": 18,
    "team_name": "東北大学",
    "team_short_name": "東北",
    "runner_name": "一関",
    "total_distance_km": 436.1,
    "latitude": 34.944933683904274,
    "longitude": 136.2431783696799,
    "is_shadow_confederation": false
  }
]