[
  {
    "rank": 1,
    "team_name": "琉球大学",
    "team_short_name": "琉球",
    "runner_name": "波照間",
    "total_distance_km": 502.1,
    "latitude": 34.89732117599573,
    "longitude": 135.74396777538882,
    "is_shadow_confederation": false
  },
  {
    "rank": 2,
    "team_name": "熊本学園大学",
    "team_short_name": "熊学",
    "runner_name": "熊本",
    "total_distance_km": 450.2,
    "latitude": 34.99017087978765,
    "longitude": 136.10535599890517,
    "is_shadow_confederation": false
  },
  {
    "rank": 3,
    "team_name": "鹿児島大学",
    "team_short_name": "鹿大",
    "runner_name": "西都",
    "total_distance_km": 435.7,
    "latitude": 34.94318006878893,
    "longitude": 136.2469908650679,
    "is_shadow_confederation": false
  },
  {
    "rank": 4,
    "team_name": "福岡大学",
    "team_short_name": "福岡",
    "runner_name": "前原",
    "total_distance_km": 423.0,
    "latitude": 34.88844021161507,
    "longitude": 136.34937098174666,
    "is_shadow_confederation": false
  },
  {
    "rank": 5,
    "team_name": "四国大学",
    "team_short_name": "四国",
    "runner_name": "松山",
    "total_distance_km": 409.8,
    "latitude": 34.85085209163031,
    "longitude": 136.4594918797959,
    "is_shadow_confederation": false
  },
  {
    "rank": 6,
    "team_name": "広島経済大学",
    "team_short_name": "広経",
    "runner_name": "大竹",
    "total_distance_km": 397.4,
    "latitude": 34.91332623762191,
    "longitude": 136.55471340469623,
    "is_shadow_confederation": false
  },
  {
    "rank": 7,
    "team_name": "鳥取大学",
    "team_short_name": "鳥取",
    "runner_name": "防府",
    "total_distance_km": 382.6,
    "latitude": 35.00604621570787,
    "longitude": 136.65462053838982,
    "is_shadow_confederation": false
  },
  {
    "rank": 8,
    "team_name": "名古屋大学",
    "team_short_name": "名大",
    "runner_name": "愛西",
    "total_distance_km": 379.5,
    "latitude": 35.02860481764878,
    "longitude": 136.67170604549818,
    "is_shadow_confederation": false
  },
  {
    "rank": 9,
    "team_name": "関西大学",
    "team_short_name": "関大",
    "runner_name": "柏原",
    "total_distance_km": 378.3,
    "latitude": 35.03941656828979,
    "longitude": 136.6720975017471,
    "is_shadow_confederation": false
  },
  {
    "rank": 10,
    "team_name": "立命館大学",
    "team_short_name": "立命",
    "runner_name": "米原",
    "total_distance_km": 371.2,
    "latitude": 35.09309888102602,
    "longitude": 136.70260082105935,
    "is_shadow_confederation": false
  },
  {
    "rank": 11,
    "team_name": "三重大学",
    "team_short_name": "三重",
    "runner_name": "風屋",
    "total_distance_km": 368.7,
    "latitude": 35.108947229606756,
    "longitude": 136.7198584490857,
    "is_shadow_confederation": false
  },
  {
    "rank": 12,
    "team_name": "金沢大学",
    "team_short_name": "金沢",
    "runner_name": "志賀",
    "total_distance_km": 350.7,
    "latitude": 35.11976691963004,
    "longitude": 136.9120337024208,
    "is_shadow_confederation": false
  },
  {
    "rank": 13,
    "team_name": "日本大学",
    "team_short_name": "日大",
    "runner_name": "小田原",
    "total_distance_km": 348.0,
    "latitude": 35.10085096448202,
    "longitude": 136.92571041329958,
    "is_shadow_confederation": false
  },
  {
    "rank": 14,
    "team_name": "上武大学",
    "team_short_name": "上武",
    "runner_name": "寄居",
    "total_distance_km": 347.5,
    "latitude": 35.096737785358485,
    "longitude": 136.92795173138003,
    "is_shadow_confederation": false
  },
  {
    "rank": 15,
    "team_name": "山梨学院大学",
    "team_short_name": "山学",
    "runner_name": "大月",
    "total_distance_km": 325.3,
    "latitude": 34.976682070044845,
    "longitude": 137.1140300589318,
    "is_shadow_confederation": false
  },
  {
    "rank": 16,
    "team_name": "福島大学",
    "team_short_name": "福島",
    "runner_name": "津川",
    "total_distance_km": 306.2,
    "latitude": 34.878371241220556,
    "longitude": 137.27310420626827,
    "is_shadow_confederation": false
  },
  {
    "rank": 17,
    "team_name": "学連選抜",
    "team_short_name": "学連",
    "runner_name": "大村",
    "total_distance_km": 273.2,
    "latitude": 34.680102649447036,
    "longitude": 137.50910722853882,
    "is_shadow_confederation": false
  },
  {
    "rank": 18,
    "team_name": "東北大学",
    "team_short_name": "東北",
    "runner_name": "高畠",
    "total_distance_km": 255.2,
    "latitude": 34.688476605138725,
    "longitude": 137.69663937181522,
    "is_shadow_confederation": false
  }
]