[
  {
    "rank": 1,
    "team_name": "琉球大学",
    "team_short_name": "琉球",
    "runner_name": "西表島",
    "total_distance_km": 847.1,
    "latitude": 34.43076917956504,
    "longitude": 132.62788705731387,
    "is_shadow_confederation": false
  },
  {
    "rank": 2,
    "team_name": "鹿児島大学",
    "team_short_name": "鹿大",
    "runner_name": "鹿児島",
    "total_distance_km": 689.3,
    "latitude": 34.71071110575628,
    "longitude": 134.0841084614119,
    "is_shadow_confederation": false
  },
  {
    "rank": 3,
    "team_name": "熊本学園大学",
    "team_short_name": "熊学",
    "runner_name": "犬飼",
    "total_distance_km": 658.9,
    "latitude": 34.83643456304576,
    "longitude": 134.34485081465576,
    "is_shadow_confederation": false
  },
  {
    "rank": 4,
    "team_name": "福岡大学",
    "team_short_name": "福岡",
    "runner_name": "博多",
    "total_distance_km": 637.4,
    "latitude": 34.83337273527683,
    "longitude": 134.56500114693782,
    "is_shadow_confederation": false
  },
  {
    "rank": 5,
    "team_name": "四国大学",
    "team_short_name": "四国",
    "runner_name": "徳島",
    "total_distance_km": 597.9,
    "latitude": 34.69750987425309,
    "longitude": 134.91511037132793,
    "is_shadow_confederation": false
  },
  {
    "rank": 6,
    "team_name": "名古屋大学",
    "team_short_name": "名大",
    "runner_name": "豊田（愛知）",
    "total_distance_km": 594.2,
    "latitude": 34.678019596246706,
    "longitude": 134.94765022989677,
    "is_shadow_confederation": false
  },
  {
    "rank": 7,
    "team_name": "日本大学",
    "team_short_name": "日大",
    "runner_name": "八王子",
    "total_distance_km": 587.1,
    "latitude": 34.64585670658312,
    "longitude": 135.00922970365573,
    "is_shadow_confederation": false
  },
  {
    "rank": 8,
    "team_name": "上武大学",
    "team_short_name": "上武",
    "runner_name": "伊勢崎",
    "total_distance_km": 581.9,
    "latitude": 34.62846256987813,
    "longitude": 135.05863731492187,
    "is_shadow_confederation": false
  },
  {
    "rank": 9,
    "team_name": "広島経済大学",
    "team_short_name": "広経",
    "runner_name": "高松（香川）",
    "total_distance_km": 576.5,
    "latitude": 34.643340149921805,
    "longitude": 135.1135506874402,
    "is_shadow_confederation": false
  },
  {
    "rank": 10,
    "team_name": "鳥取大学",
    "team_short_name": "鳥取",
    "runner_name": "松江",
    "total_distance_km": 575.1,
    "latitude": 34.650598433865866,
    "longitude": 135.12562706050736,
    "is_shadow_confederation": false
  },
  {
    "rank": 11,
    "team_name": "三重大学",
    "team_short_name": "三重",
    "runner_name": "新宮",
    "total_distance_km": 574.6,
    "latitude": 34.65323782439179,
    "longitude": 135.13004346067515,
    "is_shadow_confederation": false
  },
  {
    "rank": 12,
    "team_name": "関西大学",
    "team_short_name": "関大",
    "runner_name": "豊中",
    "total_distance_km": 568.3,
    "latitude": 34.687502005290646,
    "longitude": 135.18329879186186,
    "is_shadow_confederation": false
  },
  {
    "rank": 13,
    "team_name": "立命館大学",
    "team_short_name": "立命",
    "runner_name": "彦根",
    "total_distance_km": 541.6,
    "latitude": 34.71171052102012,
    "longitude": 135.4528354777873,
    "is_shadow_confederation": false
  },
  {
    "rank": 14,
    "team_name": "山梨学院大学",
    "team_short_name": "山学",
    "runner_name": "甲府",
    "total_distance_km": 536.8,
    "latitude": 34.69837672403678,
    "longitude": 135.49491496187065,
    "is_shadow_confederation": false
  },
  {
    "rank": 15,
    "team_name": "福島大学",
    "team_short_name": "福島",
    "runner_name": "福島",
    "total_distance_km": 509.8,
    "latitude": 34.84184183984181,
    "longitude": 135.6986781234614,
    "is_shadow_confederation": false
  },
  {
    "rank": 16,
    "team_name": "金沢大学",
    "team_short_name": "金沢",
    "runner_name": "福井",
    "total_distance_km": 468.6,
    "latitude": 34.99066799576137,
    "longitude": 135.93594332667888,
    "is_shadow_confederation": false
  },
  {
    "rank": 17,
    "team_name": "東北大学",
    "team_short_name": "東北",
    "runner_name": "大館",
    "total_distance_km": 403.1,
    "latitude": 34.878343289835286,
    "longitude": 136.5174885931373,
    "is_shadow_confederation": false
  },
  {
    "rank": 18,
    "team_name": "学連選抜",
    "team_short_name": "学連",
    "runner_name": "上",
    "total_distance_km": 331.7,
    "latitude": 35.00469866664219,
    "longitude": 137.05324777398346,
    "is_shadow_confederation": false
  },
  {
    "rank": null,
    "team_name": "区間記録連合",
    "team_short_name": "区間記録",
    "runner_name": "西脇",
    "total_distance_km": 847.1,
    "latitude": 34.43076917956504,
    "longitude": 132.62788705731387,
    "is_shadow_confederation": true
  }
]