[
  {
    "rank": 1,
    "team_name": "琉球大学",
    "team_short_name": "琉球",
    "runner_name": "名護",
    "total_distance_km": 417.7,
    "latitude": 34.85635653916992,
    "longitude": 136.38020902466184,
    "is_shadow_confederation": false
  },
  {
    "rank": 2,
    "team_name": "熊本学園大学",
    "team_short_name": "熊学",
    "runner_name": "人吉",
    "total_distance_km": 411.2,
    "latitude": 34.851965390881816,
    "longitude": 136.44490462554933,
    "is_shadow_confederation": false
  },
  {
    "rank": 3,
    "team_name": "福岡大学",
    "team_short_name": "福岡",
    "runner_name": "朝倉",
    "total_distance_km": 402.3,
    "latitude": 34.881421475741845,
    "longitude": 136.5248577734142,
    "is_shadow_confederation": false
  },
  {
    "rank": 4,
    "team_name": "立命館大学",
    "team_short_name": "立命",
    "runner_name": "米原",
    "total_distance_km": 394.6,
    "latitude": 34.92106892742046,
    "longitude": 136.58120884189097,
    "is_shadow_confederation": false
  },
  {
    "rank": 5,
    "team_name": "四国大学",
    "team_short_name": "四国",
    "runner_name": "松山",
    "total_distance_km": 391.2,
    "latitude": 34.944058631802456,
    "longitude": 136.60384090591916,
    "is_shadow_confederation": false
  },
  {
    "rank": 6,
    "team_name": "広島経済大学",
    "team_short_name": "広経",
    "runner_name": "大竹",
    "total_distance_km": 388.9,
    "latitude": 34.96016994095789,
    "longitude": 136.61922841899457,
    "is_shadow_confederation": false
  },
  {
    "rank": 7,
    "team_name": "関西大学",
    "team_short_name": "関大",
    "runner_name": "柏原",
    "total_distance_km": 388.3,
    "latitude": 34.96499610597878,
    "longitude": 136.62210367966944,
    "is_shadow_confederation": false
  },
  {
    "rank": 8,
    "team_name": "名古屋大学",
    "team_short_name": "名大",
    "runner_name": "愛西",
    "total_distance_km": 388.0,
    "latitude": 34.96753506096214,
    "longitude": 136.62323428550465,
    "is_shadow_confederation": false
  },
  {
    "rank": 9,
    "team_name": "鹿児島大学",
    "team_short_name": "鹿大",
    "runner_name": "西米良",
    "total_distance_km": 387.3,
    "latitude": 34.97360005310402,
    "longitude": 136.62512314158883,
    "is_shadow_confederation": false
  },
  {
    "rank": 10,
    "team_name": "鳥取大学",
    "team_short_name": "鳥取",
    "runner_name": "防府",
    "total_distance_km": 386.9,
    "latitude": 34.976955091737835,
    "longitude": 136.62655967653322,
    "is_shadow_confederation": false
  },
  {
    "rank": 11,
    "team_name": "山梨学院大学",
    "team_short_name": "山学",
    "runner_name": "浜松",
    "total_distance_km": 380.0,
    "latitude": 35.024191936116324,
    "longitude": 136.67119074689842,
    "is_shadow_confederation": false
  },
  {
    "rank": 12,
    "team_name": "上武大学",
    "team_short_name": "上武",
    "runner_name": "寄居",
    "total_distance_km": 379.6,
    "latitude": 35.02770383842869,
    "longitude": 136.6716734241441,
    "is_shadow_confederation": false
  },
  {
    "rank": 13,
    "team_name": "金沢大学",
    "team_short_name": "金沢",
    "runner_name": "志賀",
    "total_distance_km": 378.0,
    "latitude": 35.04173522156561,
    "longitude": 136.6736627521867,
    "is_shadow_confederation": false
  },
  {
    "rank": 14,
    "team_name": "三重大学",
    "team_short_name": "三重",
    "runner_name": "風屋",
    "total_distance_km": 375.6,
    "latitude": 35.060904905084705,
    "longitude": 136.6850777100725,
    "is_shadow_confederation": false
  },
  {
    "rank": 15,
    "team_name": "日本大学",
    "team_short_name": "日大",
    "runner_name": "小田原",
    "total_distance_km": 374.0,
    "latitude": 35.07482772885346,
    "longitude": 136.68526621281765,
    "is_shadow_confederation": false
  },
  {
    "rank": 16,
    "team_name": "福島大学",
    "team_short_name": "福島",
    "runner_name": "長岡",
    "total_distance_km": 347.7,
    "latitude": 35.0983830570079,
    "longitude": 136.92705520414785,
    "is_shadow_confederation": false
  },
  {
    "rank": 17,
    "team_name": "東北大学",
    "team_short_name": "東北",
    "runner_name": "高畠",
    "total_distance_km": 329.3,
    "latitude": 34.99383822285322,
    "longitude": 137.07583058766642,
    "is_shadow_confederation": false
  },
  {
    "rank": 18,
    "team_name": "学連選抜",
    "team_short_name": "学連",
    "runner_name": "大村",
    "total_distance_km": 324.0,
    "latitude": 34.97044534105609,
    "longitude": 137.12577141482478,
    "is_shadow_confederation": false
  }
]