[
  {
    "rank": 1,
    "team_name": "琉球大学",
    "team_short_name": "琉球",
    "runner_name": "久米島",
    "total_distance_km": 587.8,
    "latitude": 34.646719468350874,
    "longitude": 135.0016939210355,
    "is_shadow_confederation": false
  },
  {
    "rank": 2,
    "team_name": "熊本学園大学",
    "team_short_name": "熊学",
    "runner_name": "熊本",
    "total_distance_km": 517.0,
    "latitude": 34.80257921919166,
    "longitude": 135.6389656766784,
    "is_shadow_confederation": false
  },
  {
    "rank": 3,
    "team_name": "鹿児島大学",
    "team_short_name": "鹿大",
    "runner_name": "西都",
    "total_distance_km": 501.8,
    "latitude": 34.90002462420842,
    "longitude": 135.74404465887147,
    "is_shadow_confederation": false
  },
  {
    "rank": 4,
    "team_name": "福岡大学",
    "team_short_name": "福岡",
    "runner_name": "前原",
    "total_distance_km": 485.3,
    "latitude": 35.00459117479634,
    "longitude": 135.79098516961793,
    "is_shadow_confederation": false
  },
  {
    "rank": 5,
    "team_name": "四国大学",
    "team_short_name": "四国",
    "runner_name": "大洲",
    "total_distance_km": 469.8,
    "latitude": 34.98481216262449,
    "longitude": 135.92496104588514,
    "is_shadow_confederation": false
  },
  {
    "rank": 6,
    "team_name": "広島経済大学",
    "team_short_name": "広経",
    "runner_name": "高梁",
    "total_distance_km": 448.1,
    "latitude": 34.98526116972475,
    "longitude": 136.12494969036834,
    "is_shadow_confederation": false
  },
  {
    "rank": 7,
    "team_name": "鳥取大学",
    "team_short_name": "鳥取",
    "runner_name": "境",
    "total_distance_km": 438.5,
    "latitude": 34.95419747833382,
    "longitude": 136.21986606294422,
    "is_shadow_confederation": false
  },
  {
    "rank": 8,
    "team_name": "名古屋大学",
    "team_short_name": "名大",
    "runner_name": "多治見",
    "total_distance_km": 436.3,
    "latitude": 34.94561925309408,
    "longitude": 136.2411534536511,
    "is_shadow_confederation": false
  },
  {
    "rank": 9,
    "team_name": "関西大学",
    "team_short_name": "関大",
    "runner_name": "枚方",
    "total_distance_km": 435.9,
    "latitude": 34.94412904958854,
    "longitude": 136.24512940273019,
    "is_shadow_confederation": false
  },
  {
    "rank": 10,
    "team_name": "立命館大学",
    "team_short_name": "立命",
    "runner_name": "舞鶴",
    "total_distance_km": 427.2,
    "latitude": 34.90912722384721,
    "longitude": 136.3250890844485,
    "is_shadow_confederation": false
  },
  {
    "rank": 11,
    "team_name": "三重大学",
    "team_short_name": "三重",
    "runner_name": "奈良",
    "total_distance_km": 421.7,
    "latitude": 34.88117726986887,
    "longitude": 136.35910768025752,
    "is_shadow_confederation": false
  },
  {
    "rank": 12,
    "team_name": "日本大学",
    "team_short_name": "日大",
    "runner_name": "小田原",
    "total_distance_km": 409.5,
    "latitude": 34.85042117385648,
    "longitude": 136.46263093676575,
    "is_shadow_confederation": false
  },
  {
    "rank": 13,
    "team_name": "金沢大学",
    "team_short_name": "金沢",
    "runner_name": "志賀",
    "total_distance_km": 406.0,
    "latitude": 34.868928721654584,
    "longitude": 136.49091347834405,
    "is_shadow_confederation": false
  },
  {
    "rank": 14,
    "team_name": "上武大学",
    "team_short_name": "上武",
    "runner_name": "寄居",
    "total_distance_km": 404.0,
    "latitude": 34.87712713820143,
    "longitude": 136.50775554160788,
    "is_shadow_confederation": false
  },
  {
    "rank": 15,
    "team_name": "山梨学院大学",
    "team_short_name": "山学",
    "runner_name": "浜松",
    "total_distance_km": 384.8,
    "latitude": 34.991116916184254,
    "longitude": 136.64139153101894,
    "is_shadow_confederation": false
  },
  {
    "rank": 16,
    "team_name": "福島大学",
    "team_short_name": "福島",
    "runner_name": "長岡",
    "total_distance_km": 356.4,
    "latitude": 35.124162344187816,
    "longitude": 136.85117932698105,
    "is_shadow_confederation": false
  },
  {
    "rank": 17,
    "team_name": "学連選抜",
    "team_short_name": "学連",
    "runner_name": "上",
    "total_distance_km": 336.8,
    "latitude": 35.03642554348131,
    "longitude": 137.0135453782038,
    "is_shadow_confederation": false
  },
  {
    "rank": 18,
    "team_name": "東北大学",
    "team_short_name": "東北",
    "runner_name": "高畠",
    "total_distance_km": 298.0,
    "latitude": 34.82849015858484,
    "longitude": 137.33585327234505,
    "is_shadow_confederation": false
  }
]