[
  {
    "rank": 1,
    "team_name": "琉球大学",
    "team_short_name": "琉球",
    "runner_name": "那覇",
    "total_distance_km": 696.9,
    "latitude": 34.69108415066359,
    "longitude": 134.00751656450797,
    "is_shadow_confederation": false
  },
  {
    "rank": 2,
    "team_name": "名古屋大学",
    "team_short_name": "名大",
    "runner_name": "名古屋",
    "total_distance_km": 693.2,
    "latitude": 34.70380621092375,
    "longitude": 134.0436452529806,
    "is_shadow_confederation": false
  },
  {
    "rank": 3,
    "team_name": "四国大学",
    "team_short_name": "四国",
    "runner_name": "新居浜",
    "total_distance_km": 690.3,
    "latitude": 34.70703922456647,
    "longitude": 134.07418702995014,
    "is_shadow_confederation": false
  },
  {
    "rank": 4,
    "team_name": "関西大学",
    "team_short_name": "関大",
    "runner_name": "八尾（大阪）",
    "total_distance_km": 687.6,
    "latitude": 34.71680014052041,
    "longitude": 134.09817688058607,
    "is_shadow_confederation": false
  },
  {
    "rank": 5,
    "team_name": "熊本学園大学",
    "team_short_name": "熊学",
    "runner_name": "犬飼",
    "total_distance_km": 686.7,
    "latitude": 34.723631140401594,
    "longitude": 134.10346215305609,
    "is_shadow_confederation": false
  },
  {
    "rank": 6,
    "team_name": "立命館大学",
    "team_short_name": "立命",
    "runner_name": "長浜（滋賀）",
    "total_distance_km": 684.4,
    "latitude": 34.73031788269883,
    "longitude": 134.1268297704714,
    "is_shadow_confederation": false
  },
  {
    "rank": 7,
    "team_name": "福岡大学",
    "team_short_name": "福岡",
    "runner_name": "口之津",
    "total_distance_km": 683.4,
    "latitude": 34.73359143311044,
    "longitude": 134.1369937498158,
    "is_shadow_confederation": false
  },
  {
    "rank": 8,
    "team_name": "広島経済大学",
    "team_short_name": "広経",
    "runner_name": "福山",
    "total_distance_km": 683.0,
    "latitude": 34.734952598675015,
    "longitude": 134.14103820219557,
    "is_shadow_confederation": false
  },
  {
    "rank": 9,
    "team_name": "鹿児島大学",
    "team_short_name": "鹿大",
    "runner_name": "鹿児島",
    "total_distance_km": 678.4,
    "latitude": 34.74659272007481,
    "longitude": 134.18901629124147,
    "is_shadow_confederation": false
  },
  {
    "rank": 10,
    "team_name": "三重大学",
    "team_short_name": "三重",
    "runner_name": "津",
    "total_distance_km": 675.9,
    "latitude": 34.75677904804984,
    "longitude": 134.21318535685802,
    "is_shadow_confederation": false
  },
  {
    "rank": 11,
    "team_name": "山梨学院大学",
    "team_short_name": "山学",
    "runner_name": "三島",
    "total_distance_km": 669.1,
    "latitude": 34.795475209846636,
    "longitude": 134.26580026331536,
    "is_shadow_confederation": false
  },
  {
    "rank": 12,
    "team_name": "日本大学",
    "team_short_name": "日大",
    "runner_name": "練馬",
    "total_distance_km": 666.2,
    "latitude": 34.813800693329746,
    "longitude": 134.28738051223775,
    "is_shadow_confederation": false
  },
  {
    "rank": 13,
    "team_name": "鳥取大学",
    "team_short_name": "鳥取",
    "runner_name": "松江",
    "total_distance_km": 660.0,
    "latitude": 34.84269610086922,
    "longitude": 134.33557623699573,
    "is_shadow_confederation": false
  },
  {
    "rank": 14,
    "team_name": "上武大学",
    "team_short_name": "上武",
    "runner_name": "伊勢崎",
    "total_distance_km": 658.8,
    "latitude": 34.835971237118535,
    "longitude": 134.34578854595404,
    "is_shadow_confederation": false
  },
  {
    "rank": 15,
    "team_name": "金沢大学",
    "team_short_name": "金沢",
    "runner_name": "富山",
    "total_distance_km": 656.4,
    "latitude": 34.82558283512715,
    "longitude": 134.3686069874964,
    "is_shadow_confederation": false
  },
  {
    "rank": 16,
    "team_name": "福島大学",
    "team_short_name": "福島",
    "runner_name": "浪江",
    "total_distance_km": 637.3,
    "latitude": 34.83340950695929,
    "longitude": 134.5660933829569,
    "is_shadow_confederation": false
  },
  {
    "rank": 17,
    "team_name": "学連選抜",
    "team_short_name": "学連",
    "runner_name": "多度津",
    "total_distance_km": 626.8,
    "latitude": 34.84001596982265,
    "longitude": 134.6650757810929,
    "is_shadow_confederation": false
  },
  {
    "rank": 18,
    "team_name": "東北大学",
    "team_short_name": "東北",
    "runner_name": "丸森",
    "total_distance_km": 585.1,
    "latitude": 34.63768845033379,
    "longitude": 135.02844584389348,
    "is_shadow_confederation": false
  },
  {
    "rank": null,
    "team_name": "区間記録連合",
    "team_short_name": "区間記録",
    "runner_name": "新居浜",
    "total_distance_km": 717.4,
    "latitude": 34.631529999365576,
    "longitude": 133.80756768148754,
    "is_shadow_confederation": true
  }
]