[
  {
    "rank": 1,
    "team_name": "名古屋大学",
    "team_short_name": "名大",
    "runner_name": "豊田（愛知）",
    "total_distance_km": 575.2,
    "latitude": 34.65013091210602,
    "longitude": 135.12469444304654,
    "is_shadow_confederation": false
  },
  {
    "rank": 2,
    "team_name": "四国大学",
    "team_short_name": "四国",
    "runner_name": "徳島",
    "total_distance_km": 570.2,
    "latitude": 34.675735773096875,
    "longitude": 135.1688125665444,
    "is_shadow_confederation": false
  },
  {
    "rank": 3,
    "team_name": "熊本学園大学",
    "team_short_name": "熊学",
    "runner_name": "大分",
    "total_distance_km": 566.4,
    "latitude": 34.69601077731556,
    "longitude": 135.20119988138902,
    "is_shadow_confederation": false
  },
  {
    "rank": 4,
    "team_name": "福岡大学",
    "team_short_name": "福岡",
    "runner_name": "博多",
    "total_distance_km": 566.3,
    "latitude": 34.69641847710349,
    "longitude": 135.2021732797551,
    "is_shadow_confederation": false
  },
  {
    "rank": 5,
    "team_name": "琉球大学",
    "team_short_name": "琉球",
    "runner_name": "久米島",
    "total_distance_km": 565.1,
    "latitude": 34.70149735821766,
    "longitude": 135.21373661037603,
    "is_shadow_confederation": false
  },
  {
    "rank": 6,
    "team_name": "立命館大学",
    "team_short_name": "立命",
    "runner_name": "彦根",
    "total_distance_km": 564.0,
    "latitude": 34.70469778672328,
    "longitude": 135.2244893017302,
    "is_shadow_confederation": false
  },
  {
    "rank": 7,
    "team_name": "関西大学",
    "team_short_name": "関大",
    "runner_name": "豊中",
    "total_distance_km": 560.6,
    "latitude": 34.71747533989506,
    "longitude": 135.25703750841507,
    "is_shadow_confederation": false
  },
  {
    "rank": 8,
    "team_name": "広島経済大学",
    "team_short_name": "広経",
    "runner_name": "高松（香川）",
    "total_distance_km": 560.2,
    "latitude": 34.71832482575133,
    "longitude": 135.261247674575,
    "is_shadow_confederation": false
  },
  {
    "rank": 9,
    "team_name": "日本大学",
    "team_short_name": "日大",
    "runner_name": "牛久",
    "total_distance_km": 553.9,
    "latitude": 34.73685283245699,
    "longitude": 135.32613509123382,
    "is_shadow_confederation": false
  },
  {
    "rank": 10,
    "team_name": "三重大学",
    "team_short_name": "三重",
    "runner_name": "新宮",
    "total_distance_km": 553.7,
    "latitude": 34.73739454063875,
    "longitude": 135.32821806440114,
    "is_shadow_confederation": false
  },
  {
    "rank": 11,
    "team_name": "鹿児島大学",
    "team_short_name": "鹿大",
    "runner_name": "笠利",
    "total_distance_km": 553.2,
    "latitude": 34.73844955759677,
    "longitude": 135.33348614328898,
    "is_shadow_confederation": false
  },
  {
    "rank": 12,
    "team_name": "鳥取大学",
    "team_short_name": "鳥取",
    "runner_name": "境",
    "total_distance_km": 551.2,
    "latitude": 34.73659317124373,
    "longitude": 135.35514944090824,
    "is_shadow_confederation": false
  },
  {
    "rank": 13,
    "team_name": "山梨学院大学",
    "team_short_name": "山学",
    "runner_name": "甲府",
    "total_distance_km": 549.7,
    "latitude": 34.73351606290696,
    "longitude": 135.37109852278166,
    "is_shadow_confederation": false
  },
  {
    "rank": 14,
    "team_name": "金沢大学",
    "team_short_name": "金沢",
    "runner_name": "福井",
    "total_distance_km": 542.9,
    "latitude": 34.719446085488194,
    "longitude": 135.44244620372257,
    "is_shadow_confederation": false
  },
  {
    "rank": 15,
    "team_name": "上武大学",
    "team_short_name": "上武",
    "runner_name": "桐生",
    "total_distance_km": 542.3,
    "latitude": 34.715557095591876,
    "longitude": 135.44685985182122,
    "is_shadow_confederation": false
  },
  {
    "rank": 16,
    "team_name": "福島大学",
    "team_short_name": "福島",
    "runner_name": "福島",
    "total_distance_km": 532.1,
    "latitude": 34.700244586116234,
    "longitude": 135.54556198069122,
    "is_shadow_confederation": false
  },
  {
    "rank": 17,
    "team_name": "学連選抜",
    "team_short_name": "学連",
    "runner_name": "久世",
    "total_distance_km": 507.3,
    "latitude": 34.85937471257807,
    "longitude": 135.71450902543322,
    "is_shadow_confederation": false
  },
  {
    "rank": 18,
    "team_name": "東北大学",
    "team_short_name": "東北",
    "runner_name": "一関",
    "total_distance_km": 482.3,
    "latitude": 34.989785682536926,
    "longitude": 135.81521600679153,
    "is_shadow_confederation": false
  },
  {
    "rank": null,
    "team_name": "区間記録連合",
    "team_short_name": "区間記録",
    "runner_name": "勝沼",
    "total_distance_km": 583.7,
    "latitude": 34.629041837430236,
    "longitude": 135.039198324998,
    "is_shadow_confederation": true
  }
]