[
  {
    "rank": 1,
    "team_name": "琉球大学",
    "team_short_name": "琉球",
    "runner_name": "ゴール",
    "total_distance_km": 1057.8,
    "latitude": 33.950916,
    "longitude": 130.924104,
    "is_shadow_confederation": false
  },
  {
    "rank": 2,
    "team_name": "鹿児島大学",
    "team_short_name": "鹿大",
    "runner_name": "喜入",
    "total_distance_km": 933.3,
    "latitude": 34.06766013242485,
    "longitude": 131.97829531594678,
    "is_shadow_confederation": false
  },
  {
    "rank": 3,
    "team_name": "熊本学園大学",
    "team_short_name": "熊学",
    "runner_name": "菊池",
    "total_distance_km": 892.2,
    "latitude": 34.27310518071499,
    "longitude": 132.25853369407355,
    "is_shadow_confederation": false
  },
  {
    "rank": 4,
    "team_name": "福岡大学",
    "team_short_name": "福岡",
    "runner_name": "佐賀（佐賀）",
    "total_distance_km": 878.6,
    "latitude": 34.362993113577375,
    "longitude": 132.3465492315478,
    "is_shadow_confederation": false
  },
  {
    "rank": 5,
    "team_name": "四国大学",
    "team_short_name": "四国",
    "runner_name": "江川崎",
    "total_distance_km": 842.9,
    "latitude": 34.44518721513001,
    "longitude": 132.65897962319247,
    "is_shadow_confederation": false
  },
  {
    "rank": 6,
    "team_name": "広島経済大学",
    "team_short_name": "広経",
    "runner_name": "引田",
    "total_distance_km": 821.6,
    "latitude": 34.40061128038707,
    "longitude": 132.8599610050389,
    "is_shadow_confederation": false
  },
  {
    "rank": 7,
    "team_name": "関西大学",
    "team_short_name": "関大",
    "runner_name": "郡家",
    "total_distance_km": 807.9,
    "latitude": 34.40600897279863,
    "longitude": 132.98527048895298,
    "is_shadow_confederation": false
  },
  {
    "rank": 8,
    "team_name": "鳥取大学",
    "team_short_name": "鳥取",
    "runner_name": "玖珂",
    "total_distance_km": 804.2,
    "latitude": 34.399444252748054,
    "longitude": 133.01977502597356,
    "is_shadow_confederation": false
  },
  {
    "rank": 9,
    "team_name": "名古屋大学",
    "team_short_name": "名大",
    "runner_name": "大府",
    "total_distance_km": 801.3,
    "latitude": 34.39420092641652,
    "longitude": 133.0493088615448,
    "is_shadow_confederation": false
  },
  {
    "rank": 10,
    "team_name": "三重大学",
    "team_short_name": "三重",
    "runner_name": "和歌山",
    "total_distance_km": 790.2,
    "latitude": 34.3939629419875,
    "longitude": 133.15092531819965,
    "is_shadow_confederation": false
  },
  {
    "rank": 11,
    "team_name": "立命館大学",
    "team_short_name": "立命",
    "runner_name": "京都",
    "total_distance_km": 762.3,
    "latitude": 34.48871473974815,
    "longitude": 133.39319565452456,
    "is_shadow_confederation": false
  },
  {
    "rank": 12,
    "team_name": "上武大学",
    "team_short_name": "上武",
    "runner_name": "前橋",
    "total_distance_km": 756.0,
    "latitude": 34.502797397363366,
    "longitude": 133.45387760050357,
    "is_shadow_confederation": false
  },
  {
    "rank": 13,
    "team_name": "日本大学",
    "team_short_name": "日大",
    "runner_name": "府中（東京）",
    "total_distance_km": 752.8,
    "latitude": 34.5089393176947,
    "longitude": 133.48615975422683,
    "is_shadow_confederation": false
  },
  {
    "rank": 14,
    "team_name": "山梨学院大学",
    "team_short_name": "山学",
    "runner_name": "三島",
    "total_distance_km": 750.2,
    "latitude": 34.5007671318079,
    "longitude": 133.50852576592405,
    "is_shadow_confederation": false
  },
  {
    "rank": 15,
    "team_name": "金沢大学",
    "team_short_name": "金沢",
    "runner_name": "敦賀",
    "total_distance_km": 749.2,
    "latitude": 34.49880956243526,
    "longitude": 133.5190845304431,
    "is_shadow_confederation": false
  },
  {
    "rank": 16,
    "team_name": "学連選抜",
    "team_short_name": "学連",
    "runner_name": "加世田",
    "total_distance_km": 712.1,
    "latitude": 34.64547492474667,
    "longitude": 133.8610191859793,
    "is_shadow_confederation": false
  },
  {
    "rank": 17,
    "team_name": "福島大学",
    "team_short_name": "福島",
    "runner_name": "寺泊",
    "total_distance_km": 664.7,
    "latitude": 34.824628005330524,
    "longitude": 134.29701018994123,
    "is_shadow_confederation": false
  },
  {
    "rank": 18,
    "team_name": "東北大学",
    "team_short_name": "東北",
    "runner_name": "丸森",
    "total_distance_km": 570.6,
    "latitude": 34.67351968128759,
    "longitude": 135.16536965656817,
    "is_shadow_confederation": false
  }
]