[
  {
    "rank": 1,
    "team_name": "琉球大学",
    "team_short_name": "琉球",
    "runner_name": "名護",
    "total_distance_km": 357.8,
    "latitude": 35.124186277309704,
    "longitude": 136.83582006469885,
    "is_shadow_confederation": false
  },
  {
    "rank": 2,
    "team_name": "熊本学園大学",
    "team_short_name": "熊学",
    "runner_name": "人吉",
    "total_distance_km": 344.7,
    "latitude": 35.07775692761202,
    "longitude": 136.9463011908341,
    "is_shadow_confederation": false
  },
  {
    "rank": 3,
    "team_name": "福岡大学",
    "team_short_name": "福岡",
    "runner_name": "朝倉",
    "total_distance_km": 333.8,
    "latitude": 35.01684390489834,
    "longitude": 137.03600176276413,
    "is_shadow_confederation": false
  },
  {
    "rank": 4,
    "team_name": "立命館大学",
    "team_short_name": "立命",
    "runner_name": "米原",
    "total_distance_km": 333.2,
    "latitude": 35.01358807769586,
    "longitude": 137.04119162840948,
    "is_shadow_confederation": false
  },
  {
    "rank": 5,
    "team_name": "四国大学",
    "team_short_name": "四国",
    "runner_name": "御荘",
    "total_distance_km": 329.5,
    "latitude": 34.99465870731548,
    "longitude": 137.07387989837218,
    "is_shadow_confederation": false
  },
  {
    "rank": 6,
    "team_name": "鹿児島大学",
    "team_short_name": "鹿大",
    "runner_name": "加久藤",
    "total_distance_km": 327.7,
    "latitude": 34.98563839851103,
    "longitude": 137.09015730428573,
    "is_shadow_confederation": false
  },
  {
    "rank": 7,
    "team_name": "名古屋大学",
    "team_short_name": "名大",
    "runner_name": "大垣",
    "total_distance_km": 324.2,
    "latitude": 34.97131783118832,
    "longitude": 137.12387215697927,
    "is_shadow_confederation": false
  },
  {
    "rank": 8,
    "team_name": "三重大学",
    "team_short_name": "三重",
    "runner_name": "小俣",
    "total_distance_km": 323.8,
    "latitude": 34.96934537878198,
    "longitude": 137.1274900229189,
    "is_shadow_confederation": false
  },
  {
    "rank": 9,
    "team_name": "広島経済大学",
    "team_short_name": "広経",
    "runner_name": "府中（広島）",
    "total_distance_km": 323.7,
    "latitude": 34.968976186767726,
    "longitude": 137.12848898160095,
    "is_shadow_confederation": false
  },
  {
    "rank": 10,
    "team_name": "関西大学",
    "team_short_name": "関大",
    "runner_name": "上郡",
    "total_distance_km": 322.2,
    "latitude": 34.962111833715014,
    "longitude": 137.1424681320035,
    "is_shadow_confederation": false
  },
  {
    "rank": 11,
    "team_name": "鳥取大学",
    "team_short_name": "鳥取",
    "runner_name": "広瀬",
    "total_distance_km": 321.4,
    "latitude": 34.9589317378262,
    "longitude": 137.15030459166056,
    "is_shadow_confederation": false
  },
  {
    "rank": 12,
    "team_name": "山梨学院大学",
    "team_short_name": "山学",
    "runner_name": "大月",
    "total_distance_km": 318.8,
    "latitude": 34.952523836247536,
    "longitude": 137.1773021505047,
    "is_shadow_confederation": false
  },
  {
    "rank": 13,
    "team_name": "金沢大学",
    "team_short_name": "金沢",
    "runner_name": "七尾",
    "total_distance_km": 318.1,
    "latitude": 34.94894182817037,
    "longitude": 137.18360465072806,
    "is_shadow_confederation": false
  },
  {
    "rank": 14,
    "team_name": "上武大学",
    "team_short_name": "上武",
    "runner_name": "熊谷",
    "total_distance_km": 313.3,
    "latitude": 34.91596718268987,
    "longitude": 137.2146742414103,
    "is_shadow_confederation": false
  },
  {
    "rank": 15,
    "team_name": "日本大学",
    "team_short_name": "日大",
    "runner_name": "下館",
    "total_distance_km": 309.9,
    "latitude": 34.898461987936045,
    "longitude": 137.24389508422396,
    "is_shadow_confederation": false
  },
  {
    "rank": 16,
    "team_name": "福島大学",
    "team_short_name": "福島",
    "runner_name": "津川",
    "total_distance_km": 282.2,
    "latitude": 34.72274001736955,
    "longitude": 137.43875743516585,
    "is_shadow_confederation": false
  },
  {
    "rank": 17,
    "team_name": "東北大学",
    "team_short_name": "東北",
    "runner_name": "高畠",
    "total_distance_km": 273.0,
    "latitude": 34.67982703214356,
    "longitude": 137.5112121227675,
    "is_shadow_confederation": false
  },
  {
    "rank": 18,
    "team_name": "学連選抜",
    "team_short_name": "学連",
    "runner_name": "大村",
    "total_distance_km": 263.4,
    "latitude": 34.687444214474894,
    "longitude": 137.60882495500223,
    "is_shadow_confederation": false
  }
]