[
  {
    "rank": 1,
    "team_name": "琉球大学",
    "team_short_name": "琉球",
    "runner_name": "久米島",
    "total_distance_km": 586.9,
    "latitude": 34.64526494953778,
    "longitude": 135.01129032459428,
    "is_shadow_confederation": false
  },
  {
    "rank": 2,
    "team_name": "熊本学園大学",
    "team_short_name": "熊学",
    "runner_name": "熊本",
    "total_distance_km": 513.4,
    "latitude": 34.81732499457995,
    "longitude": 135.67305858052933,
    "is_shadow_confederation": false
  },
  {
    "rank": 3,
    "team_name": "鹿児島大学",
    "team_short_name": "鹿大",
    "runner_name": "西都",
    "total_distance_km": 498.6,
    "latitude": 34.92886140514375,
    "longitude": 135.74486474935316,
    "is_shadow_confederation": false
  },
  {
    "rank": 4,
    "team_name": "福岡大学",
    "team_short_name": "福岡",
    "runner_name": "前原",
    "total_distance_km": 484.5,
    "latitude": 34.99863457863019,
    "longitude": 135.79484310447273,
    "is_shadow_confederation": false
  },
  {
    "rank": 5,
    "team_name": "四国大学",
    "team_short_name": "四国",
    "runner_name": "大洲",
    "total_distance_km": 466.0,
    "latitude": 35.00750050122609,
    "longitude": 135.95567803439167,
    "is_shadow_confederation": false
  },
  {
    "rank": 6,
    "team_name": "広島経済大学",
    "team_short_name": "広経",
    "runner_name": "高梁",
    "total_distance_km": 445.2,
    "latitude": 34.980265996829445,
    "longitude": 136.1559547831375,
    "is_shadow_confederation": false
  },
  {
    "rank": 7,
    "team_name": "鳥取大学",
    "team_short_name": "鳥取",
    "runner_name": "境",
    "total_distance_km": 436.4,
    "latitude": 34.9459394154299,
    "longitude": 136.240131814646,
    "is_shadow_confederation": false
  },
  {
    "rank": 8,
    "team_name": "関西大学",
    "team_short_name": "関大",
    "runner_name": "枚方",
    "total_distance_km": 433.9,
    "latitude": 34.93804971982838,
    "longitude": 136.26541869745824,
    "is_shadow_confederation": false
  },
  {
    "rank": 9,
    "team_name": "名古屋大学",
    "team_short_name": "名大",
    "runner_name": "多治見",
    "total_distance_km": 433.0,
    "latitude": 34.93862113083342,
    "longitude": 136.2751818948052,
    "is_shadow_confederation": false
  },
  {
    "rank": 10,
    "team_name": "立命館大学",
    "team_short_name": "立命",
    "runner_name": "舞鶴",
    "total_distance_km": 424.4,
    "latitude": 34.8900174684802,
    "longitude": 136.33734516494465,
    "is_shadow_confederation": false
  },
  {
    "rank": 11,
    "team_name": "三重大学",
    "team_short_name": "三重",
    "runner_name": "奈良",
    "total_distance_km": 419.6,
    "latitude": 34.86920946425628,
    "longitude": 136.37054299287453,
    "is_shadow_confederation": false
  },
  {
    "rank": 12,
    "team_name": "日本大学",
    "team_short_name": "日大",
    "runner_name": "小田原",
    "total_distance_km": 408.6,
    "latitude": 34.85240228666033,
    "longitude": 136.47217412371128,
    "is_shadow_confederation": false
  },
  {
    "rank": 13,
    "team_name": "金沢大学",
    "team_short_name": "金沢",
    "runner_name": "志賀",
    "total_distance_km": 404.1,
    "latitude": 34.87699201024211,
    "longitude": 136.50667409143793,
    "is_shadow_confederation": false
  },
  {
    "rank": 14,
    "team_name": "上武大学",
    "team_short_name": "上武",
    "runner_name": "寄居",
    "total_distance_km": 402.4,
    "latitude": 34.880695484554664,
    "longitude": 136.52420941618394,
    "is_shadow_confederation": false
  },
  {
    "rank": 15,
    "team_name": "山梨学院大学",
    "team_short_name": "山学",
    "runner_name": "浜松",
    "total_distance_km": 383.9,
    "latitude": 34.99743599271154,
    "longitude": 136.64754817030513,
    "is_shadow_confederation": false
  },
  {
    "rank": 16,
    "team_name": "福島大学",
    "team_short_name": "福島",
    "runner_name": "長岡",
    "total_distance_km": 354.9,
    "latitude": 35.12477617562493,
    "longitude": 136.86761396869676,
    "is_shadow_confederation": false
  },
  {
    "rank": 17,
    "team_name": "学連選抜",
    "team_short_name": "学連",
    "runner_name": "上",
    "total_distance_km": 331.0,
    "latitude": 35.001084694848075,
    "longitude": 137.05942771206705,
    "is_shadow_confederation": false
  },
  {
    "rank": 18,
    "team_name": "東北大学",
    "team_short_name": "東北",
    "runner_name": "高畠",
    "total_distance_km": 297.1,
    "latitude": 34.82318631572865,
    "longitude": 137.34311897100704,
    "is_shadow_confederation": false
  }
]