[
  {
    "rank": 1,
    "team_name": "琉球大学",
    "team_short_name": "琉球",
    "runner_name": "波照間",
    "total_distance_km": 510.6,
    "latitude": 34.83596409909483,
    "longitude": 135.69361101208867,
    "is_shadow_confederation": false
  },
  {
    "rank": 2,
    "team_name": "鹿児島大学",
    "team_short_name": "鹿大",
    "runner_name": "西米良",
    "total_distance_km": 398.1,
    "latitude": 34.90843835471436,
    "longitude": 136.55055030368132,
    "is_shadow_confederation": false
  },
  {
    "rank": 3,
    "team_name": "熊本学園大学",
    "team_short_name": "熊学",
    "runner_name": "人吉",
    "total_distance_km": 390.0,
    "latitude": 34.95310305725283,
    "longitude": 136.61095366339055,
    "is_shadow_confederation": false
  },
  {
    "rank": 4,
    "team_name": "福岡大学",
    "team_short_name": "福岡",
    "runner_name": "朝倉",
    "total_distance_km": 367.1,
    "latitude": 35.11409041789521,
    "longitude": 136.73605250675493,
    "is_shadow_confederation": false
  },
  {
    "rank": 5,
    "team_name": "名古屋大学",
    "team_short_name": "名大",
    "runner_name": "愛西",
    "total_distance_km": 338.7,
    "latitude": 35.05014854303114,
    "longitude": 137.00118947715345,
    "is_shadow_confederation": false
  },
  {
    "rank": 6,
    "team_name": "四国大学",
    "team_short_name": "四国",
    "runner_name": "松山",
    "total_distance_km": 335.3,
    "latitude": 35.02607111042525,
    "longitude": 137.0240833544279,
    "is_shadow_confederation": false
  },
  {
    "rank": 7,
    "team_name": "上武大学",
    "team_short_name": "上武",
    "runner_name": "熊谷",
    "total_distance_km": 324.1,
    "latitude": 34.97093327144133,
    "longitude": 137.12486255093086,
    "is_shadow_confederation": false
  },
  {
    "rank": 8,
    "team_name": "広島経済大学",
    "team_short_name": "広経",
    "runner_name": "府中（広島）",
    "total_distance_km": 321.6,
    "latitude": 34.9596026660606,
    "longitude": 137.14827210349264,
    "is_shadow_confederation": false
  },
  {
    "rank": 9,
    "team_name": "日本大学",
    "team_short_name": "日大",
    "runner_name": "下館",
    "total_distance_km": 320.6,
    "latitude": 34.95813952686449,
    "longitude": 137.15899133285245,
    "is_shadow_confederation": false
  },
  {
    "rank": 10,
    "team_name": "三重大学",
    "team_short_name": "三重",
    "runner_name": "小俣",
    "total_distance_km": 319.7,
    "latitude": 34.95580466380111,
    "longitude": 137.16839985949468,
    "is_shadow_confederation": false
  },
  {
    "rank": 11,
    "team_name": "鳥取大学",
    "team_short_name": "鳥取",
    "runner_name": "広瀬",
    "total_distance_km": 317.3,
    "latitude": 34.94430092885043,
    "longitude": 137.1901474388064,
    "is_shadow_confederation": false
  },
  {
    "rank": 12,
    "team_name": "関西大学",
    "team_short_name": "関大",
    "runner_name": "上郡",
    "total_distance_km": 308.9,
    "latitude": 34.89508083126449,
    "longitude": 137.2538604642636,
    "is_shadow_confederation": false
  },
  {
    "rank": 13,
    "team_name": "立命館大学",
    "team_short_name": "立命",
    "runner_name": "京田辺",
    "total_distance_km": 301.0,
    "latitude": 34.850347056823274,
    "longitude": 137.31763763825853,
    "is_shadow_confederation": false
  },
  {
    "rank": 14,
    "team_name": "福島大学",
    "team_short_name": "福島",
    "runner_name": "津川",
    "total_distance_km": 274.6,
    "latitude": 34.68574685557637,
    "longitude": 137.50003111675804,
    "is_shadow_confederation": false
  },
  {
    "rank": 15,
    "team_name": "山梨学院大学",
    "team_short_name": "山学",
    "runner_name": "大月",
    "total_distance_km": 273.3,
    "latitude": 34.67994797886462,
    "longitude": 137.50803221042133,
    "is_shadow_confederation": false
  },
  {
    "rank": 16,
    "team_name": "金沢大学",
    "team_short_name": "金沢",
    "runner_name": "七尾",
    "total_distance_km": 254.2,
    "latitude": 34.68828047279881,
    "longitude": 137.70753768182342,
    "is_shadow_confederation": false
  },
  {
    "rank": 17,
    "team_name": "東北大学",
    "team_short_name": "東北",
    "runner_name": "山形（山形）",
    "total_distance_km": 198.8,
    "latitude": 34.85831156269293,
    "longitude": 138.2081770976282,
    "is_shadow_confederation": false
  },
  {
    "rank": 18,
    "team_name": "学連選抜",
    "team_short_name": "学連",
    "runner_name": "美幌",
    "total_distance_km": 102.0,
    "latitude": 35.184288039526045,
    "longitude": 139.01702215085805,
    "is_shadow_confederation": false
  },
  {
    "rank": null,
    "team_name": "区間記録連合",
    "team_short_name": "区間記録",
    "runner_name": "桐生",
    "total_distance_km": 565.2,
    "latitude": 34.701070492371635,
    "longitude": 135.21277528303625,
    "is_shadow_confederation": true
  }
]