[
  {
    "rank": 1,
    "team_name": "琉球大学",
    "team_short_name": "琉球",
    "runner_name": "北原",
    "total_distance_km": 19.0,
    "latitude": 35.531459049177975,
    "longitude": 139.70575044318488,
    "is_shadow_confederation": false
  },
  {
    "rank": 2,
    "team_name": "鹿児島大学",
    "team_short_name": "鹿大",
    "runner_name": "東市来",
    "total_distance_km": 8.3,
    "latitude": 35.61978131452107,
    "longitude": 139.7401791265636,
    "is_shadow_confederation": false
  },
  {
    "rank": 3,
    "team_name": "上武大学",
    "team_short_name": "上武",
    "runner_name": "佐野",
    "total_distance_km": 8.0,
    "latitude": 35.622302806271186,
    "longitude": 139.73898352421284,
    "is_shadow_confederation": false
  },
  {
    "rank": 4,
    "team_name": "日本大学",
    "team_short_name": "日大",
    "runner_name": "大子",
    "total_distance_km": 6.8,
    "latitude": 35.632955442113705,
    "longitude": 139.73785047837828,
    "is_shadow_confederation": false
  },
  {
    "rank": 5,
    "team_name": "福岡大学",
    "team_short_name": "福岡",
    "runner_name": "久留米",
    "total_distance_km": 6.6,
    "latitude": 35.63470021145555,
    "longitude": 139.73840518366933,
    "is_shadow_confederation": false
  },
  {
    "rank": 6,
    "team_name": "四国大学",
    "team_short_name": "四国",
    "runner_name": "穴吹",
    "total_distance_km": 6.0,
    "latitude": 35.6398234072785,
    "longitude": 139.74047109944252,
    "is_shadow_confederation": false
  },
  {
    "rank": 7,
    "team_name": "福島大学",
    "team_short_name": "福島",
    "runner_name": "梁川",
    "total_distance_km": 5.6,
    "latitude": 35.64308244218074,
    "longitude": 139.74233280806845,
    "is_shadow_confederation": false
  },
  {
    "rank": 8,
    "team_name": "熊本学園大学",
    "team_short_name": "熊学",
    "runner_name": "甲佐",
    "total_distance_km": 5.2,
    "latitude": 35.64621761372698,
    "longitude": 139.74437916991047,
    "is_shadow_confederation": false
  },
  {
    "rank": 9,
    "team_name": "三重大学",
    "team_short_name": "三重",
    "runner_name": "粥見",
    "total_distance_km": 5.0,
    "latitude": 35.648012561110924,
    "longitude": 139.74458209243937,
    "is_shadow_confederation": false
  },
  {
    "rank": 10,
    "team_name": "関西大学",
    "team_short_name": "関大",
    "runner_name": "福崎",
    "total_distance_km": 4.9,
    "latitude": 35.64891003480289,
    "longitude": 139.74468355370382,
    "is_shadow_confederation": false
  },
  {
    "rank": 11,
    "team_name": "名古屋大学",
    "team_short_name": "名大",
    "runner_name": "美濃加茂",
    "total_distance_km": 4.6,
    "latitude": 35.6516024558788,
    "longitude": 139.74498793749717,
    "is_shadow_confederation": false
  },
  {
    "rank": 12,
    "team_name": "立命館大学",
    "team_short_name": "立命",
    "runner_name": "東近江",
    "total_distance_km": 4.2,
    "latitude": 35.6551678219573,
    "longitude": 139.745528410286,
    "is_shadow_confederation": false
  },
  {
    "rank": 13,
    "team_name": "金沢大学",
    "team_short_name": "金沢",
    "runner_name": "秋ヶ島",
    "total_distance_km": 3.3,
    "latitude": 35.66195190290798,
    "longitude": 139.74940131663277,
    "is_shadow_confederation": false
  },
  {
    "rank": 14,
    "team_name": "東北大学",
    "team_short_name": "東北",
    "runner_name": "帯広",
    "total_distance_km": 3.1,
    "latitude": 35.66375009603134,
    "longitude": 139.74955512716676,
    "is_shadow_confederation": false
  },
  {
    "rank": 15,
    "team_name": "鳥取大学",
    "team_short_name": "鳥取",
    "runner_name": "川本",
    "total_distance_km": 2.2,
    "latitude": 35.671399115557406,
    "longitude": 139.7525480807248,
    "is_shadow_confederation": false
  },
  {
    "rank": 16,
    "team_name": "広島経済大学",
    "team_short_name": "広経",
    "runner_name": "三次",
    "total_distance_km": 2.0,
    "latitude": 35.672999170631165,
    "longitude": 139.75356543783215,
    "is_shadow_confederation": false
  },
  {
    "rank": 17,
    "team_name": "山梨学院大学",
    "team_short_name": "山学",
    "runner_name": "長野",
    "total_distance_km": 1.6,
    "latitude": 35.676199280778675,
    "longitude": 139.75560015204684,
    "is_shadow_confederation": false
  },
  {
    "rank": 18,
    "team_name": "学連選抜",
    "team_short_name": "学連",
    "runner_name": "美幌",
    "total_distance_km": 0.6,
    "latitude": 35.684292078516975,
    "longitude": 139.7604239856244,
    "is_shadow_confederation": false
  }
]