[
  {
    "rank": 1,
    "team_name": "琉球大学",
    "team_short_name": "琉球",
    "runner_name": "仲筋",
    "total_distance_km": 210.6,
    "latitude": 34.819973123056194,
    "longitude": 138.11026355654,
    "is_shadow_confederation": false
  },
  {
    "rank": 2,
    "team_name": "鹿児島大学",
    "team_short_name": "鹿大",
    "runner_name": "川内（鹿児島）",
    "total_distance_km": 155.2,
    "latitude": 35.08696982955593,
    "longitude": 138.54865613048509,
    "is_shadow_confederation": false
  },
  {
    "rank": 3,
    "team_name": "熊本学園大学",
    "team_short_name": "熊学",
    "runner_name": "岱明",
    "total_distance_km": 150.8,
    "latitude": 35.112655689550515,
    "longitude": 138.57909403597304,
    "is_shadow_confederation": false
  },
  {
    "rank": 4,
    "team_name": "福岡大学",
    "team_short_name": "福岡",
    "runner_name": "福岡",
    "total_distance_km": 139.0,
    "latitude": 35.14541452809786,
    "longitude": 138.69234024119106,
    "is_shadow_confederation": false
  },
  {
    "rank": 5,
    "team_name": "名古屋大学",
    "team_short_name": "名大",
    "runner_name": "美濃",
    "total_distance_km": 124.6,
    "latitude": 35.1031625090357,
    "longitude": 138.83889590386525,
    "is_shadow_confederation": false
  },
  {
    "rank": 6,
    "team_name": "四国大学",
    "team_short_name": "四国",
    "runner_name": "大三島",
    "total_distance_km": 122.4,
    "latitude": 35.0994178665228,
    "longitude": 138.86214927044458,
    "is_shadow_confederation": false
  },
  {
    "rank": 7,
    "team_name": "三重大学",
    "team_short_name": "三重",
    "runner_name": "五條",
    "total_distance_km": 119.6,
    "latitude": 35.10612508544001,
    "longitude": 138.89091362225656,
    "is_shadow_confederation": false
  },
  {
    "rank": 8,
    "team_name": "上武大学",
    "team_short_name": "上武",
    "runner_name": "越谷",
    "total_distance_km": 119.1,
    "latitude": 35.108018973790976,
    "longitude": 138.895772958638,
    "is_shadow_confederation": false
  },
  {
    "rank": 9,
    "team_name": "日本大学",
    "team_short_name": "日大",
    "runner_name": "古河",
    "total_distance_km": 114.9,
    "latitude": 35.12430834238234,
    "longitude": 138.93559698030924,
    "is_shadow_confederation": false
  },
  {
    "rank": 10,
    "team_name": "関西大学",
    "team_short_name": "関大",
    "runner_name": "和田山",
    "total_distance_km": 110.5,
    "latitude": 35.14327983720965,
    "longitude": 138.97118266309585,
    "is_shadow_confederation": false
  },
  {
    "rank": 11,
    "team_name": "鳥取大学",
    "team_short_name": "鳥取",
    "runner_name": "川本",
    "total_distance_km": 105.4,
    "latitude": 35.16741751704659,
    "longitude": 139.00751581730427,
    "is_shadow_confederation": false
  },
  {
    "rank": 12,
    "team_name": "広島経済大学",
    "team_short_name": "広経",
    "runner_name": "三次",
    "total_distance_km": 105.1,
    "latitude": 35.169490157049005,
    "longitude": 139.00954112638732,
    "is_shadow_confederation": false
  },
  {
    "rank": 13,
    "team_name": "立命館大学",
    "team_short_name": "立命",
    "runner_name": "東近江",
    "total_distance_km": 102.1,
    "latitude": 35.18415204886766,
    "longitude": 139.01594823449437,
    "is_shadow_confederation": false
  },
  {
    "rank": 14,
    "team_name": "福島大学",
    "team_short_name": "福島",
    "runner_name": "梁川",
    "total_distance_km": 99.8,
    "latitude": 35.18733091542793,
    "longitude": 139.03795315722581,
    "is_shadow_confederation": false
  },
  {
    "rank": 15,
    "team_name": "金沢大学",
    "team_short_name": "金沢",
    "runner_name": "秋ヶ島",
    "total_distance_km": 79.2,
    "latitude": 35.27346964528228,
    "longitude": 139.20081685863028,
    "is_shadow_confederation": false
  },
  {
    "rank": 16,
    "team_name": "山梨学院大学",
    "team_short_name": "山学",
    "runner_name": "長野",
    "total_distance_km": 72.8,
    "latitude": 35.29904456177095,
    "longitude": 139.26181066384646,
    "is_shadow_confederation": false
  },
  {
    "rank": 17,
    "team_name": "東北大学",
    "team_short_name": "東北",
    "runner_name": "帯広",
    "total_distance_km": 64.0,
    "latitude": 35.31597078469359,
    "longitude": 139.3521089217369,
    "is_shadow_confederation": false
  },
  {
    "rank": 18,
    "team_name": "学連選抜",
    "team_short_name": "学連",
    "runner_name": "美幌",
    "total_distance_km": 13.2,
    "latitude": 35.577434757650224,
    "longitude": 139.73481281528768,
    "is_shadow_confederation": false
  },
  {
    "rank": null,
    "team_name": "区間記録連合",
    "team_short_name": "区間記録",
    "runner_name": "佐野",
    "total_distance_km": 210.6,
    "latitude": 34.819973123056194,
    "longitude": 138.11026355654,
    "is_shadow_confederation": true
  }
]