[
  {
    "rank": 1,
    "team_name": "琉球大学",
    "team_short_name": "琉球",
    "runner_name": "名護",
    "total_distance_km": 383.6,
    "latitude": 34.99937150399701,
    "longitude": 136.64976718469467,
    "is_shadow_confederation": false
  },
  {
    "rank": 2,
    "team_name": "鹿児島大学",
    "team_short_name": "鹿大",
    "runner_name": "加久藤",
    "total_distance_km": 290.0,
    "latitude": 34.772524670676475,
    "longitude": 137.3902312769179,
    "is_shadow_confederation": false
  },
  {
    "rank": 3,
    "team_name": "熊本学園大学",
    "team_short_name": "熊学",
    "runner_name": "八代",
    "total_distance_km": 284.2,
    "latitude": 34.73362233805679,
    "longitude": 137.42449597257706,
    "is_shadow_confederation": false
  },
  {
    "rank": 4,
    "team_name": "福岡大学",
    "team_short_name": "福岡",
    "runner_name": "黒木",
    "total_distance_km": 266.4,
    "latitude": 34.69403207610818,
    "longitude": 137.5778587087066,
    "is_shadow_confederation": false
  },
  {
    "rank": 5,
    "team_name": "名古屋大学",
    "team_short_name": "名大",
    "runner_name": "大垣",
    "total_distance_km": 245.6,
    "latitude": 34.721755969856204,
    "longitude": 137.78123282254398,
    "is_shadow_confederation": false
  },
  {
    "rank": 6,
    "team_name": "四国大学",
    "team_short_name": "四国",
    "runner_name": "御荘",
    "total_distance_km": 237.4,
    "latitude": 34.72630254853503,
    "longitude": 137.8643911024679,
    "is_shadow_confederation": false
  },
  {
    "rank": 7,
    "team_name": "上武大学",
    "team_short_name": "上武",
    "runner_name": "熊谷",
    "total_distance_km": 235.3,
    "latitude": 34.73687630912185,
    "longitude": 137.88320960825246,
    "is_shadow_confederation": false
  },
  {
    "rank": 8,
    "team_name": "日本大学",
    "team_short_name": "日大",
    "runner_name": "下館",
    "total_distance_km": 234.3,
    "latitude": 34.74078803117667,
    "longitude": 137.89298244839068,
    "is_shadow_confederation": false
  },
  {
    "rank": 9,
    "team_name": "三重大学",
    "team_short_name": "三重",
    "runner_name": "小俣",
    "total_distance_km": 230.0,
    "latitude": 34.75721737400612,
    "longitude": 137.93491875137875,
    "is_shadow_confederation": false
  },
  {
    "rank": 10,
    "team_name": "広島経済大学",
    "team_short_name": "広経",
    "runner_name": "加計",
    "total_distance_km": 223.9,
    "latitude": 34.775552347821105,
    "longitude": 137.99487781406097,
    "is_shadow_confederation": false
  },
  {
    "rank": 11,
    "team_name": "鳥取大学",
    "team_short_name": "鳥取",
    "runner_name": "鳥取",
    "total_distance_km": 213.3,
    "latitude": 34.81428925102028,
    "longitude": 138.0852989063285,
    "is_shadow_confederation": false
  },
  {
    "rank": 12,
    "team_name": "関西大学",
    "team_short_name": "関大",
    "runner_name": "和田山",
    "total_distance_km": 212.7,
    "latitude": 34.818148999519124,
    "longitude": 138.08965817644642,
    "is_shadow_confederation": false
  },
  {
    "rank": 13,
    "team_name": "立命館大学",
    "team_short_name": "立命",
    "runner_name": "福知山",
    "total_distance_km": 204.5,
    "latitude": 34.84420717039039,
    "longitude": 138.15075874314363,
    "is_shadow_confederation": false
  },
  {
    "rank": 14,
    "team_name": "福島大学",
    "team_short_name": "福島",
    "runner_name": "石川",
    "total_distance_km": 197.8,
    "latitude": 34.86626982966878,
    "longitude": 138.21330014431112,
    "is_shadow_confederation": false
  },
  {
    "rank": 15,
    "team_name": "山梨学院大学",
    "team_short_name": "山学",
    "runner_name": "南信濃",
    "total_distance_km": 183.9,
    "latitude": 34.94125271279508,
    "longitude": 138.3209828920297,
    "is_shadow_confederation": false
  },
  {
    "rank": 16,
    "team_name": "金沢大学",
    "team_short_name": "金沢",
    "runner_name": "小浜",
    "total_distance_km": 175.3,
    "latitude": 34.97547172052825,
    "longitude": 138.3946786531256,
    "is_shadow_confederation": false
  },
  {
    "rank": 17,
    "team_name": "東北大学",
    "team_short_name": "東北",
    "runner_name": "山形（山形）",
    "total_distance_km": 122.8,
    "latitude": 35.09935998493139,
    "longitude": 138.85776991329496,
    "is_shadow_confederation": false
  },
  {
    "rank": 18,
    "team_name": "学連選抜",
    "team_short_name": "学連",
    "runner_name": "美幌",
    "total_distance_km": 55.8,
    "latitude": 35.323643866092965,
    "longitude": 139.43795675948348,
    "is_shadow_confederation": false
  },
  {
    "rank": null,
    "team_name": "区間記録連合",
    "team_short_name": "区間記録",
    "runner_name": "風屋",
    "total_distance_km": 432.8,
    "latitude": 34.93816495529414,
    "longitude": 136.27728060463892,
    "is_shadow_confederation": true
  }
]