[
  {
    "rank": 1,
    "team_name": "琉球大学",
    "team_short_name": "琉球",
    "runner_name": "名護",
    "total_distance_km": 417.5,
    "latitude": 34.85599984797923,
    "longitude": 136.38223274961967,
    "is_shadow_confederation": false
  },
  {
    "rank": 2,
    "team_name": "熊本学園大学",
    "team_short_name": "熊学",
    "runner_name": "人吉",
    "total_distance_km": 408.7,
    "latitude": 34.852182163015456,
    "longitude": 136.47111376960623,
    "is_shadow_confederation": false
  },
  {
    "rank": 3,
    "team_name": "福岡大学",
    "team_short_name": "福岡",
    "runner_name": "朝倉",
    "total_distance_km": 399.1,
    "latitude": 34.899693738125606,
    "longitude": 136.548557,
    "is_shadow_confederation": false
  },
  {
    "rank": 4,
    "team_name": "立命館大学",
    "team_short_name": "立命",
    "runner_name": "米原",
    "total_distance_km": 392.8,
    "latitude": 34.933159106966535,
    "longitude": 136.59350469955993,
    "is_shadow_confederation": false
  },
  {
    "rank": 5,
    "team_name": "四国大学",
    "team_short_name": "四国",
    "runner_name": "松山",
    "total_distance_km": 388.7,
    "latitude": 34.96168516400048,
    "longitude": 136.6204148983812,
    "is_shadow_confederation": false
  },
  {
    "rank": 6,
    "team_name": "鹿児島大学",
    "team_short_name": "鹿大",
    "runner_name": "西米良",
    "total_distance_km": 387.3,
    "latitude": 34.97360005310402,
    "longitude": 136.62512314158883,
    "is_shadow_confederation": false
  },
  {
    "rank": 7,
    "team_name": "広島経済大学",
    "team_short_name": "広経",
    "runner_name": "大竹",
    "total_distance_km": 387.1,
    "latitude": 34.97533162942175,
    "longitude": 136.62560738476296,
    "is_shadow_confederation": false
  },
  {
    "rank": 8,
    "team_name": "関西大学",
    "team_short_name": "関大",
    "runner_name": "柏原",
    "total_distance_km": 386.8,
    "latitude": 34.97776682289588,
    "longitude": 136.62703582241835,
    "is_shadow_confederation": false
  },
  {
    "rank": 9,
    "team_name": "鳥取大学",
    "team_short_name": "鳥取",
    "runner_name": "防府",
    "total_distance_km": 385.5,
    "latitude": 34.986942607721424,
    "longitude": 136.6356421990539,
    "is_shadow_confederation": false
  },
  {
    "rank": 10,
    "team_name": "名古屋大学",
    "team_short_name": "名大",
    "runner_name": "愛西",
    "total_distance_km": 384.1,
    "latitude": 34.99600851749738,
    "longitude": 136.64621017688856,
    "is_shadow_confederation": false
  },
  {
    "rank": 11,
    "team_name": "山梨学院大学",
    "team_short_name": "山学",
    "runner_name": "浜松",
    "total_distance_km": 377.1,
    "latitude": 35.04835343496301,
    "longitude": 136.67926538953324,
    "is_shadow_confederation": false
  },
  {
    "rank": 12,
    "team_name": "上武大学",
    "team_short_name": "上武",
    "runner_name": "寄居",
    "total_distance_km": 373.5,
    "latitude": 35.07858806505856,
    "longitude": 136.6867591390207,
    "is_shadow_confederation": false
  },
  {
    "rank": 13,
    "team_name": "三重大学",
    "team_short_name": "三重",
    "runner_name": "風屋",
    "total_distance_km": 371.3,
    "latitude": 35.0922207511941,
    "longitude": 136.70235339758082,
    "is_shadow_confederation": false
  },
  {
    "rank": 14,
    "team_name": "金沢大学",
    "team_short_name": "金沢",
    "runner_name": "志賀",
    "total_distance_km": 367.9,
    "latitude": 35.112085929247726,
    "longitude": 136.72762271085347,
    "is_shadow_confederation": false
  },
  {
    "rank": 15,
    "team_name": "日本大学",
    "team_short_name": "日大",
    "runner_name": "小田原",
    "total_distance_km": 366.9,
    "latitude": 35.114591540057084,
    "longitude": 136.7381599557303,
    "is_shadow_confederation": false
  },
  {
    "rank": 16,
    "team_name": "福島大学",
    "team_short_name": "福島",
    "runner_name": "長岡",
    "total_distance_km": 342.3,
    "latitude": 35.066037749898456,
    "longitude": 136.96813192715422,
    "is_shadow_confederation": false
  },
  {
    "rank": 17,
    "team_name": "東北大学",
    "team_short_name": "東北",
    "runner_name": "高畠",
    "total_distance_km": 323.0,
    "latitude": 34.965747509478916,
    "longitude": 137.13490444134663,
    "is_shadow_confederation": false
  },
  {
    "rank": 18,
    "team_name": "学連選抜",
    "team_short_name": "学連",
    "runner_name": "大村",
    "total_distance_km": 322.3,
    "latitude": 34.96256370775889,
    "longitude": 137.14152071683523,
    "is_shadow_confederation": false
  }
]