[
  {
    "rank": 1,
    "team_name": "琉球大学",
    "team_short_name": "琉球",
    "runner_name": "波照間",
    "total_distance_km": 533.1,
    "latitude": 34.69899978047083,
    "longitude": 135.5347994158229,
    "is_shadow_confederation": false
  },
  {
    "rank": 2,
    "team_name": "熊本学園大学",
    "team_short_name": "熊学",
    "runner_name": "熊本",
    "total_distance_km": 477.3,
    "latitude": 35.00181093068308,
    "longitude": 135.8603946409107,
    "is_shadow_confederation": false
  },
  {
    "rank": 3,
    "team_name": "鹿児島大学",
    "team_short_name": "鹿大",
    "runner_name": "西都",
    "total_distance_km": 461.0,
    "latitude": 35.02944462077326,
    "longitude": 136.00159863768258,
    "is_shadow_confederation": false
  },
  {
    "rank": 4,
    "team_name": "福岡大学",
    "team_short_name": "福岡",
    "runner_name": "前原",
    "total_distance_km": 445.5,
    "latitude": 34.98104817956371,
    "longitude": 136.15280969538875,
    "is_shadow_confederation": false
  },
  {
    "rank": 5,
    "team_name": "四国大学",
    "team_short_name": "四国",
    "runner_name": "大洲",
    "total_distance_km": 434.0,
    "latitude": 34.93823546734179,
    "longitude": 136.26434756946315,
    "is_shadow_confederation": false
  },
  {
    "rank": 6,
    "team_name": "広島経済大学",
    "team_short_name": "広経",
    "runner_name": "高梁",
    "total_distance_km": 419.6,
    "latitude": 34.86920946425628,
    "longitude": 136.37054299287453,
    "is_shadow_confederation": false
  },
  {
    "rank": 7,
    "team_name": "鳥取大学",
    "team_short_name": "鳥取",
    "runner_name": "防府",
    "total_distance_km": 406.5,
    "latitude": 34.86485007473139,
    "longitude": 136.48858679354086,
    "is_shadow_confederation": false
  },
  {
    "rank": 8,
    "team_name": "名古屋大学",
    "team_short_name": "名大",
    "runner_name": "愛西",
    "total_distance_km": 401.1,
    "latitude": 34.889652042278,
    "longitude": 136.5331008185815,
    "is_shadow_confederation": false
  },
  {
    "rank": 9,
    "team_name": "関西大学",
    "team_short_name": "関大",
    "runner_name": "柏原",
    "total_distance_km": 400.2,
    "latitude": 34.89148289940073,
    "longitude": 136.54229373312558,
    "is_shadow_confederation": false
  },
  {
    "rank": 10,
    "team_name": "立命館大学",
    "team_short_name": "立命",
    "runner_name": "米原",
    "total_distance_km": 393.4,
    "latitude": 34.92972596657415,
    "longitude": 136.58843605974127,
    "is_shadow_confederation": false
  },
  {
    "rank": 11,
    "team_name": "三重大学",
    "team_short_name": "三重",
    "runner_name": "風屋",
    "total_distance_km": 390.0,
    "latitude": 34.95310305725283,
    "longitude": 136.61095366339055,
    "is_shadow_confederation": false
  },
  {
    "rank": 12,
    "team_name": "金沢大学",
    "team_short_name": "金沢",
    "runner_name": "志賀",
    "total_distance_km": 371.7,
    "latitude": 35.08870823186641,
    "longitude": 136.70136370366666,
    "is_shadow_confederation": false
  },
  {
    "rank": 13,
    "team_name": "日本大学",
    "team_short_name": "日大",
    "runner_name": "小田原",
    "total_distance_km": 368.7,
    "latitude": 35.108947229606756,
    "longitude": 136.7198584490857,
    "is_shadow_confederation": false
  },
  {
    "rank": 14,
    "team_name": "上武大学",
    "team_short_name": "上武",
    "runner_name": "寄居",
    "total_distance_km": 367.8,
    "latitude": 35.11233649032866,
    "longitude": 136.72867643534116,
    "is_shadow_confederation": false
  },
  {
    "rank": 15,
    "team_name": "山梨学院大学",
    "team_short_name": "山学",
    "runner_name": "浜松",
    "total_distance_km": 347.3,
    "latitude": 35.09509251370906,
    "longitude": 136.92884825861222,
    "is_shadow_confederation": false
  },
  {
    "rank": 16,
    "team_name": "福島大学",
    "team_short_name": "福島",
    "runner_name": "津川",
    "total_distance_km": 324.4,
    "latitude": 34.972086950682296,
    "longitude": 137.12189136907614,
    "is_shadow_confederation": false
  },
  {
    "rank": 17,
    "team_name": "学連選抜",
    "team_short_name": "学連",
    "runner_name": "大村",
    "total_distance_km": 297.9,
    "latitude": 34.828021945572225,
    "longitude": 137.33678739602644,
    "is_shadow_confederation": false
  },
  {
    "rank": 18,
    "team_name": "東北大学",
    "team_short_name": "東北",
    "runner_name": "高畠",
    "total_distance_km": 270.5,
    "latitude": 34.68137101287217,
    "longitude": 137.53805056354898,
    "is_shadow_confederation": false
  }
]